{"businesses": [{"id": "19th-ave-chevron-service-and-repair-san-francisco", "name": "19th Ave Chevron Service & Repair", "image_url": "https://s3-media1.fl.yelpcdn.com/bphoto/S4ntyEm4_9oLL18hMWKl5Q/o.jpg", "is_closed": false, "url": "https://www.yelp.com/biz/19th-ave-chevron-service-and-repair-san-francisco?adjust_creative=0T9f6kHMnzQCXJKBQD97qw&utm_campaign=yelp_api_v3&utm_medium=api_v3_business_search&utm_source=0T9f6kHMnzQCXJKBQD97qw", "review_count": 153, "categories": [{"alias": "servicestations", "title": "Gas Stations"}, {"alias": "autorepair", "title": "Auto Repair"}, {"alias": "tires", "title": "Tires"}], "rating": 3.5, "coordinates": {"latitude": 37.7614326477051, "longitude": -122.477325439453}, "transactions": [], "location": {"address1": "1401 19th Ave", "address2": null, "address3": "", "city": "San Francisco", "zip_code": "94122", "country": "US", "state": "CA", "display_address": ["1401 19th Ave", "San Francisco, CA 94122"]}, "phone": "+14156813860", "display_phone": "(415) 681-3860", "distance": 432.3508647136}, {"id": "shell-san-francisco-2", "name": "Shell", "image_url": "https://s3-media3.fl.yelpcdn.com/bphoto/-VvVTdfNFKy1QEm1LGOPbQ/o.jpg", "is_closed": false, "url": "https://www.yelp.com/biz/shell-san-francisco-2?adjust_creative=0T9f6kHMnzQCXJKBQD97qw&utm_campaign=yelp_api_v3&utm_medium=api_v3_business_search&utm_source=0T9f6kHMnzQCXJKBQD97qw", "review_count": 44, "categories": [{"alias": "servicestations", "title": "Gas Stations"}, {"alias": "carwash", "title": "Car Wash"}], "rating": 2.0, "coordinates": {"latitude": 37.7651447108391, "longitude": -122.477039929459}, "transactions": [], "location": {"address1": "1200 19th Ave", "address2": "", "address3": "", "city": "San Francisco", "zip_code": "94122", "country": "US", "state": "CA", "display_address": ["1200 19th Ave", "San Francisco, CA 94122"]}, "phone": "+14156612276", "display_phone": "(415) 661-2276", "distance": 36.21363743978}, {"id": "quality-tune-up-shops-san-francisco-7", "name": "Quality Tune-Up Shops", "image_url": "https://s3-media3.fl.yelpcdn.com/bphoto/Cb8FDt69Q9X98U6kQm9ffQ/o.jpg", "is_closed": false, "url": "https://www.yelp.com/biz/quality-tune-up-shops-san-francisco-7?adjust_creative=0T9f6kHMnzQCXJKBQD97qw&utm_campaign=yelp_api_v3&utm_medium=api_v3_business_search&utm_source=0T9f6kHMnzQCXJKBQD97qw", "review_count": 101, "categories": [{"alias": "smog_check_stations", "title": "Smog Check Stations"}, {"alias": "oilchange", "title": "Oil Change Stations"}], "rating": 3.5, "coordinates": {"latitude": 37.7596, "longitude": -122.47651}, "transactions": [], "location": {"address1": "1500 19th Ave", "address2": "", "address3": "", "city": "San Francisco", "zip_code": "94122", "country": "US", "state": "CA", "display_address": ["1500 19th Ave", "San Francisco, CA 94122"]}, "phone": "+14155665880", "display_phone": "(415) 566-5880", "distance": 653.7089512328}, {"id": "sunset-76-auto-repair-and-tire-center-san-francisco", "name": "Sunset 76 Auto Repair & Tire Center", "image_url": "https://s3-media2.fl.yelpcdn.com/bphoto/Djptpv_ndlA_7_dd8R4sMQ/o.jpg", "is_closed": false, "url": "https://www.yelp.com/biz/sunset-76-auto-repair-and-tire-center-san-francisco?adjust_creative=0T9f6kHMnzQCXJKBQD97qw&utm_campaign=yelp_api_v3&utm_medium=api_v3_business_search&utm_source=0T9f6kHMnzQCXJKBQD97qw", "review_count": 315, "categories": [{"alias": "tires", "title": "Tires"}, {"alias": "servicestations", "title": "Gas Stations"}, {"alias": "autorepair", "title": "Auto Repair"}], "rating": 4.5, "coordinates": {"latitude": 37.7543144226074, "longitude": -122.48217010498}, "transactions": [], "location": {"address1": "1700 Noriega St", "address2": "", "address3": "", "city": "San Francisco", "zip_code": "94122", "country": "US", "state": "CA", "display_address": ["1700 Noriega St", "San Francisco, CA 94122"]}, "phone": "+14157539635", "display_phone": "(415) 753-9635", "distance": 1308.5369731279998}, {"id": "shell-san-francisco-19", "name": "Shell", "image_url": "https://s3-media1.fl.yelpcdn.com/bphoto/Mj4s5BGFPzDIuAKA3w1Q-g/o.jpg", "is_closed": false, "url": "https://www.yelp.com/biz/shell-san-francisco-19?adjust_creative=0T9f6kHMnzQCXJKBQD97qw&utm_campaign=yelp_api_v3&utm_medium=api_v3_business_search&utm_source=0T9f6kHMnzQCXJKBQD97qw", "review_count": 49, "categories": [{"alias": "servicestations", "title": "Gas Stations"}], "rating": 3.5, "coordinates": {"latitude": 37.7434268, "longitude": -122.4759823}, "transactions": [], "location": {"address1": "2399 19th Ave", "address2": "", "address3": "", "city": "San Francisco", "zip_code": "94116", "country": "US", "state": "CA", "display_address": ["2399 19th Ave", "San Francisco, CA 94116"]}, "phone": "+14156813869", "display_phone": "(415) 681-3869", "distance": 2448.3539593359997}, {"id": "19th-and-taraval-smog-test-san-francisco-7", "name": "19th and Taraval Smog Test", "image_url": "https://s3-media2.fl.yelpcdn.com/bphoto/RslEqVPGRNWgtA4ANYFn9g/o.jpg", "is_closed": false, "url": "https://www.yelp.com/biz/19th-and-taraval-smog-test-san-francisco-7?adjust_creative=0T9f6kHMnzQCXJKBQD97qw&utm_campaign=yelp_api_v3&utm_medium=api_v3_business_search&utm_source=0T9f6kHMnzQCXJKBQD97qw", "review_count": 142, "categories": [{"alias": "smog_check_stations", "title": "Smog Check Stations"}], "rating": 5.0, "coordinates": {"latitude": 37.743355, "longitude": -122.4758981}, "transactions": [], "location": {"address1": "2399 19th Ave", "address2": "", "address3": "Shell Gas Station", "city": "San Francisco", "zip_code": "94116", "country": "US", "state": "CA", "display_address": ["2399 19th Ave", "Shell Gas Station", "San Francisco, CA 94116"]}, "phone": "+14156829899", "display_phone": "(415) 682-9899", "distance": 2456.7523001259997}, {"id": "flyers-san-francisco-2", "name": "Flyers", "image_url": "https://s3-media2.fl.yelpcdn.com/bphoto/Dxpa3WLbghdTFH5i3s5IXw/o.jpg", "is_closed": false, "url": "https://www.yelp.com/biz/flyers-san-francisco-2?adjust_creative=0T9f6kHMnzQCXJKBQD97qw&utm_campaign=yelp_api_v3&utm_medium=api_v3_business_search&utm_source=0T9f6kHMnzQCXJKBQD97qw", "review_count": 7, "categories": [{"alias": "servicestations", "title": "Gas Stations"}], "rating": 1.5, "coordinates": {"latitude": 37.744658, "longitude": -122.476085}, "transactions": [], "location": {"address1": "2301 19th Ave", "address2": "", "address3": "", "city": "San Francisco", "zip_code": "94116", "country": "US", "state": "CA", "display_address": ["2301 19th Ave", "San Francisco, CA 94116"]}, "phone": "+14157319540", "display_phone": "(415) 731-9540", "distance": 2311.091258594}, {"id": "shell-san-francisco-15", "name": "Shell", "image_url": "https://s3-media1.fl.yelpcdn.com/bphoto/_AarLf6kyYvgPKBB7kzxZg/o.jpg", "is_closed": false, "url": "https://www.yelp.com/biz/shell-san-francisco-15?adjust_creative=0T9f6kHMnzQCXJKBQD97qw&utm_campaign=yelp_api_v3&utm_medium=api_v3_business_search&utm_source=0T9f6kHMnzQCXJKBQD97qw", "review_count": 73, "categories": [{"alias": "carwash", "title": "Car Wash"}, {"alias": "servicestations", "title": "Gas Stations"}], "rating": 3.0, "coordinates": {"latitude": 37.78156, "longitude": -122.4517}, "transactions": [], "location": {"address1": "3035 Geary Blvd", "address2": "", "address3": "", "city": "San Francisco", "zip_code": "94118", "country": "US", "state": "CA", "display_address": ["3035 Geary Blvd", "San Francisco, CA 94118"]}, "phone": "+14157524171", "display_phone": "(415) 752-4171", "distance": 2887.628462224}, {"id": "firestone-complete-auto-care-san-francisco-2", "name": "Firestone Complete Auto Care", "image_url": "https://s3-media3.fl.yelpcdn.com/bphoto/Ygcr4bb3vuV06XdtqfuVuA/o.jpg", "is_closed": false, "url": "https://www.yelp.com/biz/firestone-complete-auto-care-san-francisco-2?adjust_creative=0T9f6kHMnzQCXJKBQD97qw&utm_campaign=yelp_api_v3&utm_medium=api_v3_business_search&utm_source=0T9f6kHMnzQCXJKBQD97qw", "review_count": 154, "categories": [{"alias": "tires", "title": "Tires"}, {"alias": "autorepair", "title": "Auto Repair"}, {"alias": "oilchange", "title": "Oil Change Stations"}], "rating": 3.5, "coordinates": {"latitude": 37.7825469970703, "longitude": -122.449401855469}, "transactions": [], "location": {"address1": "2800 Geary Blvd", "address2": "", "address3": "", "city": "San Francisco", "zip_code": "94118", "country": "US", "state": "CA", "display_address": ["2800 Geary Blvd", "San Francisco, CA 94118"]}, "phone": "+14155673311", "display_phone": "(415) 567-3311", "distance": 3101.529221238}, {"id": "geneva-shell-san-francisco", "name": "Geneva Shell", "image_url": "https://s3-media3.fl.yelpcdn.com/bphoto/6T-mji9fyguW_TU0tDKYQw/o.jpg", "is_closed": false, "url": "https://www.yelp.com/biz/geneva-shell-san-francisco?adjust_creative=0T9f6kHMnzQCXJKBQD97qw&utm_campaign=yelp_api_v3&utm_medium=api_v3_business_search&utm_source=0T9f6kHMnzQCXJKBQD97qw", "review_count": 44, "categories": [{"alias": "servicestations", "title": "Gas Stations"}, {"alias": "autorepair", "title": "Auto Repair"}], "rating": 4.0, "coordinates": {"latitude": 37.7179124034294, "longitude": -122.442868961374}, "transactions": [], "location": {"address1": "2200 Alemany Blvd", "address2": "", "address3": "", "city": "San Francisco", "zip_code": "94112", "country": "US", "state": "CA", "display_address": ["2200 Alemany Blvd", "San Francisco, CA 94112"]}, "phone": "+14155863295", "display_phone": "(415) 586-3295", "distance": 6087.111289099999}, {"id": "golden-gate-auto-service-san-francisco-3", "name": "Golden Gate Auto Service", "image_url": "https://s3-media4.fl.yelpcdn.com/bphoto/SQ1DJj6xaNaBgqPbkS3vyA/o.jpg", "is_closed": false, "url": "https://www.yelp.com/biz/golden-gate-auto-service-san-francisco-3?adjust_creative=0T9f6kHMnzQCXJKBQD97qw&utm_campaign=yelp_api_v3&utm_medium=api_v3_business_search&utm_source=0T9f6kHMnzQCXJKBQD97qw", "review_count": 23, "categories": [{"alias": "autorepair", "title": "Auto Repair"}, {"alias": "smog_check_stations", "title": "Smog Check Stations"}, {"alias": "tires", "title": "Tires"}], "rating": 4.5, "coordinates": {"latitude": 37.73256, "longitude": -122.40585}, "transactions": [], "location": {"address1": "2380 San Bruno Ave", "address2": "", "address3": "", "city": "San Francisco", "zip_code": "94134", "country": "US", "state": "CA", "display_address": ["2380 San Bruno Ave", "San Francisco, CA 94134"]}, "phone": "+14153300928", "display_phone": "(415) 330-0928", "distance": 7257.15940534}, {"id": "the-smog-shop-san-francisco-3", "name": "The Smog Shop", "image_url": "https://s3-media1.fl.yelpcdn.com/bphoto/gcNIVyMz-Wdn8G7VnsKprQ/o.jpg", "is_closed": false, "url": "https://www.yelp.com/biz/the-smog-shop-san-francisco-3?adjust_creative=0T9f6kHMnzQCXJKBQD97qw&utm_campaign=yelp_api_v3&utm_medium=api_v3_business_search&utm_source=0T9f6kHMnzQCXJKBQD97qw", "review_count": 217, "categories": [{"alias": "autorepair", "title": "Auto Repair"}, {"alias": "smog_check_stations", "title": "Smog Check Stations"}], "rating": 5.0, "coordinates": {"latitude": 37.772, "longitude": -122.41478}, "transactions": [], "location": {"address1": "276 11th St", "address2": "", "address3": "", "city": "San Francisco", "zip_code": "94103", "country": "US", "state": "CA", "display_address": ["276 11th St", "San Francisco, CA 94103"]}, "phone": "+14158634110", "display_phone": "(415) 863-4110", "distance": 5536.51262292}, {"id": "rolling-stock-san-francisco-3", "name": "Rolling Stock", "image_url": "https://s3-media3.fl.yelpcdn.com/bphoto/ZEXrgs7l6mP6iak9ua8zpA/o.jpg", "is_closed": false, "url": "https://www.yelp.com/biz/rolling-stock-san-francisco-3?adjust_creative=0T9f6kHMnzQCXJKBQD97qw&utm_campaign=yelp_api_v3&utm_medium=api_v3_business_search&utm_source=0T9f6kHMnzQCXJKBQD97qw", "review_count": 275, "categories": [{"alias": "autorepair", "title": "Auto Repair"}, {"alias": "wheelrimrepair", "title": "Wheel & Rim Repair"}, {"alias": "tires", "title": "Tires"}], "rating": 4.5, "coordinates": {"latitude": 37.73786, "longitude": -122.40631}, "transactions": [], "location": {"address1": "601 Bayshore Blvd", "address2": "", "address3": null, "city": "San Francisco", "zip_code": "94124", "country": "US", "state": "CA", "display_address": ["601 Bayshore Blvd", "San Francisco, CA 94124"]}, "phone": "+14155589121", "display_phone": "(415) 558-9121", "distance": 6958.685415316}, {"id": "dons-auto-service-san-francisco", "name": "Don's Auto Service", "image_url": "https://s3-media2.fl.yelpcdn.com/bphoto/SbSwscEKYS79awBEttalPg/o.jpg", "is_closed": false, "url": "https://www.yelp.com/biz/dons-auto-service-san-francisco?adjust_creative=0T9f6kHMnzQCXJKBQD97qw&utm_campaign=yelp_api_v3&utm_medium=api_v3_business_search&utm_source=0T9f6kHMnzQCXJKBQD97qw", "review_count": 179, "categories": [{"alias": "autorepair", "title": "Auto Repair"}], "rating": 4.5, "coordinates": {"latitude": 37.74081, "longitude": -122.4234}, "transactions": [], "location": {"address1": "899 San Jose Ave", "address2": "", "address3": "", "city": "San Francisco", "zip_code": "94110", "country": "US", "state": "CA", "display_address": ["899 San Jose Ave", "San Francisco, CA 94110"]}, "phone": "+14152820800", "display_phone": "(415) 282-0800", "distance": 5455.067144199999}, {"id": "san-francisco-honda-marina-service-center-san-francisco", "name": "San Francisco Honda Marina Service Center", "image_url": "https://s3-media3.fl.yelpcdn.com/bphoto/4BO_Ts49obJsFPpCCU83cA/o.jpg", "is_closed": false, "url": "https://www.yelp.com/biz/san-francisco-honda-marina-service-center-san-francisco?adjust_creative=0T9f6kHMnzQCXJKBQD97qw&utm_campaign=yelp_api_v3&utm_medium=api_v3_business_search&utm_source=0T9f6kHMnzQCXJKBQD97qw", "review_count": 116, "categories": [{"alias": "autorepair", "title": "Auto Repair"}, {"alias": "car_dealers", "title": "Car Dealers"}], "rating": 4.0, "coordinates": {"latitude": 37.8001, "longitude": -122.43578}, "transactions": [], "location": {"address1": "2098 Lombard St", "address2": "", "address3": "", "city": "San Francisco", "zip_code": "94123", "country": "US", "state": "CA", "display_address": ["2098 Lombard St", "San Francisco, CA 94123"]}, "phone": "+14153467400", "display_phone": "(415) 346-7400", "distance": 5304.83203652}, {"id": "larkins-bros-tire-company-san-francisco", "name": "Larkins Bros Tire Company", "image_url": "https://s3-media3.fl.yelpcdn.com/bphoto/GYx6Ok9ZNxw0mmdgR5eQgg/o.jpg", "is_closed": false, "url": "https://www.yelp.com/biz/larkins-bros-tire-company-san-francisco?adjust_creative=0T9f6kHMnzQCXJKBQD97qw&utm_campaign=yelp_api_v3&utm_medium=api_v3_business_search&utm_source=0T9f6kHMnzQCXJKBQD97qw", "review_count": 631, "categories": [{"alias": "tires", "title": "Tires"}, {"alias": "autorepair", "title": "Auto Repair"}, {"alias": "wheelrimrepair", "title": "Wheel & Rim Repair"}], "rating": 4.5, "coordinates": {"latitude": 37.767219543457, "longitude": -122.418037414551}, "transactions": [], "location": {"address1": "370 S Van Ness Ave", "address2": "", "address3": "", "city": "San Francisco", "zip_code": "94103", "country": "US", "state": "CA", "display_address": ["370 S Van Ness Ave", "San Francisco, CA 94103"]}, "phone": "+14158635730", "display_phone": "(415) 863-5730", "distance": 5207.289456318}, {"id": "payless-towing-san-francisco", "name": "Payless Towing", "image_url": "https://s3-media4.fl.yelpcdn.com/bphoto/2DEeQdYdIPT6zz6Mk9ztaQ/o.jpg", "is_closed": false, "url": "https://www.yelp.com/biz/payless-towing-san-francisco?adjust_creative=0T9f6kHMnzQCXJKBQD97qw&utm_campaign=yelp_api_v3&utm_medium=api_v3_business_search&utm_source=0T9f6kHMnzQCXJKBQD97qw", "review_count": 36, "categories": [{"alias": "towing", "title": "Towing"}, {"alias": "roadsideassist", "title": "Roadside Assistance"}], "rating": 4.5, "coordinates": {"latitude": 37.72752, "longitude": -122.39414}, "transactions": [], "location": {"address1": "2340 Lane St", "address2": "", "address3": "", "city": "San Francisco", "zip_code": "94124", "country": "US", "state": "CA", "display_address": ["2340 Lane St", "San Francisco, CA 94124"]}, "phone": "+14158226400", "display_phone": "(415) 822-6400", "distance": 8436.650002162}, {"id": "san-francisco-honda-san-francisco", "name": "San Francisco Honda", "image_url": "https://s3-media4.fl.yelpcdn.com/bphoto/d9k_56MfdjHyvoNbigFiBQ/o.jpg", "is_closed": false, "url": "https://www.yelp.com/biz/san-francisco-honda-san-francisco?adjust_creative=0T9f6kHMnzQCXJKBQD97qw&utm_campaign=yelp_api_v3&utm_medium=api_v3_business_search&utm_source=0T9f6kHMnzQCXJKBQD97qw", "review_count": 724, "categories": [{"alias": "autorepair", "title": "Auto Repair"}, {"alias": "car_dealers", "title": "Car Dealers"}], "rating": 3.5, "coordinates": {"latitude": 37.7749097, "longitude": -122.4193514}, "transactions": [], "location": {"address1": "10 S Van Ness Ave", "address2": "", "address3": "", "city": "San Francisco", "zip_code": "94103", "country": "US", "state": "CA", "display_address": ["10 S Van Ness Ave", "San Francisco, CA 94103"]}, "phone": "+18664135392", "display_phone": "(866) 413-5392", "distance": 5166.518597691999}, {"id": "golden-auto-muffler-and-brake-service-daly-city", "name": "Golden Auto Muffler & Brake Service", "image_url": "https://s3-media2.fl.yelpcdn.com/bphoto/whqVdzi9Dye72up26crMiQ/o.jpg", "is_closed": false, "url": "https://www.yelp.com/biz/golden-auto-muffler-and-brake-service-daly-city?adjust_creative=0T9f6kHMnzQCXJKBQD97qw&utm_campaign=yelp_api_v3&utm_medium=api_v3_business_search&utm_source=0T9f6kHMnzQCXJKBQD97qw", "review_count": 140, "categories": [{"alias": "autorepair", "title": "Auto Repair"}], "rating": 4.5, "coordinates": {"latitude": 37.690485, "longitude": -122.466158}, "transactions": [], "location": {"address1": "7360 Mission St", "address2": "", "address3": "", "city": "Daly City", "zip_code": "94014", "country": "US", "state": "CA", "display_address": ["7360 Mission St", "Daly City, CA 94014"]}, "phone": "+16509926766", "display_phone": "(650) 992-6766", "distance": 8389.903503182}, {"id": "mercedes-benz-of-san-francisco-san-francisco-4", "name": "Mercedes-Benz Of San Francisco", "image_url": "https://s3-media1.fl.yelpcdn.com/bphoto/6meafyYpHqDs2AUyq4oZew/o.jpg", "is_closed": false, "url": "https://www.yelp.com/biz/mercedes-benz-of-san-francisco-san-francisco-4?adjust_creative=0T9f6kHMnzQCXJKBQD97qw&utm_campaign=yelp_api_v3&utm_medium=api_v3_business_search&utm_source=0T9f6kHMnzQCXJKBQD97qw", "review_count": 423, "categories": [{"alias": "car_dealers", "title": "Car Dealers"}, {"alias": "autorepair", "title": "Auto Repair"}], "rating": 3.5, "coordinates": {"latitude": 37.7722561, "longitude": -122.4070388}, "transactions": [], "location": {"address1": "500 8th St", "address2": null, "address3": "", "city": "San Francisco", "zip_code": "94103", "country": "US", "state": "CA", "display_address": ["500 8th St", "San Francisco, CA 94103"]}, "phone": "+18775546016", "display_phone": "(877) 554-6016", "distance": 6211.498626105999}], "total": 26, "region": {"center": {"latitude": 37.76007770682898, "longitude": -122.45616862746996}}}