{"businesses": [{"id": "left-coast-catering-san-francisco", "name": "Left Coast Catering", "image_url": "https://s3-media3.fl.yelpcdn.com/bphoto/71fhnIXcRfPCuoVxi8qbdw/o.jpg", "is_closed": false, "url": "https://www.yelp.com/biz/left-coast-catering-san-francisco?adjust_creative=0T9f6kHMnzQCXJKBQD97qw&utm_campaign=yelp_api_v3&utm_medium=api_v3_business_search&utm_source=0T9f6kHMnzQCXJKBQD97qw", "review_count": 56, "categories": [{"alias": "catering", "title": "Caterers"}], "rating": 5.0, "coordinates": {"latitude": 37.725022, "longitude": -122.387911}, "transactions": [], "location": {"address1": "1400 Yosemite Ave", "address2": "", "address3": "", "city": "San Francisco", "zip_code": "94107", "country": "US", "state": "CA", "display_address": ["1400 Yosemite Ave", "San Francisco, CA 94107"]}, "phone": "+14159340600", "display_phone": "(415) 934-0600", "distance": 5842.09571146}, {"id": "dirty-water-san-francisco-4", "name": "Dirty Water", "image_url": "https://s3-media1.fl.yelpcdn.com/bphoto/t1Q4pA9F6oNW98LdEeJBww/o.jpg", "is_closed": false, "url": "https://www.yelp.com/biz/dirty-water-san-francisco-4?adjust_creative=0T9f6kHMnzQCXJKBQD97qw&utm_campaign=yelp_api_v3&utm_medium=api_v3_business_search&utm_source=0T9f6kHMnzQCXJKBQD97qw", "review_count": 252, "categories": [{"alias": "wine_bars", "title": "Wine Bars"}, {"alias": "cocktailbars", "title": "Cocktail Bars"}, {"alias": "newamerican", "title": "American (New)"}], "rating": 3.5, "coordinates": {"latitude": 37.77674, "longitude": -122.41636}, "transactions": ["pickup"], "price": "$$", "location": {"address1": "1355 Market St", "address2": null, "address3": "", "city": "San Francisco", "zip_code": "94103", "country": "US", "state": "CA", "display_address": ["1355 Market St", "San Francisco, CA 94103"]}, "phone": "+14157925101", "display_phone": "(415) 792-5101", "distance": 2495.2435286419995}, {"id": "hotel-nikko-san-francisco-san-francisco-2", "name": "Hotel Nikko San Francisco", "image_url": "https://s3-media2.fl.yelpcdn.com/bphoto/xRfoLpWSvX-UjMVRua860w/o.jpg", "is_closed": false, "url": "https://www.yelp.com/biz/hotel-nikko-san-francisco-san-francisco-2?adjust_creative=0T9f6kHMnzQCXJKBQD97qw&utm_campaign=yelp_api_v3&utm_medium=api_v3_business_search&utm_source=0T9f6kHMnzQCXJKBQD97qw", "review_count": 668, "categories": [{"alias": "hotels", "title": "Hotels"}], "rating": 4.0, "coordinates": {"latitude": 37.7859844832523, "longitude": -122.409244244422}, "transactions": [], "price": "$$$", "location": {"address1": "222 Mason St", "address2": "", "address3": "", "city": "San Francisco", "zip_code": "94102", "country": "US", "state": "CA", "display_address": ["222 Mason St", "San Francisco, CA 94102"]}, "phone": "+14153941111", "display_phone": "(415) 394-1111", "distance": 3674.051121568}, {"id": "alcatraz-cruises-san-francsico", "name": "Alcatraz Cruises", "image_url": "https://s3-media3.fl.yelpcdn.com/bphoto/JbdzV76I7KqpASY8spfwlA/o.jpg", "is_closed": false, "url": "https://www.yelp.com/biz/alcatraz-cruises-san-francsico?adjust_creative=0T9f6kHMnzQCXJKBQD97qw&utm_campaign=yelp_api_v3&utm_medium=api_v3_business_search&utm_source=0T9f6kHMnzQCXJKBQD97qw", "review_count": 790, "categories": [{"alias": "tours", "title": "Tours"}, {"alias": "boatcharters", "title": "Boat Charters"}, {"alias": "eventplanning", "title": "Party & Event Planning"}], "rating": 4.5, "coordinates": {"latitude": 37.8065290150772, "longitude": -122.404576285211}, "transactions": [], "location": {"address1": "Alcatraz Landing Pier 33", "address2": "", "address3": "", "city": "San Francsico", "zip_code": "94111", "country": "US", "state": "CA", "display_address": ["Alcatraz Landing Pier 33", "San Francsico, CA 94111"]}, "phone": "+14159817625", "display_phone": "(415) 981-7625", "distance": 5795.55359866}, {"id": "le-colonial-san-francisco", "name": "Le Colonial", "image_url": "https://s3-media2.fl.yelpcdn.com/bphoto/cqHioshtb9u5rnxPikSX7g/o.jpg", "is_closed": false, "url": "https://www.yelp.com/biz/le-colonial-san-francisco?adjust_creative=0T9f6kHMnzQCXJKBQD97qw&utm_campaign=yelp_api_v3&utm_medium=api_v3_business_search&utm_source=0T9f6kHMnzQCXJKBQD97qw", "review_count": 1462, "categories": [{"alias": "vietnamese", "title": "Vietnamese"}, {"alias": "venues", "title": "Venues & Event Spaces"}, {"alias": "french", "title": "French"}], "rating": 3.5, "coordinates": {"latitude": 37.78839, "longitude": -122.41236}, "transactions": ["pickup"], "price": "$$$", "location": {"address1": "20 Cosmo Pl", "address2": "", "address3": "", "city": "San Francisco", "zip_code": "94109", "country": "US", "state": "CA", "display_address": ["20 Cosmo Pl", "San Francisco, CA 94109"]}, "phone": "+14159313600", "display_phone": "(415) 931-3600", "distance": 3699.7464877439998}, {"id": "bar-none-san-francisco", "name": "Bar None", "image_url": "https://s3-media2.fl.yelpcdn.com/bphoto/HTCmh0S7oiTlktcz-cOkhg/o.jpg", "is_closed": false, "url": "https://www.yelp.com/biz/bar-none-san-francisco?adjust_creative=0T9f6kHMnzQCXJKBQD97qw&utm_campaign=yelp_api_v3&utm_medium=api_v3_business_search&utm_source=0T9f6kHMnzQCXJKBQD97qw", "review_count": 625, "categories": [{"alias": "pubs", "title": "Pubs"}, {"alias": "cocktailbars", "title": "Cocktail Bars"}], "rating": 2.5, "coordinates": {"latitude": 37.7977599, "longitude": -122.43191}, "transactions": [], "price": "$", "location": {"address1": "1980 Union St", "address2": "", "address3": "", "city": "San Francisco", "zip_code": "94123", "country": "US", "state": "CA", "display_address": ["1980 Union St", "San Francisco, CA 94123"]}, "phone": "+14154094469", "display_phone": "(415) 409-4469", "distance": 4116.8372043360005}, {"id": "the-dirty-bird-lounge-hayward-2", "name": "The Dirty Bird Lounge", "image_url": "https://s3-media1.fl.yelpcdn.com/bphoto/ow79sML09m8RReSv85sAzA/o.jpg", "is_closed": false, "url": "https://www.yelp.com/biz/the-dirty-bird-lounge-hayward-2?adjust_creative=0T9f6kHMnzQCXJKBQD97qw&utm_campaign=yelp_api_v3&utm_medium=api_v3_business_search&utm_source=0T9f6kHMnzQCXJKBQD97qw", "review_count": 34, "categories": [{"alias": "lounges", "title": "Lounges"}], "rating": 3.5, "coordinates": {"latitude": 37.6724969746992, "longitude": -122.083656058382}, "transactions": [], "price": "$$", "location": {"address1": "926 B St", "address2": null, "address3": "", "city": "Hayward", "zip_code": "94541", "country": "US", "state": "CA", "display_address": ["926 B St", "Hayward, CA 94541"]}, "phone": "+15103988014", "display_phone": "(510) 398-8014", "distance": 32551.18032544}, {"id": "cali-party-bus-oakland", "name": "Cali Party Bus", "image_url": "https://s3-media1.fl.yelpcdn.com/bphoto/EQKzTUQDf2K5stOlBKM36g/o.jpg", "is_closed": false, "url": "https://www.yelp.com/biz/cali-party-bus-oakland?adjust_creative=0T9f6kHMnzQCXJKBQD97qw&utm_campaign=yelp_api_v3&utm_medium=api_v3_business_search&utm_source=0T9f6kHMnzQCXJKBQD97qw", "review_count": 201, "categories": [{"alias": "partybusrentals", "title": "Party Bus Rentals"}], "rating": 4.5, "coordinates": {"latitude": 37.7641599, "longitude": -122.21625}, "transactions": [], "location": {"address1": "4911 Coliseum Way", "address2": "", "address3": "", "city": "Oakland", "zip_code": "94601", "country": "US", "state": "CA", "display_address": ["4911 Coliseum Way", "Oakland, CA 94601"]}, "phone": "+14156921465", "display_phone": "(415) 692-1465", "distance": 19358.190809679996}, {"id": "corporate-av-santa-clara", "name": "Corporate AV", "image_url": "https://s3-media4.fl.yelpcdn.com/bphoto/wMMUfJUeGcr9dxhdeHzQGg/o.jpg", "is_closed": false, "url": "https://www.yelp.com/biz/corporate-av-santa-clara?adjust_creative=0T9f6kHMnzQCXJKBQD97qw&utm_campaign=yelp_api_v3&utm_medium=api_v3_business_search&utm_source=0T9f6kHMnzQCXJKBQD97qw", "review_count": 17, "categories": [{"alias": "eventplanning", "title": "Party & Event Planning"}, {"alias": "partyequipmentrentals", "title": "Party Equipment Rentals"}], "rating": 5.0, "coordinates": {"latitude": 37.388785, "longitude": -121.9409154}, "transactions": [], "location": {"address1": "415 Nelo St", "address2": null, "address3": "", "city": "Santa Clara", "zip_code": "95054", "country": "US", "state": "CA", "display_address": ["415 Nelo St", "Santa Clara, CA 95054"]}, "phone": "+18776212938", "display_phone": "(877) 621-2938", "distance": 60159.03465855999}, {"id": "drakes-dealership-oakland-5", "name": "Drake's Dealership", "image_url": "https://s3-media1.fl.yelpcdn.com/bphoto/zm2EeZt3iPcmGnw1Ihmb1g/o.jpg", "is_closed": false, "url": "https://www.yelp.com/biz/drakes-dealership-oakland-5?adjust_creative=0T9f6kHMnzQCXJKBQD97qw&utm_campaign=yelp_api_v3&utm_medium=api_v3_business_search&utm_source=0T9f6kHMnzQCXJKBQD97qw", "review_count": 964, "categories": [{"alias": "beergardens", "title": "Beer Gardens"}, {"alias": "pizza", "title": "Pizza"}], "rating": 4.0, "coordinates": {"latitude": 37.8127767812949, "longitude": -122.266634013951}, "transactions": [], "price": "$$", "location": {"address1": "2325 Broadway Auto Row", "address2": "", "address3": "", "city": "Oakland", "zip_code": "94612", "country": "US", "state": "CA", "display_address": ["2325 Broadway Auto Row", "Oakland, CA 94612"]}, "phone": "+15105682739", "display_phone": "(510) 568-2739", "distance": 15999.0202557}, {"id": "ifly-indoor-skydiving-sf-bay-union-city", "name": "iFLY Indoor Skydiving - SF Bay", "image_url": "https://s3-media4.fl.yelpcdn.com/bphoto/WT8L217LK2ZNdn1mNmHV3A/o.jpg", "is_closed": false, "url": "https://www.yelp.com/biz/ifly-indoor-skydiving-sf-bay-union-city?adjust_creative=0T9f6kHMnzQCXJKBQD97qw&utm_campaign=yelp_api_v3&utm_medium=api_v3_business_search&utm_source=0T9f6kHMnzQCXJKBQD97qw", "review_count": 711, "categories": [{"alias": "skydiving", "title": "Skydiving"}, {"alias": "eventplanning", "title": "Party & Event Planning"}], "rating": 4.5, "coordinates": {"latitude": 37.5983916, "longitude": -122.065536}, "transactions": [], "location": {"address1": "31310 Alvarado-Niles Rd", "address2": "", "address3": "", "city": "Union City", "zip_code": "94587", "country": "US", "state": "CA", "display_address": ["31310 Alvarado-Niles Rd", "Union City, CA 94587"]}, "phone": "+15104894359", "display_phone": "(510) 489-4359", "distance": 37309.4257804}, {"id": "hooters-dublin", "name": "Hooters", "image_url": "https://s3-media1.fl.yelpcdn.com/bphoto/tlMuBmpVdnpojoQn4a9Kfg/o.jpg", "is_closed": false, "url": "https://www.yelp.com/biz/hooters-dublin?adjust_creative=0T9f6kHMnzQCXJKBQD97qw&utm_campaign=yelp_api_v3&utm_medium=api_v3_business_search&utm_source=0T9f6kHMnzQCXJKBQD97qw", "review_count": 287, "categories": [{"alias": "tradamerican", "title": "American (Traditional)"}, {"alias": "sportsbars", "title": "Sports Bars"}, {"alias": "chicken_wings", "title": "Chicken Wings"}], "rating": 2.5, "coordinates": {"latitude": 37.7021731888074, "longitude": -121.93539129919}, "transactions": [], "price": "$$", "location": {"address1": "7944 Dublin Blvd", "address2": "", "address3": "", "city": "Dublin", "zip_code": "94568", "country": "US", "state": "CA", "display_address": ["7944 Dublin Blvd", "Dublin, CA 94568"]}, "phone": "+19258299468", "display_phone": "(925) 829-9468", "distance": 44545.03612314}, {"id": "san-pedro-square-market-san-jose", "name": "San Pedro Square Market", "image_url": "https://s3-media3.fl.yelpcdn.com/bphoto/BeZwgjljyfAfqFiiXr6YdQ/o.jpg", "is_closed": false, "url": "https://www.yelp.com/biz/san-pedro-square-market-san-jose?adjust_creative=0T9f6kHMnzQCXJKBQD97qw&utm_campaign=yelp_api_v3&utm_medium=api_v3_business_search&utm_source=0T9f6kHMnzQCXJKBQD97qw", "review_count": 750, "categories": [{"alias": "musicvenues", "title": "Music Venues"}, {"alias": "restaurants", "title": "Restaurants"}, {"alias": "bars", "title": "Bars"}], "rating": 4.5, "coordinates": {"latitude": 37.3366485, "longitude": -121.8941835}, "transactions": [], "price": "$$", "location": {"address1": "87 N San Pedro St", "address2": "", "address3": "", "city": "San Jose", "zip_code": "95110", "country": "US", "state": "CA", "display_address": ["87 N San Pedro St", "San Jose, CA 95110"]}, "phone": "", "display_phone": "", "distance": 67162.4574728}, {"id": "hooters-campbell", "name": "Hooters", "image_url": "https://s3-media1.fl.yelpcdn.com/bphoto/tAA2TN4p6QCOtOjQKe117w/o.jpg", "is_closed": false, "url": "https://www.yelp.com/biz/hooters-campbell?adjust_creative=0T9f6kHMnzQCXJKBQD97qw&utm_campaign=yelp_api_v3&utm_medium=api_v3_business_search&utm_source=0T9f6kHMnzQCXJKBQD97qw", "review_count": 555, "categories": [{"alias": "tradamerican", "title": "American (Traditional)"}, {"alias": "chicken_wings", "title": "Chicken Wings"}, {"alias": "sportsbars", "title": "Sports Bars"}], "rating": 3.0, "coordinates": {"latitude": 37.29517, "longitude": -121.93213}, "transactions": [], "price": "$$", "location": {"address1": "1555 S Bascon Ave", "address2": "", "address3": "", "city": "Campbell", "zip_code": "95008", "country": "US", "state": "CA", "display_address": ["1555 S Bascon Ave", "Campbell, CA 95008"]}, "phone": "+14083779464", "display_phone": "(408) 377-9464", "distance": 68261.73325319999}], "total": 14, "region": {"center": {"latitude": 37.56875257466579, "longitude": -122.21647041210937}}}