{"businesses": [{"id": "a2-cafe-san-francisco", "name": "A2 Cafe", "image_url": "", "is_closed": false, "url": "https://www.yelp.com/biz/a2-cafe-san-francisco?adjust_creative=0T9f6kHMnzQCXJKBQD97qw&utm_campaign=yelp_api_v3&utm_medium=api_v3_business_search&utm_source=0T9f6kHMnzQCXJKBQD97qw", "review_count": 1, "categories": [{"alias": "desserts", "title": "Desserts"}, {"alias": "pizza", "title": "Pizza"}, {"alias": "sandwiches", "title": "Sandwiches"}], "rating": 5.0, "coordinates": {"latitude": 37.7671045053891, "longitude": -122.399702357602}, "transactions": [], "location": {"address1": "1111 8th St", "address2": "", "address3": null, "city": "San Francisco", "zip_code": "94107", "country": "US", "state": "CA", "display_address": ["1111 8th St", "San Francisco, CA 94107"]}, "phone": "+14158638169", "display_phone": "(415) 863-8169", "distance": 59.807805859599995}, {"id": "a2-rustico-cafe-san-francisco", "name": "A2/Rustico Cafe", "image_url": "https://s3-media3.fl.yelpcdn.com/bphoto/Da-NBcUxcYg19TXjLIACng/o.jpg", "is_closed": false, "url": "https://www.yelp.com/biz/a2-rustico-cafe-san-francisco?adjust_creative=0T9f6kHMnzQCXJKBQD97qw&utm_campaign=yelp_api_v3&utm_medium=api_v3_business_search&utm_source=0T9f6kHMnzQCXJKBQD97qw", "review_count": 21, "categories": [{"alias": "italian", "title": "Italian"}], "rating": 3.5, "coordinates": {"latitude": 37.7672647, "longitude": -122.4001273}, "transactions": [], "price": "$", "location": {"address1": "1111 8th St", "address2": "", "address3": "", "city": "San Francisco", "zip_code": "94107", "country": "US", "state": "CA", "display_address": ["1111 8th St", "San Francisco, CA 94107"]}, "phone": "+14152520180", "display_phone": "(415) 252-0180", "distance": 49.28563033698}, {"id": "spicy-garden-san-francisco", "name": "Spicy Garden", "image_url": "https://s3-media4.fl.yelpcdn.com/bphoto/ZwIa64LOxBYW-r7ZRRpGcA/o.jpg", "is_closed": false, "url": "https://www.yelp.com/biz/spicy-garden-san-francisco?adjust_creative=0T9f6kHMnzQCXJKBQD97qw&utm_campaign=yelp_api_v3&utm_medium=api_v3_business_search&utm_source=0T9f6kHMnzQCXJKBQD97qw", "review_count": 75, "categories": [{"alias": "szechuan", "title": "Szechuan"}], "rating": 3.5, "coordinates": {"latitude": 37.7812167, "longitude": -122.4086199}, "transactions": ["delivery", "pickup"], "price": "$", "location": {"address1": "996 Mission St", "address2": null, "address3": "", "city": "San Francisco", "zip_code": "94103", "country": "US", "state": "CA", "display_address": ["996 Mission St", "San Francisco, CA 94103"]}, "phone": "+14155432788", "display_phone": "(415) 543-2788", "distance": 1778.738645598}, {"id": "kisu-japanese-cuisine-san-francisco", "name": "Kisu Japanese Cuisine", "image_url": "https://s3-media1.fl.yelpcdn.com/bphoto/Ll_P7JuURfVLWA3IWfJFLA/o.jpg", "is_closed": false, "url": "https://www.yelp.com/biz/kisu-japanese-cuisine-san-francisco?adjust_creative=0T9f6kHMnzQCXJKBQD97qw&utm_campaign=yelp_api_v3&utm_medium=api_v3_business_search&utm_source=0T9f6kHMnzQCXJKBQD97qw", "review_count": 52, "categories": [{"alias": "japanese", "title": "Japanese"}, {"alias": "sushi", "title": "Sushi Bars"}, {"alias": "seafood", "title": "Seafood"}], "rating": 3.0, "coordinates": {"latitude": 37.791671231389, "longitude": -122.40403868258}, "transactions": ["pickup"], "price": "$$", "location": {"address1": "493 Pine St", "address2": null, "address3": "", "city": "San Francisco", "zip_code": "94104", "country": "US", "state": "CA", "display_address": ["493 Pine St", "San Francisco, CA 94104"]}, "phone": "+14156587722", "display_phone": "(415) 658-7722", "distance": 2758.5880404759996}, {"id": "tokyo-express-san-francisco-5", "name": "Tokyo Express", "image_url": "https://s3-media2.fl.yelpcdn.com/bphoto/85qgz8uTI5QFdcnH8QdTug/o.jpg", "is_closed": false, "url": "https://www.yelp.com/biz/tokyo-express-san-francisco-5?adjust_creative=0T9f6kHMnzQCXJKBQD97qw&utm_campaign=yelp_api_v3&utm_medium=api_v3_business_search&utm_source=0T9f6kHMnzQCXJKBQD97qw", "review_count": 56, "categories": [{"alias": "japanese", "title": "Japanese"}, {"alias": "sushi", "title": "Sushi Bars"}], "rating": 2.5, "coordinates": {"latitude": 37.791941, "longitude": -122.399989}, "transactions": ["delivery", "pickup"], "price": "$$", "location": {"address1": "77 Battery St", "address2": "", "address3": "", "city": "San Francisco", "zip_code": "94111", "country": "US", "state": "CA", "display_address": ["77 Battery St", "San Francisco, CA 94111"]}, "phone": "+14153622222", "display_phone": "(415) 362-2222", "distance": 2749.9082261199997}, {"id": "golden-sai-gon-san-francisco", "name": "Golden Sai Gon", "image_url": "https://s3-media2.fl.yelpcdn.com/bphoto/LTVahqE0tPH5nADc8W84Og/o.jpg", "is_closed": false, "url": "https://www.yelp.com/biz/golden-sai-gon-san-francisco?adjust_creative=0T9f6kHMnzQCXJKBQD97qw&utm_campaign=yelp_api_v3&utm_medium=api_v3_business_search&utm_source=0T9f6kHMnzQCXJKBQD97qw", "review_count": 57, "categories": [{"alias": "vietnamese", "title": "Vietnamese"}], "rating": 3.5, "coordinates": {"latitude": 37.7318177583916, "longitude": -122.4055051693}, "transactions": ["delivery", "pickup"], "price": "$", "location": {"address1": "2428 San Bruno Ave", "address2": "", "address3": "", "city": "San Francisco", "zip_code": "94134", "country": "US", "state": "CA", "display_address": ["2428 San Bruno Ave", "San Francisco, CA 94134"]}, "phone": "+14155081918", "display_phone": "(415) 508-1918", "distance": 3977.5504366759997}, {"id": "mixt-san-francisco-7", "name": "Mixt", "image_url": "https://s3-media1.fl.yelpcdn.com/bphoto/jmKjNbxVuyWCpskWYn8IZA/o.jpg", "is_closed": false, "url": "https://www.yelp.com/biz/mixt-san-francisco-7?adjust_creative=0T9f6kHMnzQCXJKBQD97qw&utm_campaign=yelp_api_v3&utm_medium=api_v3_business_search&utm_source=0T9f6kHMnzQCXJKBQD97qw", "review_count": 135, "categories": [{"alias": "sandwiches", "title": "Sandwiches"}, {"alias": "salad", "title": "Salad"}, {"alias": "coffee", "title": "Coffee & Tea"}], "rating": 3.5, "coordinates": {"latitude": 37.7929392, "longitude": -122.3938847}, "transactions": [], "price": "$$", "location": {"address1": "70 Mission St", "address2": "", "address3": "", "city": "San Francisco", "zip_code": "94105", "country": "US", "state": "CA", "display_address": ["70 Mission St", "San Francisco, CA 94105"]}, "phone": "+14152274555", "display_phone": "(415) 227-4555", "distance": 2895.062969288}, {"id": "54-mint-ristorante-italiano-san-francisco-2", "name": "54 Mint - Ristorante Italiano", "image_url": "https://s3-media3.fl.yelpcdn.com/bphoto/B5xQziW14iokOu9T3MXGpw/o.jpg", "is_closed": false, "url": "https://www.yelp.com/biz/54-mint-ristorante-italiano-san-francisco-2?adjust_creative=0T9f6kHMnzQCXJKBQD97qw&utm_campaign=yelp_api_v3&utm_medium=api_v3_business_search&utm_source=0T9f6kHMnzQCXJKBQD97qw", "review_count": 928, "categories": [{"alias": "italian", "title": "Italian"}, {"alias": "diners", "title": "Diners"}, {"alias": "cocktailbars", "title": "Cocktail Bars"}], "rating": 3.5, "coordinates": {"latitude": 37.7826100091309, "longitude": -122.407934829024}, "transactions": [], "price": "$$$", "location": {"address1": "16 Mint Plz", "address2": "", "address3": "", "city": "San Francisco", "zip_code": "94103", "country": "US", "state": "CA", "display_address": ["16 Mint Plz", "San Francisco, CA 94103"]}, "phone": "+14155435100", "display_phone": "(415) 543-5100", "distance": 1881.2888481439998}, {"id": "kate-o-briens-irish-bar-and-grill-san-francisco", "name": "Kate O'Brien's Irish Bar & Grill", "image_url": "https://s3-media2.fl.yelpcdn.com/bphoto/QKxzfMUHTy75T1r38Hw4yQ/o.jpg", "is_closed": false, "url": "https://www.yelp.com/biz/kate-o-briens-irish-bar-and-grill-san-francisco?adjust_creative=0T9f6kHMnzQCXJKBQD97qw&utm_campaign=yelp_api_v3&utm_medium=api_v3_business_search&utm_source=0T9f6kHMnzQCXJKBQD97qw", "review_count": 414, "categories": [{"alias": "pubs", "title": "Pubs"}, {"alias": "irish", "title": "Irish"}, {"alias": "breakfast_brunch", "title": "Breakfast & Brunch"}], "rating": 3.0, "coordinates": {"latitude": 37.78705, "longitude": -122.39748}, "transactions": ["pickup"], "price": "$$", "location": {"address1": "579 Howard St", "address2": "", "address3": "", "city": "San Francisco", "zip_code": "94105", "country": "US", "state": "CA", "display_address": ["579 Howard St", "San Francisco, CA 94105"]}, "phone": "+14158827240", "display_phone": "(415) 882-7240", "distance": 2210.326940646}, {"id": "house-of-prime-rib-san-francisco", "name": "House of Prime Rib", "image_url": "https://s3-media4.fl.yelpcdn.com/bphoto/HLrjaMoAgYSac0vx71YpCA/o.jpg", "is_closed": false, "url": "https://www.yelp.com/biz/house-of-prime-rib-san-francisco?adjust_creative=0T9f6kHMnzQCXJKBQD97qw&utm_campaign=yelp_api_v3&utm_medium=api_v3_business_search&utm_source=0T9f6kHMnzQCXJKBQD97qw", "review_count": 5738, "categories": [{"alias": "tradamerican", "title": "American (Traditional)"}, {"alias": "steak", "title": "Steakhouses"}], "rating": 4.0, "coordinates": {"latitude": 37.79338, "longitude": -122.4225}, "transactions": [], "price": "$$$", "location": {"address1": "1906 Van Ness Ave", "address2": "", "address3": "", "city": "San Francisco", "zip_code": "94109", "country": "US", "state": "CA", "display_address": ["1906 Van Ness Ave", "San Francisco, CA 94109"]}, "phone": "+14158854605", "display_phone": "(415) 885-4605", "distance": 3574.120763608}], "total": 10, "region": {"center": {"latitude": 37.767224, "longitude": -122.399039}}}