{"businesses": [{"id": "guesthop-san-francisco", "name": "Guesthop", "image_url": "https://s3-media2.fl.yelpcdn.com/bphoto/kwHbFRPdw6ooROaYSp5uaA/o.jpg", "is_closed": false, "url": "https://www.yelp.com/biz/guesthop-san-francisco?adjust_creative=0T9f6kHMnzQCXJKBQD97qw&utm_campaign=yelp_api_v3&utm_medium=api_v3_business_search&utm_source=0T9f6kHMnzQCXJKBQD97qw", "review_count": 27, "categories": [{"alias": "vacation_rentals", "title": "Vacation Rentals"}, {"alias": "propertymgmt", "title": "Property Management"}], "rating": 4.5, "coordinates": {"latitude": 37.7749295, "longitude": -122.4194155}, "transactions": [], "location": {"address1": "", "address2": "", "address3": "", "city": "San Francisco", "zip_code": "94140", "country": "US", "state": "CA", "display_address": ["San Francisco, CA 94140"]}, "phone": "+14159671917", "display_phone": "(415) 967-1917", "distance": 2162.04207356}, {"id": "bulldog-coffee-san-francisco", "name": "Bulldog Coffee", "image_url": "https://s3-media1.fl.yelpcdn.com/bphoto/bZXn5A-vx09ZQeYEYPU5IA/o.jpg", "is_closed": false, "url": "https://www.yelp.com/biz/bulldog-coffee-san-francisco?adjust_creative=0T9f6kHMnzQCXJKBQD97qw&utm_campaign=yelp_api_v3&utm_medium=api_v3_business_search&utm_source=0T9f6kHMnzQCXJKBQD97qw", "review_count": 12, "categories": [{"alias": "donuts", "title": "Donuts"}, {"alias": "coffee", "title": "Coffee & Tea"}, {"alias": "catering", "title": "Caterers"}], "rating": 4.5, "coordinates": {"latitude": 37.7719994, "longitude": -122.4052582}, "transactions": [], "price": "$$", "location": {"address1": "888 Brannan St", "address2": null, "address3": "", "city": "San Francisco", "zip_code": "94103", "country": "US", "state": "CA", "display_address": ["888 Brannan St", "San Francisco, CA 94103"]}, "phone": "+14156542407", "display_phone": "(415) 654-2407", "distance": 3004.2946687119997}, {"id": "3h-hygenix-san-francisco-5", "name": "3H Hygenix", "image_url": "https://s3-media3.fl.yelpcdn.com/bphoto/qAa2js1mIVeeTgFfc4l-Ig/o.jpg", "is_closed": false, "url": "https://www.yelp.com/biz/3h-hygenix-san-francisco-5?adjust_creative=0T9f6kHMnzQCXJKBQD97qw&utm_campaign=yelp_api_v3&utm_medium=api_v3_business_search&utm_source=0T9f6kHMnzQCXJKBQD97qw", "review_count": 80, "categories": [{"alias": "homecleaning", "title": "Home Cleaning"}, {"alias": "officecleaning", "title": "Office Cleaning"}], "rating": 5.0, "coordinates": {"latitude": 37.78986, "longitude": -122.41921}, "transactions": [], "location": {"address1": "", "address2": "", "address3": "", "city": "San Francisco", "zip_code": "94164", "country": "US", "state": "CA", "display_address": ["San Francisco, CA 94164"]}, "phone": "+19254130220", "display_phone": "(925) 413-0220", "distance": 3457.993042284}, {"id": "myvrhost-san-francisco", "name": "MyVRHost", "image_url": "https://s3-media4.fl.yelpcdn.com/bphoto/rbnAAazUuZ4OgSC438-31w/o.jpg", "is_closed": false, "url": "https://www.yelp.com/biz/myvrhost-san-francisco?adjust_creative=0T9f6kHMnzQCXJKBQD97qw&utm_campaign=yelp_api_v3&utm_medium=api_v3_business_search&utm_source=0T9f6kHMnzQCXJKBQD97qw", "review_count": 15, "categories": [{"alias": "propertymgmt", "title": "Property Management"}, {"alias": "vacationrentalagents", "title": "Vacation Rental Agents"}], "rating": 4.5, "coordinates": {"latitude": 37.77448, "longitude": -122.40916}, "transactions": [], "location": {"address1": "", "address2": null, "address3": "", "city": "San Francisco", "zip_code": "94103", "country": "US", "state": "CA", "display_address": ["San Francisco, CA 94103"]}, "phone": "+18776374204", "display_phone": "(877) 637-4204", "distance": 2672.99867219}, {"id": "gigis-bed-and-breakfast-san-francisco", "name": "Gigi's Bed and Breakfast", "image_url": "https://s3-media3.fl.yelpcdn.com/bphoto/uM_WIx7Cb9wxofz0kuEYEw/o.jpg", "is_closed": false, "url": "https://www.yelp.com/biz/gigis-bed-and-breakfast-san-francisco?adjust_creative=0T9f6kHMnzQCXJKBQD97qw&utm_campaign=yelp_api_v3&utm_medium=api_v3_business_search&utm_source=0T9f6kHMnzQCXJKBQD97qw", "review_count": 8, "categories": [{"alias": "bedbreakfast", "title": "Bed & Breakfast"}], "rating": 5.0, "coordinates": {"latitude": 37.7783019, "longitude": -122.504284}, "transactions": [], "location": {"address1": "543 43rd Ave", "address2": null, "address3": "", "city": "San Francisco", "zip_code": "94121", "country": "US", "state": "CA", "display_address": ["543 43rd Ave", "San Francisco, CA 94121"]}, "phone": "+14156687867", "display_phone": "(415) 668-7867", "distance": 6269.12603376}, {"id": "the-inn-san-francisco-san-francisco-4", "name": "The Inn San Francisco", "image_url": "https://s3-media4.fl.yelpcdn.com/bphoto/MLFaGvvk1yVZlhDzun1JuA/o.jpg", "is_closed": false, "url": "https://www.yelp.com/biz/the-inn-san-francisco-san-francisco-4?adjust_creative=0T9f6kHMnzQCXJKBQD97qw&utm_campaign=yelp_api_v3&utm_medium=api_v3_business_search&utm_source=0T9f6kHMnzQCXJKBQD97qw", "review_count": 151, "categories": [{"alias": "bedbreakfast", "title": "Bed & Breakfast"}], "rating": 5.0, "coordinates": {"latitude": 37.7580642700195, "longitude": -122.416450500488}, "transactions": [], "location": {"address1": "943 S Van Ness Ave", "address2": "", "address3": "", "city": "San Francisco", "zip_code": "94110", "country": "US", "state": "CA", "display_address": ["943 S Van Ness Ave", "San Francisco, CA 94110"]}, "phone": "+14156410188", "display_phone": "(415) 641-0188", "distance": 1778.2832023779997}, {"id": "urban-bellhop-san-francisco", "name": "Urban Bellhop", "image_url": "https://s3-media3.fl.yelpcdn.com/bphoto/0GtoRCFUweCl4dRQLUablA/o.jpg", "is_closed": false, "url": "https://www.yelp.com/biz/urban-bellhop-san-francisco?adjust_creative=0T9f6kHMnzQCXJKBQD97qw&utm_campaign=yelp_api_v3&utm_medium=api_v3_business_search&utm_source=0T9f6kHMnzQCXJKBQD97qw", "review_count": 8, "categories": [{"alias": "propertymgmt", "title": "Property Management"}, {"alias": "vacation_rentals", "title": "Vacation Rentals"}], "rating": 4.5, "coordinates": {"latitude": 37.8019726822937, "longitude": -122.438273615344}, "transactions": [], "location": {"address1": "", "address2": null, "address3": "", "city": "San Francisco", "zip_code": "94123", "country": "US", "state": "CA", "display_address": ["San Francisco, CA 94123"]}, "phone": "+14152954685", "display_phone": "(415) 295-4685", "distance": 4569.897313664}, {"id": "hayes-valley-inn-san-francisco", "name": "Hayes Valley Inn", "image_url": "https://s3-media2.fl.yelpcdn.com/bphoto/4tPMUoF8KPjdKEgS8faeHg/o.jpg", "is_closed": false, "url": "https://www.yelp.com/biz/hayes-valley-inn-san-francisco?adjust_creative=0T9f6kHMnzQCXJKBQD97qw&utm_campaign=yelp_api_v3&utm_medium=api_v3_business_search&utm_source=0T9f6kHMnzQCXJKBQD97qw", "review_count": 147, "categories": [{"alias": "hotels", "title": "Hotels"}], "rating": 4.5, "coordinates": {"latitude": 37.77707, "longitude": -122.42318}, "transactions": [], "price": "$", "location": {"address1": "417 Gough St", "address2": "", "address3": "", "city": "San Francisco", "zip_code": "94102", "country": "US", "state": "CA", "display_address": ["417 Gough St", "San Francisco, CA 94102"]}, "phone": "+14154319131", "display_phone": "(415) 431-9131", "distance": 2143.492337918}, {"id": "green-tortoise-hostel-san-francisco", "name": "Green Tortoise Hostel", "image_url": "https://s3-media3.fl.yelpcdn.com/bphoto/BQhqoofRTUXNRO-waTDjFw/o.jpg", "is_closed": false, "url": "https://www.yelp.com/biz/green-tortoise-hostel-san-francisco?adjust_creative=0T9f6kHMnzQCXJKBQD97qw&utm_campaign=yelp_api_v3&utm_medium=api_v3_business_search&utm_source=0T9f6kHMnzQCXJKBQD97qw", "review_count": 116, "categories": [{"alias": "hostels", "title": "Hostels"}], "rating": 4.0, "coordinates": {"latitude": 37.7981769, "longitude": -122.4053141}, "transactions": [], "location": {"address1": "494 Broadway", "address2": "", "address3": "", "city": "San Francisco", "zip_code": "94133", "country": "US", "state": "CA", "display_address": ["494 Broadway", "San Francisco, CA 94133"]}, "phone": "+14158341000", "display_phone": "(415) 834-1000", "distance": 4975.625767987999}, {"id": "sleep-over-sauce-san-francisco", "name": "Sleep Over Sauce", "image_url": "https://s3-media2.fl.yelpcdn.com/bphoto/TT48L5NPdsrcy5xQURTZKQ/o.jpg", "is_closed": false, "url": "https://www.yelp.com/biz/sleep-over-sauce-san-francisco?adjust_creative=0T9f6kHMnzQCXJKBQD97qw&utm_campaign=yelp_api_v3&utm_medium=api_v3_business_search&utm_source=0T9f6kHMnzQCXJKBQD97qw", "review_count": 53, "categories": [{"alias": "hotels", "title": "Hotels"}], "rating": 4.0, "coordinates": {"latitude": 37.7746, "longitude": -122.42279}, "transactions": [], "price": "$$", "location": {"address1": "135 Gough St", "address2": "", "address3": "", "city": "San Francisco", "zip_code": "94102", "country": "US", "state": "CA", "display_address": ["135 Gough St", "San Francisco, CA 94102"]}, "phone": "+14156210896", "display_phone": "(415) 621-0896", "distance": 1939.630963692}, {"id": "union-street-inn-san-francisco", "name": "Union Street Inn", "image_url": "https://s3-media1.fl.yelpcdn.com/bphoto/nRZiK_USmY3xC989jA5MRA/o.jpg", "is_closed": false, "url": "https://www.yelp.com/biz/union-street-inn-san-francisco?adjust_creative=0T9f6kHMnzQCXJKBQD97qw&utm_campaign=yelp_api_v3&utm_medium=api_v3_business_search&utm_source=0T9f6kHMnzQCXJKBQD97qw", "review_count": 20, "categories": [{"alias": "bedbreakfast", "title": "Bed & Breakfast"}], "rating": 5.0, "coordinates": {"latitude": 37.7967376708984, "longitude": -122.436004638672}, "transactions": [], "location": {"address1": "2229 Union St", "address2": "", "address3": "", "city": "San Francisco", "zip_code": "94123", "country": "US", "state": "CA", "display_address": ["2229 Union St", "San Francisco, CA 94123"]}, "phone": "+14153460424", "display_phone": "(415) 346-0424", "distance": 3998.43902614}, {"id": "keybee-hosting-berkeley", "name": "KeyBee Hosting", "image_url": "https://s3-media1.fl.yelpcdn.com/bphoto/ldBIrdNkVQcK2OlZKN-tdQ/o.jpg", "is_closed": false, "url": "https://www.yelp.com/biz/keybee-hosting-berkeley?adjust_creative=0T9f6kHMnzQCXJKBQD97qw&utm_campaign=yelp_api_v3&utm_medium=api_v3_business_search&utm_source=0T9f6kHMnzQCXJKBQD97qw", "review_count": 5, "categories": [{"alias": "vacationrentalagents", "title": "Vacation Rental Agents"}], "rating": 5.0, "coordinates": {"latitude": 37.8982467651367, "longitude": -122.279235839844}, "transactions": [], "location": {"address1": "", "address2": null, "address3": "", "city": "Berkeley", "zip_code": "94707", "country": "US", "state": "CA", "display_address": ["Berkeley, CA 94707"]}, "phone": "+15107660233", "display_phone": "(510) 766-0233", "distance": 20578.92991724}, {"id": "sumner-house-sf-san-francisco", "name": "Sumner House SF", "image_url": "https://s3-media2.fl.yelpcdn.com/bphoto/lz_HQlYyKGxuwtmUnkMTWQ/o.jpg", "is_closed": false, "url": "https://www.yelp.com/biz/sumner-house-sf-san-francisco?adjust_creative=0T9f6kHMnzQCXJKBQD97qw&utm_campaign=yelp_api_v3&utm_medium=api_v3_business_search&utm_source=0T9f6kHMnzQCXJKBQD97qw", "review_count": 8, "categories": [{"alias": "hotels", "title": "Hotels"}, {"alias": "guesthouses", "title": "Guest Houses"}], "rating": 4.5, "coordinates": {"latitude": 37.7763252258301, "longitude": -122.410354614258}, "transactions": [], "price": "$$", "location": {"address1": "15 Sumner St", "address2": "", "address3": "", "city": "San Francisco", "zip_code": "94103", "country": "US", "state": "CA", "display_address": ["15 Sumner St", "San Francisco, CA 94103"]}, "phone": "+14158949647", "display_phone": "(415) 894-9647", "distance": 2863.419965274}, {"id": "belo-san-francisco", "name": "Belo", "image_url": "https://s3-media4.fl.yelpcdn.com/bphoto/bZ4RAWHlu84maJ8ILKIwNw/o.jpg", "is_closed": false, "url": "https://www.yelp.com/biz/belo-san-francisco?adjust_creative=0T9f6kHMnzQCXJKBQD97qw&utm_campaign=yelp_api_v3&utm_medium=api_v3_business_search&utm_source=0T9f6kHMnzQCXJKBQD97qw", "review_count": 6, "categories": [{"alias": "propertymgmt", "title": "Property Management"}, {"alias": "marketing", "title": "Marketing"}, {"alias": "travelservices", "title": "Travel Services"}], "rating": 5.0, "coordinates": {"latitude": 37.7771186828613, "longitude": -122.419639587402}, "transactions": [], "location": {"address1": "", "address2": null, "address3": "", "city": "San Francisco", "zip_code": "", "country": "US", "state": "CA", "display_address": ["San Francisco, CA"]}, "phone": "+14158429649", "display_phone": "(415) 842-9649", "distance": 2162.04207356}, {"id": "hotel-abri-san-francisco", "name": "Hotel Abri", "image_url": "https://s3-media2.fl.yelpcdn.com/bphoto/Un0uN3dBWCSIiUbepse8wA/o.jpg", "is_closed": false, "url": "https://www.yelp.com/biz/hotel-abri-san-francisco?adjust_creative=0T9f6kHMnzQCXJKBQD97qw&utm_campaign=yelp_api_v3&utm_medium=api_v3_business_search&utm_source=0T9f6kHMnzQCXJKBQD97qw", "review_count": 281, "categories": [{"alias": "hotels", "title": "Hotels"}], "rating": 4.0, "coordinates": {"latitude": 37.7854149788618, "longitude": -122.408279255033}, "transactions": [], "price": "$$", "location": {"address1": "127 Ellis Street", "address2": "", "address3": "", "city": "San Francisco", "zip_code": "94102", "country": "US", "state": "CA", "display_address": ["127 Ellis Street", "San Francisco, CA 94102"]}, "phone": "+14153928800", "display_phone": "(415) 392-8800", "distance": 3682.5703237919997}, {"id": "payne-mansion-hotel-san-francisco", "name": "Payne Mansion Hotel", "image_url": "https://s3-media4.fl.yelpcdn.com/bphoto/uIwenlidMlI4nJxLYTWYMQ/o.jpg", "is_closed": false, "url": "https://www.yelp.com/biz/payne-mansion-hotel-san-francisco?adjust_creative=0T9f6kHMnzQCXJKBQD97qw&utm_campaign=yelp_api_v3&utm_medium=api_v3_business_search&utm_source=0T9f6kHMnzQCXJKBQD97qw", "review_count": 66, "categories": [{"alias": "hotels", "title": "Hotels"}, {"alias": "venues", "title": "Venues & Event Spaces"}], "rating": 3.5, "coordinates": {"latitude": 37.7871499, "longitude": -122.42385}, "transactions": [], "price": "$$", "location": {"address1": "1409 Sutter St", "address2": null, "address3": "", "city": "San Francisco", "zip_code": "94109", "country": "US", "state": "CA", "display_address": ["1409 Sutter St", "San Francisco, CA 94109"]}, "phone": "+16502438358", "display_phone": "(650) 243-8358", "distance": 3112.221515264}, {"id": "loft-and-garden-vacation-rentals-san-francisco-2", "name": "Loft and Garden Vacation Rentals", "image_url": "", "is_closed": false, "url": "https://www.yelp.com/biz/loft-and-garden-vacation-rentals-san-francisco-2?adjust_creative=0T9f6kHMnzQCXJKBQD97qw&utm_campaign=yelp_api_v3&utm_medium=api_v3_business_search&utm_source=0T9f6kHMnzQCXJKBQD97qw", "review_count": 6, "categories": [{"alias": "vacationrentalagents", "title": "Vacation Rental Agents"}], "rating": 4.0, "coordinates": {"latitude": 37.75913, "longitude": -122.43823}, "transactions": [], "location": {"address1": "", "address2": null, "address3": "", "city": "San Francisco", "zip_code": "94114", "country": "US", "state": "CA", "display_address": ["San Francisco, CA 94114"]}, "phone": "+14158919119", "display_phone": "(415) 891-9119", "distance": 628.8268489323999}, {"id": "noes-nest-san-francisco", "name": "Noe's Nest", "image_url": "https://s3-media2.fl.yelpcdn.com/bphoto/8jPSiQ-OiGc27mhAGwqJTA/o.jpg", "is_closed": false, "url": "https://www.yelp.com/biz/noes-nest-san-francisco?adjust_creative=0T9f6kHMnzQCXJKBQD97qw&utm_campaign=yelp_api_v3&utm_medium=api_v3_business_search&utm_source=0T9f6kHMnzQCXJKBQD97qw", "review_count": 45, "categories": [{"alias": "hotels", "title": "Hotels"}, {"alias": "bedbreakfast", "title": "Bed & Breakfast"}], "rating": 4.5, "coordinates": {"latitude": 37.751107, "longitude": -122.422437}, "transactions": [], "price": "$$", "location": {"address1": "1257 Guerrero St", "address2": "", "address3": "", "city": "San Francisco", "zip_code": "94124", "country": "US", "state": "CA", "display_address": ["1257 Guerrero St", "San Francisco, CA 94124"]}, "phone": "+14158210751", "display_phone": "(415) 821-0751", "distance": 1643.8020848919998}, {"id": "fresh-home-staging-san-francisco", "name": "Fresh Home Staging", "image_url": "https://s3-media3.fl.yelpcdn.com/bphoto/_unFZg5bnWIYRXNJUUUSYA/o.jpg", "is_closed": false, "url": "https://www.yelp.com/biz/fresh-home-staging-san-francisco?adjust_creative=0T9f6kHMnzQCXJKBQD97qw&utm_campaign=yelp_api_v3&utm_medium=api_v3_business_search&utm_source=0T9f6kHMnzQCXJKBQD97qw", "review_count": 23, "categories": [{"alias": "interiordesign", "title": "Interior Design"}, {"alias": "realestatesvcs", "title": "Real Estate Services"}, {"alias": "homestaging", "title": "Home Staging"}], "rating": 5.0, "coordinates": {"latitude": 37.7513081141922, "longitude": -122.434043884277}, "transactions": [], "location": {"address1": "", "address2": "", "address3": "", "city": "San Francisco", "zip_code": "94114", "country": "US", "state": "CA", "display_address": ["San Francisco, CA 94114"]}, "phone": "+14158469578", "display_phone": "(415) 846-9578", "distance": 1087.103376376}, {"id": "lofts-at-one-powell-san-francisco", "name": "Lofts At One Powell", "image_url": "https://s3-media2.fl.yelpcdn.com/bphoto/yI4RHSE4iITGNz4YOAUEaQ/o.jpg", "is_closed": false, "url": "https://www.yelp.com/biz/lofts-at-one-powell-san-francisco?adjust_creative=0T9f6kHMnzQCXJKBQD97qw&utm_campaign=yelp_api_v3&utm_medium=api_v3_business_search&utm_source=0T9f6kHMnzQCXJKBQD97qw", "review_count": 9, "categories": [{"alias": "apartments", "title": "Apartments"}], "rating": 4.0, "coordinates": {"latitude": 37.7841717, "longitude": -122.4080494}, "transactions": [], "location": {"address1": "10 Cyril Magnin St", "address2": "", "address3": "", "city": "San Francisco", "zip_code": "94102", "country": "US", "state": "CA", "display_address": ["10 Cyril Magnin St", "San Francisco, CA 94102"]}, "phone": "+14153988050", "display_phone": "(415) 398-8050", "distance": 3631.645334436}], "total": 189, "region": {"center": {"latitude": 37.788919715097435, "longitude": -122.40916201210938}}}