{"businesses": [{"id": "alamo-drafthouse-cinema-new-mission-san-francisco", "name": "Alamo Drafthouse Cinema - New Mission", "image_url": "https://s3-media2.fl.yelpcdn.com/bphoto/ff1mR_0lV7mBDrMhd4c35A/o.jpg", "is_closed": false, "url": "https://www.yelp.com/biz/alamo-drafthouse-cinema-new-mission-san-francisco?adjust_creative=0T9f6kHMnzQCXJKBQD97qw&utm_campaign=yelp_api_v3&utm_medium=api_v3_business_search&utm_source=0T9f6kHMnzQCXJKBQD97qw", "review_count": 472, "categories": [{"alias": "movietheaters", "title": "Cinema"}], "rating": 3.5, "coordinates": {"latitude": 37.7561899, "longitude": -122.41934}, "transactions": [], "location": {"address1": "2550 Mission St", "address2": "", "address3": "", "city": "San Francisco", "zip_code": "94110", "country": "US", "state": "CA", "display_address": ["2550 Mission St", "San Francisco, CA 94110"]}, "phone": "+14155495959", "display_phone": "(415) 549-5959", "distance": 1603.9219959559998}, {"id": "amc-dine-in-kabuki-8-san-francisco-2", "name": "AMC Dine-In Kabuki 8", "image_url": "https://s3-media2.fl.yelpcdn.com/bphoto/3Scquqi0X0xHtDZ62DrteQ/o.jpg", "is_closed": false, "url": "https://www.yelp.com/biz/amc-dine-in-kabuki-8-san-francisco-2?adjust_creative=0T9f6kHMnzQCXJKBQD97qw&utm_campaign=yelp_api_v3&utm_medium=api_v3_business_search&utm_source=0T9f6kHMnzQCXJKBQD97qw", "review_count": 1871, "categories": [{"alias": "movietheaters", "title": "Cinema"}], "rating": 4.0, "coordinates": {"latitude": 37.78492, "longitude": -122.43229}, "transactions": [], "location": {"address1": "1881 Post St", "address2": "", "address3": "", "city": "San Francisco", "zip_code": "94115", "country": "US", "state": "CA", "display_address": ["1881 Post St", "San Francisco, CA 94115"]}, "phone": "+14153463243", "display_phone": "(415) 346-3243", "distance": 2693.3616512099998}, {"id": "castro-theatre-san-francisco", "name": "Castro Theatre", "image_url": "https://s3-media2.fl.yelpcdn.com/bphoto/Q_og1LzuYs61mQfJo2s-EQ/o.jpg", "is_closed": false, "url": "https://www.yelp.com/biz/castro-theatre-san-francisco?adjust_creative=0T9f6kHMnzQCXJKBQD97qw&utm_campaign=yelp_api_v3&utm_medium=api_v3_business_search&utm_source=0T9f6kHMnzQCXJKBQD97qw", "review_count": 715, "categories": [{"alias": "movietheaters", "title": "Cinema"}], "rating": 4.5, "coordinates": {"latitude": 37.7620124816895, "longitude": -122.434692382812}, "transactions": [], "location": {"address1": "429 Castro St", "address2": "", "address3": "", "city": "San Francisco", "zip_code": "94114", "country": "US", "state": "CA", "display_address": ["429 Castro St", "San Francisco, CA 94114"]}, "phone": "+14156216120", "display_phone": "(415) 621-6120", "distance": 194.5249571967}, {"id": "bear-vs-bull-san-francisco", "name": "Bear Vs Bull", "image_url": "https://s3-media1.fl.yelpcdn.com/bphoto/L78C95j3EGirz_P6fRsQoA/o.jpg", "is_closed": false, "url": "https://www.yelp.com/biz/bear-vs-bull-san-francisco?adjust_creative=0T9f6kHMnzQCXJKBQD97qw&utm_campaign=yelp_api_v3&utm_medium=api_v3_business_search&utm_source=0T9f6kHMnzQCXJKBQD97qw", "review_count": 18, "categories": [{"alias": "bars", "title": "Bars"}], "rating": 4.0, "coordinates": {"latitude": 37.7561899, "longitude": -122.41934}, "transactions": [], "price": "$$", "location": {"address1": "2550 Mission St", "address2": "", "address3": "", "city": "San Francisco", "zip_code": "94110", "country": "US", "state": "CA", "display_address": ["2550 Mission St", "San Francisco, CA 94110"]}, "phone": "", "display_phone": "", "distance": 1603.9219959559998}, {"id": "amc-van-ness-14-san-francisco", "name": "AMC Van Ness 14", "image_url": "https://s3-media1.fl.yelpcdn.com/bphoto/iZHuDYYbHEeEbNofamenfQ/o.jpg", "is_closed": false, "url": "https://www.yelp.com/biz/amc-van-ness-14-san-francisco?adjust_creative=0T9f6kHMnzQCXJKBQD97qw&utm_campaign=yelp_api_v3&utm_medium=api_v3_business_search&utm_source=0T9f6kHMnzQCXJKBQD97qw", "review_count": 774, "categories": [{"alias": "movietheaters", "title": "Cinema"}], "rating": 3.0, "coordinates": {"latitude": 37.7850899, "longitude": -122.42067}, "transactions": [], "location": {"address1": "1000 Van Ness Ave", "address2": null, "address3": "", "city": "San Francisco", "zip_code": "94109", "country": "US", "state": "CA", "display_address": ["1000 Van Ness Ave", "San Francisco, CA 94109"]}, "phone": "+14156744630", "display_phone": "(415) 674-4630", "distance": 3039.851909474}, {"id": "roxie-theater-san-francisco", "name": "Roxie Theater", "image_url": "https://s3-media3.fl.yelpcdn.com/bphoto/YSvuPAoYXr3e0rFK2naGjg/o.jpg", "is_closed": false, "url": "https://www.yelp.com/biz/roxie-theater-san-francisco?adjust_creative=0T9f6kHMnzQCXJKBQD97qw&utm_campaign=yelp_api_v3&utm_medium=api_v3_business_search&utm_source=0T9f6kHMnzQCXJKBQD97qw", "review_count": 220, "categories": [{"alias": "movietheaters", "title": "Cinema"}], "rating": 4.0, "coordinates": {"latitude": 37.76474, "longitude": -122.42243}, "transactions": [], "location": {"address1": "3117 16th St", "address2": "", "address3": "", "city": "San Francisco", "zip_code": "94103", "country": "US", "state": "CA", "display_address": ["3117 16th St", "San Francisco, CA 94103"]}, "phone": "+14158631087", "display_phone": "(415) 863-1087", "distance": 1304.7516927942}, {"id": "century-san-francisco-centre-9-san-francisco", "name": "Century San Francisco Centre 9", "image_url": "https://s3-media3.fl.yelpcdn.com/bphoto/Vppr-huslMlp0Zyye7UZdQ/o.jpg", "is_closed": false, "url": "https://www.yelp.com/biz/century-san-francisco-centre-9-san-francisco?adjust_creative=0T9f6kHMnzQCXJKBQD97qw&utm_campaign=yelp_api_v3&utm_medium=api_v3_business_search&utm_source=0T9f6kHMnzQCXJKBQD97qw", "review_count": 595, "categories": [{"alias": "movietheaters", "title": "Cinema"}], "rating": 4.0, "coordinates": {"latitude": 37.783846, "longitude": -122.405845}, "transactions": [], "location": {"address1": "845 Market St", "address2": "Fl 5", "address3": "", "city": "San Francisco", "zip_code": "94103", "country": "US", "state": "CA", "display_address": ["845 Market St", "Fl 5", "San Francisco, CA 94103"]}, "phone": "+14155388422", "display_phone": "(415) 538-8422", "distance": 3707.5973310659997}, {"id": "century-20-theatre-daly-city", "name": "Century 20 Theatre", "image_url": "https://s3-media4.fl.yelpcdn.com/bphoto/98q_l0b4NH3sjqfNVqntNQ/o.jpg", "is_closed": false, "url": "https://www.yelp.com/biz/century-20-theatre-daly-city?adjust_creative=0T9f6kHMnzQCXJKBQD97qw&utm_campaign=yelp_api_v3&utm_medium=api_v3_business_search&utm_source=0T9f6kHMnzQCXJKBQD97qw", "review_count": 736, "categories": [{"alias": "movietheaters", "title": "Cinema"}], "rating": 3.0, "coordinates": {"latitude": 37.7022768153407, "longitude": -122.470294419}, "transactions": [], "location": {"address1": "1901 Junipero Serra Blvd", "address2": "", "address3": "", "city": "Daly City", "zip_code": "94015", "country": "US", "state": "CA", "display_address": ["1901 Junipero Serra Blvd", "Daly City, CA 94015"]}, "phone": "+16509942488", "display_phone": "(650) 994-2488", "distance": 7165.654425082}], "total": 8, "region": {"center": {"latitude": 37.76089938976322, "longitude": -122.43644714355469}}}