{"businesses": [{"id": "aliotos-restaurant-san-francisco", "name": "Alioto's Restaurant", "image_url": "https://s3-media2.fl.yelpcdn.com/bphoto/r_2KpVnjDs_0xSGoE4W42A/o.jpg", "is_closed": false, "url": "https://www.yelp.com/biz/aliotos-restaurant-san-francisco?adjust_creative=0T9f6kHMnzQCXJKBQD97qw&utm_campaign=yelp_api_v3&utm_medium=api_v3_business_search&utm_source=0T9f6kHMnzQCXJKBQD97qw", "review_count": 1328, "categories": [{"alias": "seafood", "title": "Seafood"}], "rating": 3.0, "coordinates": {"latitude": 37.8086721169023, "longitude": -122.4160464356}, "transactions": [], "price": "$$", "location": {"address1": "8 Fishermans Wharf", "address2": "", "address3": "", "city": "San Francisco", "zip_code": "94133", "country": "US", "state": "CA", "display_address": ["8 Fishermans Wharf", "San Francisco, CA 94133"]}, "phone": "+14156730183", "display_phone": "(415) 673-0183", "distance": 1519.3476384079997}, {"id": "aliotos-garage-san-francisco-3", "name": "Alioto's Garage", "image_url": "https://s3-media3.fl.yelpcdn.com/bphoto/YXquq1X7aLdBlwxLJ9W_8w/o.jpg", "is_closed": false, "url": "https://www.yelp.com/biz/aliotos-garage-san-francisco-3?adjust_creative=0T9f6kHMnzQCXJKBQD97qw&utm_campaign=yelp_api_v3&utm_medium=api_v3_business_search&utm_source=0T9f6kHMnzQCXJKBQD97qw", "review_count": 54, "categories": [{"alias": "autorepair", "title": "Auto Repair"}, {"alias": "bodyshops", "title": "Body Shops"}], "rating": 4.5, "coordinates": {"latitude": 37.79443, "longitude": -122.42268}, "transactions": [], "location": {"address1": "2020 Van Ness Ave", "address2": "", "address3": "", "city": "San Francisco", "zip_code": "94109", "country": "US", "state": "CA", "display_address": ["2020 Van Ness Ave", "San Francisco, CA 94109"]}, "phone": "+14159280192", "display_phone": "(415) 928-0192", "distance": 855.3435621678}, {"id": "aliotos-garage-san-francisco", "name": "Alioto's Garage", "image_url": "https://s3-media1.fl.yelpcdn.com/bphoto/nYXXhKB4YP7u8Mf0FgJIFg/o.jpg", "is_closed": false, "url": "https://www.yelp.com/biz/aliotos-garage-san-francisco?adjust_creative=0T9f6kHMnzQCXJKBQD97qw&utm_campaign=yelp_api_v3&utm_medium=api_v3_business_search&utm_source=0T9f6kHMnzQCXJKBQD97qw", "review_count": 250, "categories": [{"alias": "autorepair", "title": "Auto Repair"}, {"alias": "bodyshops", "title": "Body Shops"}], "rating": 4.0, "coordinates": {"latitude": 37.7679061, "longitude": -122.415158}, "transactions": [], "location": {"address1": "1835 Folsom St", "address2": "", "address3": "", "city": "San Francisco", "zip_code": "94103", "country": "US", "state": "CA", "display_address": ["1835 Folsom St", "San Francisco, CA 94103"]}, "phone": "+14158643022", "display_phone": "(415) 864-3022", "distance": 3040.0097857279998}, {"id": "alioto-lazio-fish-company-san-francisco", "name": "Alioto Lazio Fish Company", "image_url": "https://s3-media1.fl.yelpcdn.com/bphoto/pwG2cWZidFm-p90qegmoDQ/o.jpg", "is_closed": false, "url": "https://www.yelp.com/biz/alioto-lazio-fish-company-san-francisco?adjust_creative=0T9f6kHMnzQCXJKBQD97qw&utm_campaign=yelp_api_v3&utm_medium=api_v3_business_search&utm_source=0T9f6kHMnzQCXJKBQD97qw", "review_count": 43, "categories": [{"alias": "seafoodmarkets", "title": "Seafood Markets"}], "rating": 4.5, "coordinates": {"latitude": 37.8079771, "longitude": -122.4197225}, "transactions": [], "price": "$$", "location": {"address1": "440 Jefferson St", "address2": "", "address3": "", "city": "San Francisco", "zip_code": "94109", "country": "US", "state": "CA", "display_address": ["440 Jefferson St", "San Francisco, CA 94109"]}, "phone": "+14156735868", "display_phone": "(415) 673-5868", "distance": 1532.8196810424}, {"id": "aliotos-garage-san-francisco-2", "name": "Alioto's Garage", "image_url": "https://s3-media2.fl.yelpcdn.com/bphoto/T3Vb4MXIvGVzjQ8POAvjAQ/o.jpg", "is_closed": false, "url": "https://www.yelp.com/biz/aliotos-garage-san-francisco-2?adjust_creative=0T9f6kHMnzQCXJKBQD97qw&utm_campaign=yelp_api_v3&utm_medium=api_v3_business_search&utm_source=0T9f6kHMnzQCXJKBQD97qw", "review_count": 85, "categories": [{"alias": "bodyshops", "title": "Body Shops"}, {"alias": "autorepair", "title": "Auto Repair"}], "rating": 5.0, "coordinates": {"latitude": 37.7453003, "longitude": -122.4034195}, "transactions": [], "location": {"address1": "185 Bayshore Blvd", "address2": null, "address3": "", "city": "San Francisco", "zip_code": "94124", "country": "US", "state": "CA", "display_address": ["185 Bayshore Blvd", "San Francisco, CA 94124"]}, "phone": "+14159701514", "display_phone": "(415) 970-1514", "distance": 5597.109423808}, {"id": "angela-alioto-law-group-san-francisco", "name": "Angela Alioto Law Group", "image_url": "https://s3-media4.fl.yelpcdn.com/bphoto/RqRjTBYff7nkg8vTNJfx9g/o.jpg", "is_closed": false, "url": "https://www.yelp.com/biz/angela-alioto-law-group-san-francisco?adjust_creative=0T9f6kHMnzQCXJKBQD97qw&utm_campaign=yelp_api_v3&utm_medium=api_v3_business_search&utm_source=0T9f6kHMnzQCXJKBQD97qw", "review_count": 3, "categories": [{"alias": "personal_injury", "title": "Personal Injury Law"}, {"alias": "employmentlawyers", "title": "Employment Law"}], "rating": 3.5, "coordinates": {"latitude": 37.79571, "longitude": -122.4032}, "transactions": [], "location": {"address1": "700 Montgomery St", "address2": "", "address3": "", "city": "San Francisco", "zip_code": "94111", "country": "US", "state": "CA", "display_address": ["700 Montgomery St", "San Francisco, CA 94111"]}, "phone": "+14154348700", "display_phone": "(415) 434-8700", "distance": 878.9080495300001}, {"id": "fog-harbor-fish-house-san-francisco-2", "name": "Fog Harbor Fish House", "image_url": "https://s3-media1.fl.yelpcdn.com/bphoto/DemnQQ9M05jXzjD_cxF81A/o.jpg", "is_closed": false, "url": "https://www.yelp.com/biz/fog-harbor-fish-house-san-francisco-2?adjust_creative=0T9f6kHMnzQCXJKBQD97qw&utm_campaign=yelp_api_v3&utm_medium=api_v3_business_search&utm_source=0T9f6kHMnzQCXJKBQD97qw", "review_count": 3157, "categories": [{"alias": "seafood", "title": "Seafood"}], "rating": 4.0, "coordinates": {"latitude": 37.80873, "longitude": -122.410428}, "transactions": [], "price": "$$", "location": {"address1": "Pier 39", "address2": "Ste A-202", "address3": "", "city": "San Francisco", "zip_code": "94133", "country": "US", "state": "CA", "display_address": ["Pier 39", "Ste A-202", "San Francisco, CA 94133"]}, "phone": "+14154212442", "display_phone": "(415) 421-2442", "distance": 1523.669842846}, {"id": "caf\u00e9-8-san-francisco-2", "name": "Caf\u00e9 8", "image_url": "https://s3-media3.fl.yelpcdn.com/bphoto/YOsdXSkAt0l4RCXE9DOiSQ/o.jpg", "is_closed": false, "url": "https://www.yelp.com/biz/caf%C3%A9-8-san-francisco-2?adjust_creative=0T9f6kHMnzQCXJKBQD97qw&utm_campaign=yelp_api_v3&utm_medium=api_v3_business_search&utm_source=0T9f6kHMnzQCXJKBQD97qw", "review_count": 228, "categories": [{"alias": "italian", "title": "Italian"}, {"alias": "seafood", "title": "Seafood"}], "rating": 2.5, "coordinates": {"latitude": 37.8086935609269, "longitude": -122.415997874869}, "transactions": [], "price": "$$", "location": {"address1": "2829 Taylor St", "address2": null, "address3": null, "city": "San Francisco", "zip_code": "94133", "country": "US", "state": "CA", "display_address": ["2829 Taylor St", "San Francisco, CA 94133"]}, "phone": "+14153591200", "display_phone": "(415) 359-1200", "distance": 1520.776088592}, {"id": "scomas-restaurant-san-francisco-3", "name": "Scoma's Restaurant", "image_url": "https://s3-media1.fl.yelpcdn.com/bphoto/TruPuYz9N_gfQoc2EibB9A/o.jpg", "is_closed": false, "url": "https://www.yelp.com/biz/scomas-restaurant-san-francisco-3?adjust_creative=0T9f6kHMnzQCXJKBQD97qw&utm_campaign=yelp_api_v3&utm_medium=api_v3_business_search&utm_source=0T9f6kHMnzQCXJKBQD97qw", "review_count": 2669, "categories": [{"alias": "seafood", "title": "Seafood"}, {"alias": "italian", "title": "Italian"}], "rating": 4.0, "coordinates": {"latitude": 37.8089922074, "longitude": -122.418253049}, "transactions": [], "price": "$$$", "location": {"address1": "1965 Al Scoma Way", "address2": "", "address3": "", "city": "San Francisco", "zip_code": "94133", "country": "US", "state": "CA", "display_address": ["1965 Al Scoma Way", "San Francisco, CA 94133"]}, "phone": "+14157714383", "display_phone": "(415) 771-4383", "distance": 1597.0545237476}, {"id": "cioppinos-san-francisco", "name": "Cioppino's", "image_url": "https://s3-media2.fl.yelpcdn.com/bphoto/bznFOBmfCRIKaVT5x7L-aw/o.jpg", "is_closed": false, "url": "https://www.yelp.com/biz/cioppinos-san-francisco?adjust_creative=0T9f6kHMnzQCXJKBQD97qw&utm_campaign=yelp_api_v3&utm_medium=api_v3_business_search&utm_source=0T9f6kHMnzQCXJKBQD97qw", "review_count": 1171, "categories": [{"alias": "italian", "title": "Italian"}, {"alias": "seafood", "title": "Seafood"}], "rating": 3.5, "coordinates": {"latitude": 37.8079387690789, "longitude": -122.41927103988}, "transactions": [], "price": "$$", "location": {"address1": "400 Jefferson St", "address2": "", "address3": "", "city": "San Francisco", "zip_code": "94109", "country": "US", "state": "CA", "display_address": ["400 Jefferson St", "San Francisco, CA 94109"]}, "phone": "+14157759311", "display_phone": "(415) 775-9311", "distance": 1514.438185804}, {"id": "seven-hills-san-francisco", "name": "Seven Hills", "image_url": "https://s3-media2.fl.yelpcdn.com/bphoto/ywOw-ze0h-nLAPlPZXcqVg/o.jpg", "is_closed": false, "url": "https://www.yelp.com/biz/seven-hills-san-francisco?adjust_creative=0T9f6kHMnzQCXJKBQD97qw&utm_campaign=yelp_api_v3&utm_medium=api_v3_business_search&utm_source=0T9f6kHMnzQCXJKBQD97qw", "review_count": 724, "categories": [{"alias": "italian", "title": "Italian"}, {"alias": "seafood", "title": "Seafood"}, {"alias": "wine_bars", "title": "Wine Bars"}], "rating": 4.5, "coordinates": {"latitude": 37.7953586, "longitude": -122.4182303}, "transactions": [], "price": "$$$", "location": {"address1": "1550 Hyde St", "address2": "", "address3": "", "city": "San Francisco", "zip_code": "94109", "country": "US", "state": "CA", "display_address": ["1550 Hyde St", "San Francisco, CA 94109"]}, "phone": "+14157751550", "display_phone": "(415) 775-1550", "distance": 444.795504692}, {"id": "tadich-grill-san-francisco", "name": "Tadich Grill", "image_url": "https://s3-media1.fl.yelpcdn.com/bphoto/MTcEV48NkFJn2sq97946UA/o.jpg", "is_closed": false, "url": "https://www.yelp.com/biz/tadich-grill-san-francisco?adjust_creative=0T9f6kHMnzQCXJKBQD97qw&utm_campaign=yelp_api_v3&utm_medium=api_v3_business_search&utm_source=0T9f6kHMnzQCXJKBQD97qw", "review_count": 1879, "categories": [{"alias": "seafood", "title": "Seafood"}, {"alias": "tradamerican", "title": "American (Traditional)"}], "rating": 4.0, "coordinates": {"latitude": 37.793431560349, "longitude": -122.399468217791}, "transactions": [], "price": "$$$", "location": {"address1": "240 California St", "address2": "", "address3": "", "city": "San Francisco", "zip_code": "94111", "country": "US", "state": "CA", "display_address": ["240 California St", "San Francisco, CA 94111"]}, "phone": "+14153911849", "display_phone": "(415) 391-1849", "distance": 1219.9810440463998}, {"id": "original-u-s-restaurant-san-francisco-4", "name": "Original U.S. Restaurant", "image_url": "https://s3-media2.fl.yelpcdn.com/bphoto/-81veJ1S_b2X64SJ8RbjSg/o.jpg", "is_closed": false, "url": "https://www.yelp.com/biz/original-u-s-restaurant-san-francisco-4?adjust_creative=0T9f6kHMnzQCXJKBQD97qw&utm_campaign=yelp_api_v3&utm_medium=api_v3_business_search&utm_source=0T9f6kHMnzQCXJKBQD97qw", "review_count": 77, "categories": [{"alias": "italian", "title": "Italian"}, {"alias": "wine_bars", "title": "Wine Bars"}], "rating": 4.0, "coordinates": {"latitude": 37.799108, "longitude": -122.408071}, "transactions": ["pickup"], "price": "$$", "location": {"address1": "414 Columbus Ave", "address2": "", "address3": "", "city": "San Francisco", "zip_code": "94133", "country": "US", "state": "CA", "display_address": ["414 Columbus Ave", "San Francisco, CA 94133"]}, "phone": "+14153981300", "display_phone": "(415) 398-1300", "distance": 623.847052077}, {"id": "fishermans-wharf-chowder-and-crab-sidewalk-stands-san-francisco", "name": "Fisherman's Wharf  Chowder and Crab Sidewalk Stands", "image_url": "https://s3-media4.fl.yelpcdn.com/bphoto/mpaj5Al30yQSKCN4Fhy1UA/o.jpg", "is_closed": false, "url": "https://www.yelp.com/biz/fishermans-wharf-chowder-and-crab-sidewalk-stands-san-francisco?adjust_creative=0T9f6kHMnzQCXJKBQD97qw&utm_campaign=yelp_api_v3&utm_medium=api_v3_business_search&utm_source=0T9f6kHMnzQCXJKBQD97qw", "review_count": 349, "categories": [{"alias": "foodstands", "title": "Food Stands"}, {"alias": "seafood", "title": "Seafood"}, {"alias": "soup", "title": "Soup"}], "rating": 3.5, "coordinates": {"latitude": 37.8082513064146, "longitude": -122.415970489383}, "transactions": [], "price": "$$", "location": {"address1": "200 Jefferson St", "address2": null, "address3": "", "city": "San Francisco", "zip_code": "94133", "country": "US", "state": "CA", "display_address": ["200 Jefferson St", "San Francisco, CA 94133"]}, "phone": "", "display_phone": "", "distance": 1470.27934461}, {"id": "tarantinos-restaurant-san-francisco", "name": "Tarantino's Restaurant", "image_url": "https://s3-media4.fl.yelpcdn.com/bphoto/fztrmYtnxFFml86f2VVi7w/o.jpg", "is_closed": false, "url": "https://www.yelp.com/biz/tarantinos-restaurant-san-francisco?adjust_creative=0T9f6kHMnzQCXJKBQD97qw&utm_campaign=yelp_api_v3&utm_medium=api_v3_business_search&utm_source=0T9f6kHMnzQCXJKBQD97qw", "review_count": 485, "categories": [{"alias": "seafood", "title": "Seafood"}], "rating": 3.5, "coordinates": {"latitude": 37.8082405775785, "longitude": -122.416049614549}, "transactions": [], "price": "$$", "location": {"address1": "206 Jefferson St", "address2": "", "address3": "", "city": "San Francisco", "zip_code": "94133", "country": "US", "state": "CA", "display_address": ["206 Jefferson St", "San Francisco, CA 94133"]}, "phone": "+14157755600", "display_phone": "(415) 775-5600", "distance": 1487.830645716}, {"id": "franciscan-crab-restaurant-san-francisco-2", "name": "Franciscan Crab Restaurant", "image_url": "https://s3-media3.fl.yelpcdn.com/bphoto/rkJHo-mYF8KI5HZTLX9sfA/o.jpg", "is_closed": false, "url": "https://www.yelp.com/biz/franciscan-crab-restaurant-san-francisco-2?adjust_creative=0T9f6kHMnzQCXJKBQD97qw&utm_campaign=yelp_api_v3&utm_medium=api_v3_business_search&utm_source=0T9f6kHMnzQCXJKBQD97qw", "review_count": 1246, "categories": [{"alias": "seafood", "title": "Seafood"}], "rating": 3.5, "coordinates": {"latitude": 37.8092604518138, "longitude": -122.414643587598}, "transactions": [], "price": "$$$", "location": {"address1": "Pier 43 1/2", "address2": "", "address3": "Fisherman's Wharf", "city": "San Francisco", "zip_code": "94133", "country": "US", "state": "CA", "display_address": ["Pier 43 1/2", "Fisherman's Wharf", "San Francisco, CA 94133"]}, "phone": "+14153627733", "display_phone": "(415) 362-7733", "distance": 1568.8502930719999}, {"id": "nicks-lighthouse-san-francisco", "name": "Nick's Lighthouse", "image_url": "https://s3-media2.fl.yelpcdn.com/bphoto/-zTekLS1Ifz0yQWgUNgeEA/o.jpg", "is_closed": false, "url": "https://www.yelp.com/biz/nicks-lighthouse-san-francisco?adjust_creative=0T9f6kHMnzQCXJKBQD97qw&utm_campaign=yelp_api_v3&utm_medium=api_v3_business_search&utm_source=0T9f6kHMnzQCXJKBQD97qw", "review_count": 757, "categories": [{"alias": "seafood", "title": "Seafood"}], "rating": 3.0, "coordinates": {"latitude": 37.8082863, "longitude": -122.4159711}, "transactions": [], "price": "$$", "location": {"address1": "2815 Taylor St", "address2": "", "address3": "Fishermans Wharf", "city": "San Francisco", "zip_code": "94102", "country": "US", "state": "CA", "display_address": ["2815 Taylor St", "Fishermans Wharf", "San Francisco, CA 94102"]}, "phone": "+14159291300", "display_phone": "(415) 929-1300", "distance": 1502.810301969}, {"id": "hog-island-oyster-co-san-francisco", "name": "Hog Island Oyster Co", "image_url": "https://s3-media1.fl.yelpcdn.com/bphoto/uXxVZfHdCF_qUlCvsxioJg/o.jpg", "is_closed": false, "url": "https://www.yelp.com/biz/hog-island-oyster-co-san-francisco?adjust_creative=0T9f6kHMnzQCXJKBQD97qw&utm_campaign=yelp_api_v3&utm_medium=api_v3_business_search&utm_source=0T9f6kHMnzQCXJKBQD97qw", "review_count": 4234, "categories": [{"alias": "seafood", "title": "Seafood"}, {"alias": "seafoodmarkets", "title": "Seafood Markets"}, {"alias": "raw_food", "title": "Live/Raw Food"}], "rating": 4.5, "coordinates": {"latitude": 37.7960118266409, "longitude": -122.393553256988}, "transactions": [], "price": "$$", "location": {"address1": "1 Ferry Bldg", "address2": "", "address3": "Shop 11", "city": "San Francisco", "zip_code": "94111", "country": "US", "state": "CA", "display_address": ["1 Ferry Bldg", "Shop 11", "San Francisco, CA 94111"]}, "phone": "+14153917117", "display_phone": "(415) 391-7117", "distance": 1725.8803560999997}, {"id": "pompeis-grotto-san-francisco", "name": "Pompei's Grotto", "image_url": "https://s3-media2.fl.yelpcdn.com/bphoto/_FV1MxljQSHgr3Z8-DGR4g/o.jpg", "is_closed": false, "url": "https://www.yelp.com/biz/pompeis-grotto-san-francisco?adjust_creative=0T9f6kHMnzQCXJKBQD97qw&utm_campaign=yelp_api_v3&utm_medium=api_v3_business_search&utm_source=0T9f6kHMnzQCXJKBQD97qw", "review_count": 462, "categories": [{"alias": "seafood", "title": "Seafood"}, {"alias": "italian", "title": "Italian"}], "rating": 3.0, "coordinates": {"latitude": 37.8080446, "longitude": -122.4181205}, "transactions": [], "price": "$$", "location": {"address1": "340 Jefferson St", "address2": "", "address3": "", "city": "San Francisco", "zip_code": "94133", "country": "US", "state": "CA", "display_address": ["340 Jefferson St", "San Francisco, CA 94133"]}, "phone": "+14157769265", "display_phone": "(415) 776-9265", "distance": 1501.7175279222}, {"id": "gold-dust-lounge-san-francisco-3", "name": "Gold Dust Lounge", "image_url": "https://s3-media3.fl.yelpcdn.com/bphoto/e7CXQrjoo0oTcccy6_WXxw/o.jpg", "is_closed": false, "url": "https://www.yelp.com/biz/gold-dust-lounge-san-francisco-3?adjust_creative=0T9f6kHMnzQCXJKBQD97qw&utm_campaign=yelp_api_v3&utm_medium=api_v3_business_search&utm_source=0T9f6kHMnzQCXJKBQD97qw", "review_count": 245, "categories": [{"alias": "lounges", "title": "Lounges"}, {"alias": "seafood", "title": "Seafood"}, {"alias": "pizza", "title": "Pizza"}], "rating": 4.0, "coordinates": {"latitude": 37.808, "longitude": -122.41523}, "transactions": [], "price": "$$", "location": {"address1": "165 Jefferson St", "address2": "", "address3": "Fisherman's Wharf", "city": "San Francisco", "zip_code": "94133", "country": "US", "state": "CA", "display_address": ["165 Jefferson St", "Fisherman's Wharf", "San Francisco, CA 94133"]}, "phone": "+14153971695", "display_phone": "(415) 397-1695", "distance": 1436.7781322583999}], "total": 49, "region": {"center": {"latitude": 37.788736224292236, "longitude": -122.413169}}}