{"businesses": [{"id": "goat-hill-pizza-san-francisco", "name": "Goat Hill Pizza", "image_url": "https://s3-media4.fl.yelpcdn.com/bphoto/8BhYHvMpJZvhl34au3471A/o.jpg", "is_closed": false, "url": "https://www.yelp.com/biz/goat-hill-pizza-san-francisco?adjust_creative=0T9f6kHMnzQCXJKBQD97qw&utm_campaign=yelp_api_v3&utm_medium=api_v3_business_search&utm_source=0T9f6kHMnzQCXJKBQD97qw", "review_count": 1137, "categories": [{"alias": "pizza", "title": "Pizza"}], "rating": 4.0, "coordinates": {"latitude": 37.762471, "longitude": -122.397658}, "transactions": ["pickup"], "price": "$$", "location": {"address1": "300 Connecticut St", "address2": "", "address3": "", "city": "San Francisco", "zip_code": "94107", "country": "US", "state": "CA", "display_address": ["300 Connecticut St", "San Francisco, CA 94107"]}, "phone": "+14156411440", "display_phone": "(415) 641-1440", "distance": 3414.186002814}, {"id": "all-nite-pizza-san-francisco", "name": "All Nite Pizza", "image_url": "", "is_closed": false, "url": "https://www.yelp.com/biz/all-nite-pizza-san-francisco?adjust_creative=0T9f6kHMnzQCXJKBQD97qw&utm_campaign=yelp_api_v3&utm_medium=api_v3_business_search&utm_source=0T9f6kHMnzQCXJKBQD97qw", "review_count": 1, "categories": [{"alias": "pizza", "title": "Pizza"}], "rating": 5.0, "coordinates": {"latitude": 37.7312965393066, "longitude": -122.391670227051}, "transactions": [], "location": {"address1": "5155 3rd St", "address2": "", "address3": "", "city": "San Francisco", "zip_code": "94124", "country": "US", "state": "CA", "display_address": ["5155 3rd St", "San Francisco, CA 94124"]}, "phone": "+14158223973", "display_phone": "(415) 822-3973", "distance": 5123.90842438}, {"id": "beretta-san-francisco", "name": "Beretta", "image_url": "https://s3-media4.fl.yelpcdn.com/bphoto/Au1vrkX9VqUtKfzI3QMkdA/o.jpg", "is_closed": false, "url": "https://www.yelp.com/biz/beretta-san-francisco?adjust_creative=0T9f6kHMnzQCXJKBQD97qw&utm_campaign=yelp_api_v3&utm_medium=api_v3_business_search&utm_source=0T9f6kHMnzQCXJKBQD97qw", "review_count": 3015, "categories": [{"alias": "italian", "title": "Italian"}, {"alias": "bars", "title": "Bars"}, {"alias": "pizza", "title": "Pizza"}], "rating": 4.0, "coordinates": {"latitude": 37.753868, "longitude": -122.420636}, "transactions": [], "price": "$$", "location": {"address1": "1199 Valencia St", "address2": "", "address3": "", "city": "San Francisco", "zip_code": "94110", "country": "US", "state": "CA", "display_address": ["1199 Valencia St", "San Francisco, CA 94110"]}, "phone": "+14156951199", "display_phone": "(415) 695-1199", "distance": 1594.5085961477998}, {"id": "little-star-pizza-san-francisco-2", "name": "Little Star Pizza", "image_url": "https://s3-media1.fl.yelpcdn.com/bphoto/5ijxMs8NmErAIAY2B10yTw/o.jpg", "is_closed": false, "url": "https://www.yelp.com/biz/little-star-pizza-san-francisco-2?adjust_creative=0T9f6kHMnzQCXJKBQD97qw&utm_campaign=yelp_api_v3&utm_medium=api_v3_business_search&utm_source=0T9f6kHMnzQCXJKBQD97qw", "review_count": 1837, "categories": [{"alias": "pizza", "title": "Pizza"}, {"alias": "desserts", "title": "Desserts"}, {"alias": "salad", "title": "Salad"}], "rating": 4.0, "coordinates": {"latitude": 37.7662598870271, "longitude": -122.422120973633}, "transactions": ["pickup"], "price": "$$", "location": {"address1": "400 Valencia St", "address2": null, "address3": "", "city": "San Francisco", "zip_code": "94103", "country": "US", "state": "CA", "display_address": ["400 Valencia St", "San Francisco, CA 94103"]}, "phone": "+14155517827", "display_phone": "(415) 551-7827", "distance": 1393.377998314}, {"id": "flour-water-san-francisco", "name": "Flour + Water", "image_url": "https://s3-media4.fl.yelpcdn.com/bphoto/xOxRLF8eMmUAtgUwGuAKTQ/o.jpg", "is_closed": false, "url": "https://www.yelp.com/biz/flour-water-san-francisco?adjust_creative=0T9f6kHMnzQCXJKBQD97qw&utm_campaign=yelp_api_v3&utm_medium=api_v3_business_search&utm_source=0T9f6kHMnzQCXJKBQD97qw", "review_count": 1997, "categories": [{"alias": "italian", "title": "Italian"}, {"alias": "pizza", "title": "Pizza"}], "rating": 3.5, "coordinates": {"latitude": 37.75892, "longitude": -122.41231}, "transactions": [], "price": "$$$", "location": {"address1": "2401 Harrison St", "address2": "", "address3": "", "city": "San Francisco", "zip_code": "94110", "country": "US", "state": "CA", "display_address": ["2401 Harrison St", "San Francisco, CA 94110"]}, "phone": "+14158267000", "display_phone": "(415) 826-7000", "distance": 2136.615789032}, {"id": "little-star-pizza-san-francisco", "name": "Little Star Pizza", "image_url": "https://s3-media2.fl.yelpcdn.com/bphoto/C-lgf5TcabWh0YvlTAGGTw/o.jpg", "is_closed": false, "url": "https://www.yelp.com/biz/little-star-pizza-san-francisco?adjust_creative=0T9f6kHMnzQCXJKBQD97qw&utm_campaign=yelp_api_v3&utm_medium=api_v3_business_search&utm_source=0T9f6kHMnzQCXJKBQD97qw", "review_count": 2601, "categories": [{"alias": "pizza", "title": "Pizza"}, {"alias": "salad", "title": "Salad"}, {"alias": "chicken_wings", "title": "Chicken Wings"}], "rating": 4.5, "coordinates": {"latitude": 37.77753, "longitude": -122.43798}, "transactions": [], "price": "$$", "location": {"address1": "846 Divisadero St", "address2": "", "address3": "", "city": "San Francisco", "zip_code": "94117", "country": "US", "state": "CA", "display_address": ["846 Divisadero St", "San Francisco, CA 94117"]}, "phone": "+14154411118", "display_phone": "(415) 441-1118", "distance": 1856.5689029419998}, {"id": "starbelly-san-francisco", "name": "Starbelly", "image_url": "https://s3-media1.fl.yelpcdn.com/bphoto/aDxnEOjtXlgPM6m2oLw8pA/o.jpg", "is_closed": false, "url": "https://www.yelp.com/biz/starbelly-san-francisco?adjust_creative=0T9f6kHMnzQCXJKBQD97qw&utm_campaign=yelp_api_v3&utm_medium=api_v3_business_search&utm_source=0T9f6kHMnzQCXJKBQD97qw", "review_count": 1465, "categories": [{"alias": "newamerican", "title": "American (New)"}, {"alias": "comfortfood", "title": "Comfort Food"}, {"alias": "breakfast_brunch", "title": "Breakfast & Brunch"}], "rating": 3.5, "coordinates": {"latitude": 37.764196421676, "longitude": -122.43258136227}, "transactions": [], "price": "$$", "location": {"address1": "3583 16th St", "address2": "", "address3": "", "city": "San Francisco", "zip_code": "94114", "country": "US", "state": "CA", "display_address": ["3583 16th St", "San Francisco, CA 94114"]}, "phone": "+14152527500", "display_phone": "(415) 252-7500", "distance": 500.24273944799995}, {"id": "pizzeria-delfina-san-francisco-san-francisco", "name": "Pizzeria Delfina - San Francisco", "image_url": "https://s3-media2.fl.yelpcdn.com/bphoto/thg8tZGvzUTNii4WfD9AgQ/o.jpg", "is_closed": false, "url": "https://www.yelp.com/biz/pizzeria-delfina-san-francisco-san-francisco?adjust_creative=0T9f6kHMnzQCXJKBQD97qw&utm_campaign=yelp_api_v3&utm_medium=api_v3_business_search&utm_source=0T9f6kHMnzQCXJKBQD97qw", "review_count": 2115, "categories": [{"alias": "pizza", "title": "Pizza"}, {"alias": "italian", "title": "Italian"}], "rating": 4.0, "coordinates": {"latitude": 37.76131, "longitude": -122.42431}, "transactions": [], "price": "$$", "location": {"address1": "3621 18th St", "address2": null, "address3": "", "city": "San Francisco", "zip_code": "94110", "country": "US", "state": "CA", "display_address": ["3621 18th St", "San Francisco, CA 94110"]}, "phone": "+14154376800", "display_phone": "(415) 437-6800", "distance": 1062.235854696}, {"id": "nopa-san-francisco", "name": "Nopa", "image_url": "https://s3-media3.fl.yelpcdn.com/bphoto/M8lkaDkG8GChJ1qvXhtLNw/o.jpg", "is_closed": false, "url": "https://www.yelp.com/biz/nopa-san-francisco?adjust_creative=0T9f6kHMnzQCXJKBQD97qw&utm_campaign=yelp_api_v3&utm_medium=api_v3_business_search&utm_source=0T9f6kHMnzQCXJKBQD97qw", "review_count": 4467, "categories": [{"alias": "newamerican", "title": "American (New)"}, {"alias": "modern_european", "title": "Modern European"}], "rating": 4.0, "coordinates": {"latitude": 37.774905, "longitude": -122.437506}, "transactions": [], "price": "$$$", "location": {"address1": "560 Divisadero St", "address2": null, "address3": "", "city": "San Francisco", "zip_code": "94117", "country": "US", "state": "CA", "display_address": ["560 Divisadero St", "San Francisco, CA 94117"]}, "phone": "+14158648643", "display_phone": "(415) 864-8643", "distance": 1560.35571375}, {"id": "katani-pizza-san-francisco", "name": "Katani Pizza", "image_url": "https://s3-media2.fl.yelpcdn.com/bphoto/hZ3PUg6S0rLcKdMe1tthmw/o.jpg", "is_closed": false, "url": "https://www.yelp.com/biz/katani-pizza-san-francisco?adjust_creative=0T9f6kHMnzQCXJKBQD97qw&utm_campaign=yelp_api_v3&utm_medium=api_v3_business_search&utm_source=0T9f6kHMnzQCXJKBQD97qw", "review_count": 67, "categories": [{"alias": "pizza", "title": "Pizza"}], "rating": 4.0, "coordinates": {"latitude": 37.77323, "longitude": -122.45066}, "transactions": ["delivery", "pickup"], "price": "$$", "location": {"address1": "2077 Hayes St", "address2": "", "address3": null, "city": "San Francisco", "zip_code": "94117", "country": "US", "state": "CA", "display_address": ["2077 Hayes St", "San Francisco, CA 94117"]}, "phone": "+14157425234", "display_phone": "(415) 742-5234", "distance": 1847.4404045939998}, {"id": "gialina-pizzeria-san-francisco", "name": "Gialina Pizzeria", "image_url": "https://s3-media2.fl.yelpcdn.com/bphoto/KyLzbzsTzGh_gomZdWTXcg/o.jpg", "is_closed": false, "url": "https://www.yelp.com/biz/gialina-pizzeria-san-francisco?adjust_creative=0T9f6kHMnzQCXJKBQD97qw&utm_campaign=yelp_api_v3&utm_medium=api_v3_business_search&utm_source=0T9f6kHMnzQCXJKBQD97qw", "review_count": 1015, "categories": [{"alias": "pizza", "title": "Pizza"}, {"alias": "italian", "title": "Italian"}, {"alias": "salad", "title": "Salad"}], "rating": 4.0, "coordinates": {"latitude": 37.73405, "longitude": -122.43424}, "transactions": [], "price": "$$", "location": {"address1": "2842 Diamond St", "address2": "", "address3": "", "city": "San Francisco", "zip_code": "94131", "country": "US", "state": "CA", "display_address": ["2842 Diamond St", "San Francisco, CA 94131"]}, "phone": "+14152398500", "display_phone": "(415) 239-8500", "distance": 2995.22233633}, {"id": "vega-san-francisco-2", "name": "Vega", "image_url": "https://s3-media2.fl.yelpcdn.com/bphoto/V_El6HAM9f6rJIibx33Ivw/o.jpg", "is_closed": false, "url": "https://www.yelp.com/biz/vega-san-francisco-2?adjust_creative=0T9f6kHMnzQCXJKBQD97qw&utm_campaign=yelp_api_v3&utm_medium=api_v3_business_search&utm_source=0T9f6kHMnzQCXJKBQD97qw", "review_count": 446, "categories": [{"alias": "italian", "title": "Italian"}, {"alias": "pizza", "title": "Pizza"}], "rating": 4.0, "coordinates": {"latitude": 37.73934, "longitude": -122.41742}, "transactions": [], "price": "$$", "location": {"address1": "419 Cortland Ave", "address2": "", "address3": "", "city": "San Francisco", "zip_code": "94110", "country": "US", "state": "CA", "display_address": ["419 Cortland Ave", "San Francisco, CA 94110"]}, "phone": "+14152856000", "display_phone": "(415) 285-6000", "distance": 2924.7377504819997}, {"id": "gaspares-pizza-house-and-italian-restaurant-san-francisco", "name": "Gaspare's Pizza House & Italian Restaurant", "image_url": "https://s3-media1.fl.yelpcdn.com/bphoto/fnLmUGP1ORiEZFJJD-XKYg/o.jpg", "is_closed": false, "url": "https://www.yelp.com/biz/gaspares-pizza-house-and-italian-restaurant-san-francisco?adjust_creative=0T9f6kHMnzQCXJKBQD97qw&utm_campaign=yelp_api_v3&utm_medium=api_v3_business_search&utm_source=0T9f6kHMnzQCXJKBQD97qw", "review_count": 814, "categories": [{"alias": "italian", "title": "Italian"}, {"alias": "pizza", "title": "Pizza"}], "rating": 4.0, "coordinates": {"latitude": 37.7806, "longitude": -122.47915}, "transactions": [], "price": "$$", "location": {"address1": "5546 Geary Blvd", "address2": "", "address3": "", "city": "San Francisco", "zip_code": "94121", "country": "US", "state": "CA", "display_address": ["5546 Geary Blvd", "San Francisco, CA 94121"]}, "phone": "+14153875025", "display_phone": "(415) 387-5025", "distance": 4345.084102912}, {"id": "la-ciccia-san-francisco", "name": "La Ciccia", "image_url": "https://s3-media3.fl.yelpcdn.com/bphoto/Z3vD-x_sAKlgTimgXJp_qw/o.jpg", "is_closed": false, "url": "https://www.yelp.com/biz/la-ciccia-san-francisco?adjust_creative=0T9f6kHMnzQCXJKBQD97qw&utm_campaign=yelp_api_v3&utm_medium=api_v3_business_search&utm_source=0T9f6kHMnzQCXJKBQD97qw", "review_count": 910, "categories": [{"alias": "seafood", "title": "Seafood"}, {"alias": "sardinian", "title": "Sardinian"}], "rating": 4.5, "coordinates": {"latitude": 37.742265, "longitude": -122.426666}, "transactions": [], "price": "$$$", "location": {"address1": "291 30th St", "address2": "", "address3": "", "city": "San Francisco", "zip_code": "94131", "country": "US", "state": "CA", "display_address": ["291 30th St", "San Francisco, CA 94131"]}, "phone": "+14155508114", "display_phone": "(415) 550-8114", "distance": 2243.44249076}, {"id": "jayn-bee-club-san-francisco", "name": "Jay'n Bee Club", "image_url": "https://s3-media4.fl.yelpcdn.com/bphoto/JNlqSxLIYq9sbNTSHZsWXQ/o.jpg", "is_closed": false, "url": "https://www.yelp.com/biz/jayn-bee-club-san-francisco?adjust_creative=0T9f6kHMnzQCXJKBQD97qw&utm_campaign=yelp_api_v3&utm_medium=api_v3_business_search&utm_source=0T9f6kHMnzQCXJKBQD97qw", "review_count": 180, "categories": [{"alias": "pubs", "title": "Pubs"}, {"alias": "divebars", "title": "Dive Bars"}, {"alias": "tradamerican", "title": "American (Traditional)"}], "rating": 4.0, "coordinates": {"latitude": 37.7593722417239, "longitude": -122.408788209756}, "transactions": [], "price": "$", "location": {"address1": "2736 20th St", "address2": "", "address3": "", "city": "San Francisco", "zip_code": "94110", "country": "US", "state": "CA", "display_address": ["2736 20th St", "San Francisco, CA 94110"]}, "phone": "+14158244190", "display_phone": "(415) 824-4190", "distance": 2437.160194966}, {"id": "delarosa-san-francisco", "name": "Delarosa", "image_url": "https://s3-media3.fl.yelpcdn.com/bphoto/s_M_yZgFL9Pb4q0DmJB77A/o.jpg", "is_closed": false, "url": "https://www.yelp.com/biz/delarosa-san-francisco?adjust_creative=0T9f6kHMnzQCXJKBQD97qw&utm_campaign=yelp_api_v3&utm_medium=api_v3_business_search&utm_source=0T9f6kHMnzQCXJKBQD97qw", "review_count": 1195, "categories": [{"alias": "italian", "title": "Italian"}, {"alias": "cocktailbars", "title": "Cocktail Bars"}, {"alias": "pizza", "title": "Pizza"}], "rating": 4.0, "coordinates": {"latitude": 37.8003663, "longitude": -122.4391165}, "transactions": [], "price": "$$", "location": {"address1": "2175 Chestnut St", "address2": "", "address3": "", "city": "San Francisco", "zip_code": "94123", "country": "US", "state": "CA", "display_address": ["2175 Chestnut St", "San Francisco, CA 94123"]}, "phone": "+14156737100", "display_phone": "(415) 673-7100", "distance": 4394.779717442}, {"id": "giorgios-pizzeria-san-francisco-5", "name": "Giorgio's Pizzeria", "image_url": "https://s3-media3.fl.yelpcdn.com/bphoto/LZjKHKI_EGwxMvR_jBlrig/o.jpg", "is_closed": false, "url": "https://www.yelp.com/biz/giorgios-pizzeria-san-francisco-5?adjust_creative=0T9f6kHMnzQCXJKBQD97qw&utm_campaign=yelp_api_v3&utm_medium=api_v3_business_search&utm_source=0T9f6kHMnzQCXJKBQD97qw", "review_count": 839, "categories": [{"alias": "pizza", "title": "Pizza"}, {"alias": "italian", "title": "Italian"}, {"alias": "sandwiches", "title": "Sandwiches"}], "rating": 4.0, "coordinates": {"latitude": 37.7829999120287, "longitude": -122.461083021665}, "transactions": [], "price": "$$", "location": {"address1": "151 Clement St", "address2": "", "address3": "", "city": "San Francisco", "zip_code": "94118", "country": "US", "state": "CA", "display_address": ["151 Clement St", "San Francisco, CA 94118"]}, "phone": "+14156681266", "display_phone": "(415) 668-1266", "distance": 3275.4674931079994}, {"id": "the-sausage-factory-san-francisco", "name": "The Sausage Factory", "image_url": "https://s3-media1.fl.yelpcdn.com/bphoto/nfWpXL0qQl4wkELKYnfj-g/o.jpg", "is_closed": false, "url": "https://www.yelp.com/biz/the-sausage-factory-san-francisco?adjust_creative=0T9f6kHMnzQCXJKBQD97qw&utm_campaign=yelp_api_v3&utm_medium=api_v3_business_search&utm_source=0T9f6kHMnzQCXJKBQD97qw", "review_count": 479, "categories": [{"alias": "italian", "title": "Italian"}, {"alias": "pizza", "title": "Pizza"}], "rating": 3.5, "coordinates": {"latitude": 37.76052, "longitude": -122.43478}, "transactions": ["delivery", "pickup"], "price": "$$", "location": {"address1": "517 Castro St", "address2": "", "address3": "", "city": "San Francisco", "zip_code": "94114", "country": "US", "state": "CA", "display_address": ["517 Castro St", "San Francisco, CA 94114"]}, "phone": "+14156261250", "display_phone": "(415) 626-1250", "distance": 159.3363438084}, {"id": "il-casaro-pizzeria-and-mozzarella-bar-san-francisco", "name": "Il Casaro Pizzeria & Mozzarella Bar", "image_url": "https://s3-media2.fl.yelpcdn.com/bphoto/K62xCcAyKVskvClKvAwz_A/o.jpg", "is_closed": false, "url": "https://www.yelp.com/biz/il-casaro-pizzeria-and-mozzarella-bar-san-francisco?adjust_creative=0T9f6kHMnzQCXJKBQD97qw&utm_campaign=yelp_api_v3&utm_medium=api_v3_business_search&utm_source=0T9f6kHMnzQCXJKBQD97qw", "review_count": 639, "categories": [{"alias": "italian", "title": "Italian"}, {"alias": "pizza", "title": "Pizza"}], "rating": 4.5, "coordinates": {"latitude": 37.7984832, "longitude": -122.4073981}, "transactions": ["delivery", "pickup"], "price": "$$", "location": {"address1": "348 Columbus Ave", "address2": "", "address3": "", "city": "San Francisco", "zip_code": "94133", "country": "US", "state": "CA", "display_address": ["348 Columbus Ave", "San Francisco, CA 94133"]}, "phone": "+14156779455", "display_phone": "(415) 677-9455", "distance": 4897.621058188}, {"id": "una-pizza-napoletana-san-francisco", "name": "Una Pizza Napoletana", "image_url": "https://s3-media1.fl.yelpcdn.com/bphoto/NLj9-IgkDyldVOSRuGvPPA/o.jpg", "is_closed": false, "url": "https://www.yelp.com/biz/una-pizza-napoletana-san-francisco?adjust_creative=0T9f6kHMnzQCXJKBQD97qw&utm_campaign=yelp_api_v3&utm_medium=api_v3_business_search&utm_source=0T9f6kHMnzQCXJKBQD97qw", "review_count": 598, "categories": [{"alias": "pizza", "title": "Pizza"}, {"alias": "wine_bars", "title": "Wine Bars"}, {"alias": "italian", "title": "Italian"}], "rating": 3.5, "coordinates": {"latitude": 37.7728466271719, "longitude": -122.415505936848}, "transactions": [], "price": "$$", "location": {"address1": "210 11th St", "address2": "", "address3": "", "city": "San Francisco", "zip_code": "94103", "country": "US", "state": "CA", "display_address": ["210 11th St", "San Francisco, CA 94103"]}, "phone": "+14158613444", "display_phone": "(415) 861-3444", "distance": 2270.1905262299997}], "total": 962, "region": {"center": {"latitude": 37.76089938976322, "longitude": -122.43644714355469}}}