{"businesses": [{"id": "alvarado-elementary-school-san-francisco", "name": "Alvarado Elementary School", "image_url": "https://s3-media4.fl.yelpcdn.com/bphoto/UOb_9eEbyUH-S-M7C71Giw/o.jpg", "is_closed": false, "url": "https://www.yelp.com/biz/alvarado-elementary-school-san-francisco?adjust_creative=0T9f6kHMnzQCXJKBQD97qw&utm_campaign=yelp_api_v3&utm_medium=api_v3_business_search&utm_source=0T9f6kHMnzQCXJKBQD97qw", "review_count": 3, "categories": [{"alias": "elementaryschools", "title": "Elementary Schools"}], "rating": 3.0, "coordinates": {"latitude": 37.753838673234, "longitude": -122.438683435321}, "transactions": [], "location": {"address1": "625 Douglass St", "address2": "", "address3": "", "city": "San Francisco", "zip_code": "94114", "country": "US", "state": "CA", "display_address": ["625 Douglass St", "San Francisco, CA 94114"]}, "phone": "+14156955695", "display_phone": "(415) 695-5695", "distance": 15.476538368659998}, {"id": "grattan-elementary-school-san-francisco", "name": "Grattan Elementary School", "image_url": "https://s3-media2.fl.yelpcdn.com/bphoto/Zve-a_7fNAjMBkhMCiPvLg/o.jpg", "is_closed": false, "url": "https://www.yelp.com/biz/grattan-elementary-school-san-francisco?adjust_creative=0T9f6kHMnzQCXJKBQD97qw&utm_campaign=yelp_api_v3&utm_medium=api_v3_business_search&utm_source=0T9f6kHMnzQCXJKBQD97qw", "review_count": 3, "categories": [{"alias": "elementaryschools", "title": "Elementary Schools"}], "rating": 4.0, "coordinates": {"latitude": 37.7637547, "longitude": -122.4505076}, "transactions": [], "location": {"address1": "165 Grattan St", "address2": "", "address3": "", "city": "San Francisco", "zip_code": "94117", "country": "US", "state": "CA", "display_address": ["165 Grattan St", "San Francisco, CA 94117"]}, "phone": "+14157592815", "display_phone": "(415) 759-2815", "distance": 1515.004190682}, {"id": "the-crayon-box-preschool-san-francisco", "name": "The Crayon Box Preschool", "image_url": "https://s3-media2.fl.yelpcdn.com/bphoto/4rxcsExlp-zegglHxILwzw/o.jpg", "is_closed": false, "url": "https://www.yelp.com/biz/the-crayon-box-preschool-san-francisco?adjust_creative=0T9f6kHMnzQCXJKBQD97qw&utm_campaign=yelp_api_v3&utm_medium=api_v3_business_search&utm_source=0T9f6kHMnzQCXJKBQD97qw", "review_count": 17, "categories": [{"alias": "childcare", "title": "Child Care & Day Care"}, {"alias": "preschools", "title": "Preschools"}], "rating": 4.0, "coordinates": {"latitude": 37.7479414229843, "longitude": -122.414313638396}, "transactions": [], "location": {"address1": "3215 Cesar Chavez St", "address2": "", "address3": "", "city": "San Francisco", "zip_code": "94112", "country": "US", "state": "CA", "display_address": ["3215 Cesar Chavez St", "San Francisco, CA 94112"]}, "phone": "+14153349008", "display_phone": "(415) 334-9008", "distance": 2236.943653972}, {"id": "growth-and-learning-opportunities-san-francisco", "name": "Growth & Learning Opportunities", "image_url": "https://s3-media1.fl.yelpcdn.com/bphoto/MDSM1eTUxsp9_CqjxxUaAA/o.jpg", "is_closed": false, "url": "https://www.yelp.com/biz/growth-and-learning-opportunities-san-francisco?adjust_creative=0T9f6kHMnzQCXJKBQD97qw&utm_campaign=yelp_api_v3&utm_medium=api_v3_business_search&utm_source=0T9f6kHMnzQCXJKBQD97qw", "review_count": 7, "categories": [{"alias": "daycamps", "title": "Day Camps"}, {"alias": "summer_camps", "title": "Summer Camps"}], "rating": 3.0, "coordinates": {"latitude": 37.781821, "longitude": -122.4547753}, "transactions": [], "location": {"address1": "3330 Geary Blvd", "address2": "Fl 3 West", "address3": "", "city": "San Francisco", "zip_code": "94118", "country": "US", "state": "CA", "display_address": ["3330 Geary Blvd", "Fl 3 West", "San Francisco, CA 94118"]}, "phone": "+14157531113", "display_phone": "(415) 753-1113", "distance": 3432.9856689579997}, {"id": "san-francisco-unified-school-district-san-francisco", "name": "San Francisco Unified School District", "image_url": "https://s3-media2.fl.yelpcdn.com/bphoto/_982VtgGbFT0OmV1xxvfow/o.jpg", "is_closed": false, "url": "https://www.yelp.com/biz/san-francisco-unified-school-district-san-francisco?adjust_creative=0T9f6kHMnzQCXJKBQD97qw&utm_campaign=yelp_api_v3&utm_medium=api_v3_business_search&utm_source=0T9f6kHMnzQCXJKBQD97qw", "review_count": 31, "categories": [{"alias": "highschools", "title": "Middle Schools & High Schools"}, {"alias": "elementaryschools", "title": "Elementary Schools"}], "rating": 1.5, "coordinates": {"latitude": 37.77919, "longitude": -122.42218}, "transactions": [], "location": {"address1": "555 Franklin St", "address2": "", "address3": "", "city": "San Francisco", "zip_code": "94102", "country": "US", "state": "CA", "display_address": ["555 Franklin St", "San Francisco, CA 94102"]}, "phone": "+14152416000", "display_phone": "(415) 241-6000", "distance": 3187.451079168}], "total": 5, "region": {"center": {"latitude": 37.753684, "longitude": -122.438696}}}