{"businesses": [{"id": "aptos-middle-school-san-francisco", "name": "Aptos Middle School", "image_url": "https://s3-media4.fl.yelpcdn.com/bphoto/W7eLGWQ-QO5UFCB6WcCjbw/o.jpg", "is_closed": false, "url": "https://www.yelp.com/biz/aptos-middle-school-san-francisco?adjust_creative=0T9f6kHMnzQCXJKBQD97qw&utm_campaign=yelp_api_v3&utm_medium=api_v3_business_search&utm_source=0T9f6kHMnzQCXJKBQD97qw", "review_count": 10, "categories": [{"alias": "highschools", "title": "Middle Schools & High Schools"}], "rating": 3.5, "coordinates": {"latitude": 37.730116546154, "longitude": -122.466278672218}, "transactions": [], "location": {"address1": "105 Aptos Ave", "address2": "", "address3": "", "city": "San Francisco", "zip_code": "94127", "country": "US", "state": "CA", "display_address": ["105 Aptos Ave", "San Francisco, CA 94127"]}, "phone": "+14154694520", "display_phone": "(415) 469-4520", "distance": 4.368699236204}, {"id": "stonestown-family-ymca-san-francisco", "name": "Stonestown Family YMCA", "image_url": "https://s3-media4.fl.yelpcdn.com/bphoto/fYyriKWWOnlQ55J6xsJocA/o.jpg", "is_closed": false, "url": "https://www.yelp.com/biz/stonestown-family-ymca-san-francisco?adjust_creative=0T9f6kHMnzQCXJKBQD97qw&utm_campaign=yelp_api_v3&utm_medium=api_v3_business_search&utm_source=0T9f6kHMnzQCXJKBQD97qw", "review_count": 113, "categories": [{"alias": "gyms", "title": "Gyms"}, {"alias": "summer_camps", "title": "Summer Camps"}, {"alias": "swimminglessons", "title": "Swimming Lessons/Schools"}], "rating": 3.5, "coordinates": {"latitude": 37.73087, "longitude": -122.47658}, "transactions": [], "location": {"address1": "333 Eucalyptus Dr", "address2": "", "address3": "", "city": "San Francisco", "zip_code": "94132", "country": "US", "state": "CA", "display_address": ["333 Eucalyptus Dr", "San Francisco, CA 94132"]}, "phone": "+14152427100", "display_phone": "(415) 242-7100", "distance": 900.43216736}], "total": 2, "region": {"center": {"latitude": 37.730198, "longitude": -122.466238}}}