{"businesses": [{"id": "fitness-sf-mid-market-san-francisco", "name": "FITNESS SF - Mid-Market", "image_url": "https://s3-media4.fl.yelpcdn.com/bphoto/ANGP2f33H_BoxTEHrMiv2A/o.jpg", "is_closed": false, "url": "https://www.yelp.com/biz/fitness-sf-mid-market-san-francisco?adjust_creative=0T9f6kHMnzQCXJKBQD97qw&utm_campaign=yelp_api_v3&utm_medium=api_v3_business_search&utm_source=0T9f6kHMnzQCXJKBQD97qw", "review_count": 121, "categories": [{"alias": "gyms", "title": "Gyms"}, {"alias": "healthtrainers", "title": "Trainers"}], "rating": 4.0, "coordinates": {"latitude": 37.7760720917643, "longitude": -122.416924273541}, "transactions": [], "location": {"address1": "One Tenth St", "address2": "", "address3": "", "city": "San Francisco", "zip_code": "94103", "country": "US", "state": "CA", "display_address": ["One Tenth St", "San Francisco, CA 94103"]}, "phone": "+14153486377", "display_phone": "(415) 348-6377", "distance": 2406.6990902479997}, {"id": "yoga-of-sausalito-sausalito-3", "name": "Yoga Of Sausalito", "image_url": "https://s3-media1.fl.yelpcdn.com/bphoto/D0t6N2I8A5bXhsmmlyQWzQ/o.jpg", "is_closed": false, "url": "https://www.yelp.com/biz/yoga-of-sausalito-sausalito-3?adjust_creative=0T9f6kHMnzQCXJKBQD97qw&utm_campaign=yelp_api_v3&utm_medium=api_v3_business_search&utm_source=0T9f6kHMnzQCXJKBQD97qw", "review_count": 30, "categories": [{"alias": "yoga", "title": "Yoga"}, {"alias": "spas", "title": "Day Spas"}, {"alias": "massage", "title": "Massage"}], "rating": 4.5, "coordinates": {"latitude": 37.859, "longitude": -122.48572}, "transactions": [], "price": "$$", "location": {"address1": "110 Caledonia St", "address2": "", "address3": "", "city": "Sausalito", "zip_code": "94965", "country": "US", "state": "CA", "display_address": ["110 Caledonia St", "Sausalito, CA 94965"]}, "phone": "+14153329642", "display_phone": "(415) 332-9642", "distance": 11742.307909}, {"id": "avalon-yoga-international-inc-palo-alto", "name": "Avalon Yoga International, Inc.", "image_url": "https://s3-media2.fl.yelpcdn.com/bphoto/xwCXRyHfgadGA9T8IsX_Yw/o.jpg", "is_closed": false, "url": "https://www.yelp.com/biz/avalon-yoga-international-inc-palo-alto?adjust_creative=0T9f6kHMnzQCXJKBQD97qw&utm_campaign=yelp_api_v3&utm_medium=api_v3_business_search&utm_source=0T9f6kHMnzQCXJKBQD97qw", "review_count": 79, "categories": [{"alias": "yoga", "title": "Yoga"}, {"alias": "pilates", "title": "Pilates"}], "rating": 4.5, "coordinates": {"latitude": 37.4267793, "longitude": -122.1446587}, "transactions": [], "location": {"address1": "370 S California Ave", "address2": "", "address3": "", "city": "Palo Alto", "zip_code": "94306", "country": "US", "state": "CA", "display_address": ["370 S California Ave", "Palo Alto, CA 94306"]}, "phone": "+16503242517", "display_phone": "(650) 324-2517", "distance": 45179.44438849999}, {"id": "worlds-yoga-union-city-2", "name": "Worlds Yoga", "image_url": "https://s3-media4.fl.yelpcdn.com/bphoto/F2KQVQS-_kg2qP0KzLihmQ/o.jpg", "is_closed": false, "url": "https://www.yelp.com/biz/worlds-yoga-union-city-2?adjust_creative=0T9f6kHMnzQCXJKBQD97qw&utm_campaign=yelp_api_v3&utm_medium=api_v3_business_search&utm_source=0T9f6kHMnzQCXJKBQD97qw", "review_count": 89, "categories": [{"alias": "yoga", "title": "Yoga"}], "rating": 4.5, "coordinates": {"latitude": 37.5967, "longitude": -122.07909}, "transactions": [], "location": {"address1": "3909 Smith St", "address2": "", "address3": "", "city": "Union City", "zip_code": "94587", "country": "US", "state": "CA", "display_address": ["3909 Smith St", "Union City, CA 94587"]}, "phone": "+15104419642", "display_phone": "(510) 441-9642", "distance": 36371.0196264}, {"id": "yoga-cindys-sunnyvale-4", "name": "Yoga @ Cindy's", "image_url": "https://s3-media2.fl.yelpcdn.com/bphoto/RS0iVL2D8aQsAhFMuEtkrA/o.jpg", "is_closed": false, "url": "https://www.yelp.com/biz/yoga-cindys-sunnyvale-4?adjust_creative=0T9f6kHMnzQCXJKBQD97qw&utm_campaign=yelp_api_v3&utm_medium=api_v3_business_search&utm_source=0T9f6kHMnzQCXJKBQD97qw", "review_count": 22, "categories": [{"alias": "yoga", "title": "Yoga"}], "rating": 3.5, "coordinates": {"latitude": 37.3736, "longitude": -122.05327}, "transactions": [], "location": {"address1": "1111 W El Camino Real", "address2": "Ste 215", "address3": "", "city": "Sunnyvale", "zip_code": "94086", "country": "US", "state": "CA", "display_address": ["1111 W El Camino Real", "Ste 215", "Sunnyvale, CA 94086"]}, "phone": "+14086852484", "display_phone": "(408) 685-2484", "distance": 54721.0522678}, {"id": "yoga-cindys-sunnyvale-2", "name": "Yoga @ Cindy's", "image_url": "https://s3-media3.fl.yelpcdn.com/bphoto/8leRbQz9mBg9xTsiOWu1lw/o.jpg", "is_closed": false, "url": "https://www.yelp.com/biz/yoga-cindys-sunnyvale-2?adjust_creative=0T9f6kHMnzQCXJKBQD97qw&utm_campaign=yelp_api_v3&utm_medium=api_v3_business_search&utm_source=0T9f6kHMnzQCXJKBQD97qw", "review_count": 194, "categories": [{"alias": "yoga", "title": "Yoga"}], "rating": 4.5, "coordinates": {"latitude": 37.3817367553711, "longitude": -121.995132446289}, "transactions": [], "location": {"address1": "500 Lawrence Expy", "address2": "Ste H", "address3": "", "city": "Sunnyvale", "zip_code": "94085", "country": "US", "state": "CA", "display_address": ["500 Lawrence Expy", "Ste H", "Sunnyvale, CA 94085"]}, "phone": "+14087309642", "display_phone": "(408) 730-9642", "distance": 57349.39899702}], "total": 6, "region": {"center": {"latitude": 37.616473150000004, "longitude": -122.26705986210938}}}