{"businesses": [{"id": "auto-city-car-wash-san-francisco", "name": "Auto City Car Wash", "image_url": "https://s3-media4.fl.yelpcdn.com/bphoto/JTUuTxB6zuSbMO30au85qw/o.jpg", "is_closed": false, "url": "https://www.yelp.com/biz/auto-city-car-wash-san-francisco?adjust_creative=0T9f6kHMnzQCXJKBQD97qw&utm_campaign=yelp_api_v3&utm_medium=api_v3_business_search&utm_source=0T9f6kHMnzQCXJKBQD97qw", "review_count": 148, "categories": [{"alias": "carwash", "title": "Car Wash"}, {"alias": "auto_detailing", "title": "Auto Detailing"}], "rating": 2.0, "coordinates": {"latitude": 37.76481, "longitude": -122.41699}, "transactions": [], "location": {"address1": "505 S Van Ness Ave", "address2": null, "address3": "", "city": "San Francisco", "zip_code": "94110", "country": "US", "state": "CA", "display_address": ["505 S Van Ness Ave", "San Francisco, CA 94110"]}, "phone": "+14158636643", "display_phone": "(415) 863-6643", "distance": 30.678735766199996}, {"id": "guerrero-shell-san-francisco", "name": "Guerrero Shell", "image_url": "https://s3-media2.fl.yelpcdn.com/bphoto/IaPEFB_lGU01tQwVxHh63Q/o.jpg", "is_closed": false, "url": "https://www.yelp.com/biz/guerrero-shell-san-francisco?adjust_creative=0T9f6kHMnzQCXJKBQD97qw&utm_campaign=yelp_api_v3&utm_medium=api_v3_business_search&utm_source=0T9f6kHMnzQCXJKBQD97qw", "review_count": 87, "categories": [{"alias": "smog_check_stations", "title": "Smog Check Stations"}, {"alias": "servicestations", "title": "Gas Stations"}], "rating": 4.5, "coordinates": {"latitude": 37.76449, "longitude": -122.42438}, "transactions": [], "location": {"address1": "400 Guerrero St", "address2": "", "address3": "", "city": "San Francisco", "zip_code": "94110", "country": "US", "state": "CA", "display_address": ["400 Guerrero St", "San Francisco, CA 94110"]}, "phone": "+14155520707", "display_phone": "(415) 552-0707", "distance": 604.8257315348}, {"id": "tower-car-wash-san-francisco", "name": "Tower Car Wash", "image_url": "https://s3-media2.fl.yelpcdn.com/bphoto/vrmy034Ek9FRANibXnCHNw/o.jpg", "is_closed": false, "url": "https://www.yelp.com/biz/tower-car-wash-san-francisco?adjust_creative=0T9f6kHMnzQCXJKBQD97qw&utm_campaign=yelp_api_v3&utm_medium=api_v3_business_search&utm_source=0T9f6kHMnzQCXJKBQD97qw", "review_count": 427, "categories": [{"alias": "carwash", "title": "Car Wash"}, {"alias": "auto_detailing", "title": "Auto Detailing"}], "rating": 3.0, "coordinates": {"latitude": 37.7720413208008, "longitude": -122.418762207031}, "transactions": [], "location": {"address1": "1601 Mission St", "address2": "", "address3": "", "city": "San Francisco", "zip_code": "94103", "country": "US", "state": "CA", "display_address": ["1601 Mission St", "San Francisco, CA 94103"]}, "phone": "+14155589274", "display_phone": "(415) 558-9274", "distance": 822.122729031}, {"id": "tool-mart-daly-city", "name": "Tool Mart", "image_url": "https://s3-media1.fl.yelpcdn.com/bphoto/cayh28aJfNWYUU66JTJYyg/o.jpg", "is_closed": false, "url": "https://www.yelp.com/biz/tool-mart-daly-city?adjust_creative=0T9f6kHMnzQCXJKBQD97qw&utm_campaign=yelp_api_v3&utm_medium=api_v3_business_search&utm_source=0T9f6kHMnzQCXJKBQD97qw", "review_count": 34, "categories": [{"alias": "autopartssupplies", "title": "Auto Parts & Supplies"}, {"alias": "hardware", "title": "Hardware Stores"}], "rating": 5.0, "coordinates": {"latitude": 37.690719, "longitude": -122.465225}, "transactions": [], "price": "$$", "location": {"address1": "7339 Mission St", "address2": "", "address3": "", "city": "Daly City", "zip_code": "94014", "country": "US", "state": "CA", "display_address": ["7339 Mission St", "Daly City, CA 94014"]}, "phone": "+16509925730", "display_phone": "(650) 992-5730", "distance": 9240.363088598}, {"id": "bmw-of-san-francisco-san-francisco-2", "name": "BMW of San Francisco", "image_url": "https://s3-media2.fl.yelpcdn.com/bphoto/iwKICq4qYdPkEPhoryZ67Q/o.jpg", "is_closed": false, "url": "https://www.yelp.com/biz/bmw-of-san-francisco-san-francisco-2?adjust_creative=0T9f6kHMnzQCXJKBQD97qw&utm_campaign=yelp_api_v3&utm_medium=api_v3_business_search&utm_source=0T9f6kHMnzQCXJKBQD97qw", "review_count": 1149, "categories": [{"alias": "car_dealers", "title": "Car Dealers"}, {"alias": "autorepair", "title": "Auto Repair"}], "rating": 3.0, "coordinates": {"latitude": 37.770462, "longitude": -122.41718}, "transactions": [], "location": {"address1": "1675 Howard St", "address2": "", "address3": "", "city": "San Francisco", "zip_code": "94103", "country": "US", "state": "CA", "display_address": ["1675 Howard St", "San Francisco, CA 94103"]}, "phone": "+18008722697", "display_phone": "(800) 872-2697", "distance": 632.7857931456}, {"id": "chevron-san-francisco-22", "name": "Chevron", "image_url": "https://s3-media4.fl.yelpcdn.com/bphoto/9LFLQ2RXBfYRNHkd6zvp4g/o.jpg", "is_closed": false, "url": "https://www.yelp.com/biz/chevron-san-francisco-22?adjust_creative=0T9f6kHMnzQCXJKBQD97qw&utm_campaign=yelp_api_v3&utm_medium=api_v3_business_search&utm_source=0T9f6kHMnzQCXJKBQD97qw", "review_count": 48, "categories": [{"alias": "servicestations", "title": "Gas Stations"}, {"alias": "convenience", "title": "Convenience Stores"}], "rating": 2.5, "coordinates": {"latitude": 37.7626226, "longitude": -122.4351621}, "transactions": [], "price": "$", "location": {"address1": "2399 Market St", "address2": "", "address3": "", "city": "San Francisco", "zip_code": "94114", "country": "US", "state": "CA", "display_address": ["2399 Market St", "San Francisco, CA 94114"]}, "phone": "+14156212570", "display_phone": "(415) 621-2570", "distance": 1578.185108808}, {"id": "76-san-francisco-4", "name": "76", "image_url": "https://s3-media1.fl.yelpcdn.com/bphoto/kSoKR6s2ymwykCuebePrCA/o.jpg", "is_closed": false, "url": "https://www.yelp.com/biz/76-san-francisco-4?adjust_creative=0T9f6kHMnzQCXJKBQD97qw&utm_campaign=yelp_api_v3&utm_medium=api_v3_business_search&utm_source=0T9f6kHMnzQCXJKBQD97qw", "review_count": 21, "categories": [{"alias": "servicestations", "title": "Gas Stations"}], "rating": 3.5, "coordinates": {"latitude": 37.7523003, "longitude": -122.4209671}, "transactions": [], "location": {"address1": "1298 Valencia St", "address2": "", "address3": "", "city": "San Francisco", "zip_code": "94110", "country": "US", "state": "CA", "display_address": ["1298 Valencia St", "San Francisco, CA 94110"]}, "phone": "+14158964921", "display_phone": "(415) 896-4921", "distance": 1418.0508703209998}, {"id": "sullivan-valero-and-food-mart-daly-city", "name": "Sullivan Valero & Food Mart", "image_url": "https://s3-media2.fl.yelpcdn.com/bphoto/TELbvafPZ4C8Zg1w8gwCjg/o.jpg", "is_closed": false, "url": "https://www.yelp.com/biz/sullivan-valero-and-food-mart-daly-city?adjust_creative=0T9f6kHMnzQCXJKBQD97qw&utm_campaign=yelp_api_v3&utm_medium=api_v3_business_search&utm_source=0T9f6kHMnzQCXJKBQD97qw", "review_count": 20, "categories": [{"alias": "servicestations", "title": "Gas Stations"}, {"alias": "smog_check_stations", "title": "Smog Check Stations"}], "rating": 4.0, "coordinates": {"latitude": 37.6862981, "longitude": -122.4723549}, "transactions": [], "location": {"address1": "1690 Sullivan Ave", "address2": "", "address3": "", "city": "Daly City", "zip_code": "94015", "country": "US", "state": "CA", "display_address": ["1690 Sullivan Ave", "Daly City, CA 94015"]}, "phone": "+16509924838", "display_phone": "(650) 992-4838", "distance": 9976.402784298}, {"id": "cycle-gear-san-francisco", "name": "Cycle Gear", "image_url": "https://s3-media2.fl.yelpcdn.com/bphoto/PRQ_hrmpB7IBrSjJyya37Q/o.jpg", "is_closed": false, "url": "https://www.yelp.com/biz/cycle-gear-san-francisco?adjust_creative=0T9f6kHMnzQCXJKBQD97qw&utm_campaign=yelp_api_v3&utm_medium=api_v3_business_search&utm_source=0T9f6kHMnzQCXJKBQD97qw", "review_count": 205, "categories": [{"alias": "autopartssupplies", "title": "Auto Parts & Supplies"}, {"alias": "motorcyclinggear", "title": "Motorcycle Gear"}, {"alias": "tires", "title": "Tires"}], "rating": 4.0, "coordinates": {"latitude": 37.770668094062, "longitude": -122.412971779704}, "transactions": [], "price": "$$", "location": {"address1": "1500 Harrison Street", "address2": "", "address3": "", "city": "San Francisco", "zip_code": "94103", "country": "US", "state": "CA", "display_address": ["1500 Harrison Street", "San Francisco, CA 94103"]}, "phone": "+14154872710", "display_phone": "(415) 487-2710", "distance": 763.1132684651999}, {"id": "auto-glass-now-san-francisco-san-francisco-2", "name": "Auto Glass Now - San Francisco", "image_url": "https://s3-media3.fl.yelpcdn.com/bphoto/kg6O6OSXhH_AU3JguH7B7w/o.jpg", "is_closed": false, "url": "https://www.yelp.com/biz/auto-glass-now-san-francisco-san-francisco-2?adjust_creative=0T9f6kHMnzQCXJKBQD97qw&utm_campaign=yelp_api_v3&utm_medium=api_v3_business_search&utm_source=0T9f6kHMnzQCXJKBQD97qw", "review_count": 328, "categories": [{"alias": "autoglass", "title": "Auto Glass Services"}, {"alias": "windshieldinstallrepair", "title": "Windshield Installation & Repair"}], "rating": 4.0, "coordinates": {"latitude": 37.7748415, "longitude": -122.4038029}, "transactions": [], "location": {"address1": "863 Bryant St", "address2": "", "address3": "", "city": "San Francisco", "zip_code": "94103", "country": "US", "state": "CA", "display_address": ["863 Bryant St", "San Francisco, CA 94103"]}, "phone": "+14154311212", "display_phone": "(415) 431-1212", "distance": 1642.885404828}, {"id": "arco-san-francisco-2", "name": "ARCO", "image_url": "https://s3-media4.fl.yelpcdn.com/bphoto/keIWmbcK0zlMawhpP0U33w/o.jpg", "is_closed": false, "url": "https://www.yelp.com/biz/arco-san-francisco-2?adjust_creative=0T9f6kHMnzQCXJKBQD97qw&utm_campaign=yelp_api_v3&utm_medium=api_v3_business_search&utm_source=0T9f6kHMnzQCXJKBQD97qw", "review_count": 27, "categories": [{"alias": "servicestations", "title": "Gas Stations"}], "rating": 1.5, "coordinates": {"latitude": 37.76847, "longitude": -122.42031}, "transactions": [], "location": {"address1": "1798 Mission St", "address2": "", "address3": "", "city": "San Francisco", "zip_code": "94103", "country": "US", "state": "CA", "display_address": ["1798 Mission St", "San Francisco, CA 94103"]}, "phone": "+14154371947", "display_phone": "(415) 437-1947", "distance": 479.72352570079994}, {"id": "sf-moto-san-francisco", "name": "SF Moto", "image_url": "https://s3-media2.fl.yelpcdn.com/bphoto/bLMYfS2zIyxH4H_JJwodUw/o.jpg", "is_closed": false, "url": "https://www.yelp.com/biz/sf-moto-san-francisco?adjust_creative=0T9f6kHMnzQCXJKBQD97qw&utm_campaign=yelp_api_v3&utm_medium=api_v3_business_search&utm_source=0T9f6kHMnzQCXJKBQD97qw", "review_count": 280, "categories": [{"alias": "motorcycledealers", "title": "Motorcycle Dealers"}, {"alias": "motorcyclerepair", "title": "Motorcycle Repair"}, {"alias": "motorcyclinggear", "title": "Motorcycle Gear"}], "rating": 4.0, "coordinates": {"latitude": 37.7754241993447, "longitude": -122.410252491402}, "transactions": [], "price": "$$$$", "location": {"address1": "275 8th St", "address2": "", "address3": "", "city": "San Francisco", "zip_code": "94103", "country": "US", "state": "CA", "display_address": ["275 8th St", "San Francisco, CA 94103"]}, "phone": "+14152553132", "display_phone": "(415) 255-3132", "distance": 1341.29315762}, {"id": "san-francisco-municipal-transportation-agency-san-francisco-3", "name": "San Francisco Municipal Transportation Agency", "image_url": "https://s3-media2.fl.yelpcdn.com/bphoto/T8U8K5eVAEiko--qQIHnew/o.jpg", "is_closed": false, "url": "https://www.yelp.com/biz/san-francisco-municipal-transportation-agency-san-francisco-3?adjust_creative=0T9f6kHMnzQCXJKBQD97qw&utm_campaign=yelp_api_v3&utm_medium=api_v3_business_search&utm_source=0T9f6kHMnzQCXJKBQD97qw", "review_count": 440, "categories": [{"alias": "publicservicesgovt", "title": "Public Services & Government"}, {"alias": "bikeparking", "title": "Bike Parking"}, {"alias": "parking", "title": "Parking"}], "rating": 1.5, "coordinates": {"latitude": 37.7750158, "longitude": -122.4190391}, "transactions": [], "location": {"address1": "11 S Van Ness Ave", "address2": "Fl 7", "address3": "", "city": "San Francisco", "zip_code": "94103", "country": "US", "state": "CA", "display_address": ["11 S Van Ness Ave", "Fl 7", "San Francisco, CA 94103"]}, "phone": "+14157015400", "display_phone": "(415) 701-5400", "distance": 1098.65859851}, {"id": "shell-san-francisco-15", "name": "Shell", "image_url": "https://s3-media1.fl.yelpcdn.com/bphoto/_AarLf6kyYvgPKBB7kzxZg/o.jpg", "is_closed": false, "url": "https://www.yelp.com/biz/shell-san-francisco-15?adjust_creative=0T9f6kHMnzQCXJKBQD97qw&utm_campaign=yelp_api_v3&utm_medium=api_v3_business_search&utm_source=0T9f6kHMnzQCXJKBQD97qw", "review_count": 73, "categories": [{"alias": "carwash", "title": "Car Wash"}, {"alias": "servicestations", "title": "Gas Stations"}], "rating": 3.0, "coordinates": {"latitude": 37.78156, "longitude": -122.4517}, "transactions": [], "location": {"address1": "3035 Geary Blvd", "address2": "", "address3": "", "city": "San Francisco", "zip_code": "94118", "country": "US", "state": "CA", "display_address": ["3035 Geary Blvd", "San Francisco, CA 94118"]}, "phone": "+14157524171", "display_phone": "(415) 752-4171", "distance": 3538.583478662}, {"id": "westlake-touchless-car-wash-daly-city", "name": "Westlake Touchless Car Wash", "image_url": "https://s3-media2.fl.yelpcdn.com/bphoto/n8PyeLnsgb0M8shpIC8ohw/o.jpg", "is_closed": false, "url": "https://www.yelp.com/biz/westlake-touchless-car-wash-daly-city?adjust_creative=0T9f6kHMnzQCXJKBQD97qw&utm_campaign=yelp_api_v3&utm_medium=api_v3_business_search&utm_source=0T9f6kHMnzQCXJKBQD97qw", "review_count": 422, "categories": [{"alias": "carwash", "title": "Car Wash"}], "rating": 3.0, "coordinates": {"latitude": 37.6930313110352, "longitude": -122.473358154297}, "transactions": [], "location": {"address1": "247 87th St", "address2": "", "address3": "", "city": "Daly City", "zip_code": "94015", "country": "US", "state": "CA", "display_address": ["247 87th St", "Daly City, CA 94015"]}, "phone": "+16509925344", "display_phone": "(650) 992-5344", "distance": 9364.67221168}, {"id": "o-reilly-auto-parts-san-francisco-5", "name": "O'Reilly Auto Parts", "image_url": "https://s3-media1.fl.yelpcdn.com/bphoto/FKqJ8QNDGSiDDuXCpD4I3A/o.jpg", "is_closed": false, "url": "https://www.yelp.com/biz/o-reilly-auto-parts-san-francisco-5?adjust_creative=0T9f6kHMnzQCXJKBQD97qw&utm_campaign=yelp_api_v3&utm_medium=api_v3_business_search&utm_source=0T9f6kHMnzQCXJKBQD97qw", "review_count": 97, "categories": [{"alias": "autorepair", "title": "Auto Repair"}, {"alias": "autopartssupplies", "title": "Auto Parts & Supplies"}], "rating": 3.5, "coordinates": {"latitude": 37.78087, "longitude": -122.46074}, "transactions": [], "location": {"address1": "3855 Geary Blvd", "address2": "", "address3": "", "city": "San Francisco", "zip_code": "94118", "country": "US", "state": "CA", "display_address": ["3855 Geary Blvd", "San Francisco, CA 94118"]}, "phone": "+14156685241", "display_phone": "(415) 668-5241", "distance": 4208.871818388}, {"id": "a-1-performance-auto-repair-sunnyvale", "name": "A-1 Performance Auto Repair", "image_url": "https://s3-media4.fl.yelpcdn.com/bphoto/qlz9UESyAv_Nf-4AyDgG0w/o.jpg", "is_closed": false, "url": "https://www.yelp.com/biz/a-1-performance-auto-repair-sunnyvale?adjust_creative=0T9f6kHMnzQCXJKBQD97qw&utm_campaign=yelp_api_v3&utm_medium=api_v3_business_search&utm_source=0T9f6kHMnzQCXJKBQD97qw", "review_count": 108, "categories": [{"alias": "autorepair", "title": "Auto Repair"}], "rating": 4.5, "coordinates": {"latitude": 37.3951909, "longitude": -122.029724}, "transactions": [], "location": {"address1": "771 N Mathilda Ave", "address2": "Ste A", "address3": "", "city": "Sunnyvale", "zip_code": "94085", "country": "US", "state": "CA", "display_address": ["771 N Mathilda Ave", "Ste A", "Sunnyvale, CA 94085"]}, "phone": "+14085300089", "display_phone": "(408) 530-0089", "distance": 53442.146784619996}], "total": 17, "region": {"center": {"latitude": 37.7439647938033, "longitude": -122.43099732253003}}}