{"businesses": [{"id": "wine-country-limousine-san-francisco-2", "name": "Wine Country Limousine", "image_url": "https://s3-media1.fl.yelpcdn.com/bphoto/nsz7pwf5z6EPq37yljTSTA/o.jpg", "is_closed": false, "url": "https://www.yelp.com/biz/wine-country-limousine-san-francisco-2?adjust_creative=0T9f6kHMnzQCXJKBQD97qw&utm_campaign=yelp_api_v3&utm_medium=api_v3_business_search&utm_source=0T9f6kHMnzQCXJKBQD97qw", "review_count": 48, "categories": [{"alias": "limos", "title": "Limos"}, {"alias": "tours", "title": "Tours"}, {"alias": "airport_shuttles", "title": "Airport Shuttles"}], "rating": 4.5, "coordinates": {"latitude": 37.7497024536133, "longitude": -122.415405273438}, "transactions": [], "location": {"address1": "", "address2": "", "address3": "", "city": "San Francisco", "zip_code": "94110", "country": "US", "state": "CA", "display_address": ["San Francisco, CA 94110"]}, "phone": "+14153123773", "display_phone": "(415) 312-3773", "distance": 2095.273453772}, {"id": "silverride-senior-transportation-san-francisco-3", "name": "SilverRide Senior Transportation", "image_url": "https://s3-media4.fl.yelpcdn.com/bphoto/UzVGg42-84xs9jGiGItU3w/o.jpg", "is_closed": false, "url": "https://www.yelp.com/biz/silverride-senior-transportation-san-francisco-3?adjust_creative=0T9f6kHMnzQCXJKBQD97qw&utm_campaign=yelp_api_v3&utm_medium=api_v3_business_search&utm_source=0T9f6kHMnzQCXJKBQD97qw", "review_count": 29, "categories": [{"alias": "taxis", "title": "Taxis"}, {"alias": "couriers", "title": "Couriers & Delivery Services"}], "rating": 4.5, "coordinates": {"latitude": 37.77332, "longitude": -122.43768}, "transactions": [], "location": {"address1": "425 Divisadero St", "address2": "Ste 201", "address3": "", "city": "San Francisco", "zip_code": "94117", "country": "US", "state": "CA", "display_address": ["425 Divisadero St", "Ste 201", "San Francisco, CA 94117"]}, "phone": "+14158617433", "display_phone": "(415) 861-7433", "distance": 1388.761606524}, {"id": "party-bus-rental-san-francisco-2", "name": "Party Bus Rental", "image_url": "https://s3-media1.fl.yelpcdn.com/bphoto/uYTuCznPA5MQAYm_xcfcvw/o.jpg", "is_closed": false, "url": "https://www.yelp.com/biz/party-bus-rental-san-francisco-2?adjust_creative=0T9f6kHMnzQCXJKBQD97qw&utm_campaign=yelp_api_v3&utm_medium=api_v3_business_search&utm_source=0T9f6kHMnzQCXJKBQD97qw", "review_count": 68, "categories": [{"alias": "partybusrentals", "title": "Party Bus Rentals"}], "rating": 4.5, "coordinates": {"latitude": 37.7731018066406, "longitude": -122.411277770996}, "transactions": [], "location": {"address1": "", "address2": "", "address3": "", "city": "San Francisco", "zip_code": "94103", "country": "US", "state": "CA", "display_address": ["San Francisco, CA 94103"]}, "phone": "+15107550605", "display_phone": "(510) 755-0605", "distance": 2672.99867219}, {"id": "sf-green-cab-san-francisco-2", "name": "SF Green Cab", "image_url": "https://s3-media2.fl.yelpcdn.com/bphoto/08C_bqotEHWDVYmXmq6u6A/o.jpg", "is_closed": false, "url": "https://www.yelp.com/biz/sf-green-cab-san-francisco-2?adjust_creative=0T9f6kHMnzQCXJKBQD97qw&utm_campaign=yelp_api_v3&utm_medium=api_v3_business_search&utm_source=0T9f6kHMnzQCXJKBQD97qw", "review_count": 161, "categories": [{"alias": "taxis", "title": "Taxis"}], "rating": 3.0, "coordinates": {"latitude": 37.7653732299805, "longitude": -122.418235778809}, "transactions": [], "location": {"address1": "2940 16th St", "address2": "Ste 313", "address3": "", "city": "San Francisco", "zip_code": "94103", "country": "US", "state": "CA", "display_address": ["2940 16th St", "Ste 313", "San Francisco, CA 94103"]}, "phone": "+14156264733", "display_phone": "(415) 626-4733", "distance": 1676.40843983}, {"id": "a-cut-above-limo-san-francisco", "name": "A Cut Above Limo", "image_url": "https://s3-media2.fl.yelpcdn.com/bphoto/ppaujolOTpDJyktg9cDOxQ/o.jpg", "is_closed": false, "url": "https://www.yelp.com/biz/a-cut-above-limo-san-francisco?adjust_creative=0T9f6kHMnzQCXJKBQD97qw&utm_campaign=yelp_api_v3&utm_medium=api_v3_business_search&utm_source=0T9f6kHMnzQCXJKBQD97qw", "review_count": 149, "categories": [{"alias": "limos", "title": "Limos"}], "rating": 4.5, "coordinates": {"latitude": 37.53455, "longitude": -122.03283}, "transactions": [], "location": {"address1": "", "address2": "", "address3": "", "city": "San Francisco", "zip_code": "94560", "country": "US", "state": "CA", "display_address": ["San Francisco, CA 94560"]}, "phone": "+15107147888", "display_phone": "(510) 714-7888", "distance": 44991.5298034}, {"id": "sausalito-limousines-mill-valley-3", "name": "Sausalito Limousines", "image_url": "https://s3-media3.fl.yelpcdn.com/bphoto/m7ieDrt5EHCZWqBnGHjaww/o.jpg", "is_closed": false, "url": "https://www.yelp.com/biz/sausalito-limousines-mill-valley-3?adjust_creative=0T9f6kHMnzQCXJKBQD97qw&utm_campaign=yelp_api_v3&utm_medium=api_v3_business_search&utm_source=0T9f6kHMnzQCXJKBQD97qw", "review_count": 9, "categories": [{"alias": "limos", "title": "Limos"}, {"alias": "wedding_planning", "title": "Wedding Planning"}], "rating": 3.0, "coordinates": {"latitude": 37.90762, "longitude": -122.54819}, "transactions": [], "location": {"address1": "", "address2": "", "address3": "", "city": "Mill Valley", "zip_code": "94942", "country": "US", "state": "CA", "display_address": ["Mill Valley, CA 94942"]}, "phone": "+14153811230", "display_phone": "(415) 381-1230", "distance": 18909.60176874}, {"id": "dj-justin-credible-oakland", "name": "DJ Justin Credible", "image_url": "https://s3-media4.fl.yelpcdn.com/bphoto/RFHW_4MfDe6Bbp0hKZUhug/o.jpg", "is_closed": false, "url": "https://www.yelp.com/biz/dj-justin-credible-oakland?adjust_creative=0T9f6kHMnzQCXJKBQD97qw&utm_campaign=yelp_api_v3&utm_medium=api_v3_business_search&utm_source=0T9f6kHMnzQCXJKBQD97qw", "review_count": 36, "categories": [{"alias": "djs", "title": "DJs"}, {"alias": "theater", "title": "Performing Arts"}, {"alias": "eventplanning", "title": "Party & Event Planning"}], "rating": 5.0, "coordinates": {"latitude": 37.8445091247559, "longitude": -122.238059997559}, "transactions": [], "location": {"address1": "", "address2": "", "address3": "", "city": "Oakland", "zip_code": "94618", "country": "US", "state": "CA", "display_address": ["Oakland, CA 94618"]}, "phone": "+15103012149", "display_phone": "(510) 301-2149", "distance": 19578.747637999997}, {"id": "cali-party-bus-oakland", "name": "Cali Party Bus", "image_url": "https://s3-media1.fl.yelpcdn.com/bphoto/EQKzTUQDf2K5stOlBKM36g/o.jpg", "is_closed": false, "url": "https://www.yelp.com/biz/cali-party-bus-oakland?adjust_creative=0T9f6kHMnzQCXJKBQD97qw&utm_campaign=yelp_api_v3&utm_medium=api_v3_business_search&utm_source=0T9f6kHMnzQCXJKBQD97qw", "review_count": 201, "categories": [{"alias": "partybusrentals", "title": "Party Bus Rentals"}], "rating": 4.5, "coordinates": {"latitude": 37.7641599, "longitude": -122.21625}, "transactions": [], "location": {"address1": "4911 Coliseum Way", "address2": "", "address3": "", "city": "Oakland", "zip_code": "94601", "country": "US", "state": "CA", "display_address": ["4911 Coliseum Way", "Oakland, CA 94601"]}, "phone": "+14156921465", "display_phone": "(415) 692-1465", "distance": 19358.190809679996}, {"id": "rj-travels-and-limo-serivce-llc-newark", "name": "RJ Travels & Limo Serivce LLC", "image_url": "https://s3-media1.fl.yelpcdn.com/bphoto/3nLqVWomKQjFrWH7z26xYQ/o.jpg", "is_closed": false, "url": "https://www.yelp.com/biz/rj-travels-and-limo-serivce-llc-newark?adjust_creative=0T9f6kHMnzQCXJKBQD97qw&utm_campaign=yelp_api_v3&utm_medium=api_v3_business_search&utm_source=0T9f6kHMnzQCXJKBQD97qw", "review_count": 12, "categories": [{"alias": "limos", "title": "Limos"}], "rating": 5.0, "coordinates": {"latitude": 37.518162, "longitude": -121.993187}, "transactions": [], "location": {"address1": "39975 Cedar Blvd", "address2": null, "address3": "", "city": "Newark", "zip_code": "94560", "country": "US", "state": "CA", "display_address": ["39975 Cedar Blvd", "Newark, CA 94560"]}, "phone": "+14084831313", "display_phone": "(408) 483-1313", "distance": 47451.5910675}, {"id": "butterfly-limo-service-palo-alto", "name": "Butterfly Limo Service", "image_url": "https://s3-media3.fl.yelpcdn.com/bphoto/bObPVWhE7JS1X1ArmRy-rQ/o.jpg", "is_closed": false, "url": "https://www.yelp.com/biz/butterfly-limo-service-palo-alto?adjust_creative=0T9f6kHMnzQCXJKBQD97qw&utm_campaign=yelp_api_v3&utm_medium=api_v3_business_search&utm_source=0T9f6kHMnzQCXJKBQD97qw", "review_count": 42, "categories": [{"alias": "limos", "title": "Limos"}, {"alias": "airport_shuttles", "title": "Airport Shuttles"}, {"alias": "winetours", "title": "Wine Tours"}], "rating": 4.0, "coordinates": {"latitude": 37.43782, "longitude": -122.17738}, "transactions": [], "location": {"address1": "", "address2": "", "address3": "", "city": "Palo Alto", "zip_code": "94304", "country": "US", "state": "CA", "display_address": ["Palo Alto, CA 94304"]}, "phone": "+14154108301", "display_phone": "(415) 410-8301", "distance": 47863.4775004}, {"id": "verve-napa-valley-napa-3", "name": "Verve Napa Valley", "image_url": "https://s3-media1.fl.yelpcdn.com/bphoto/991GTF918JigPIxNoYQu2A/o.jpg", "is_closed": false, "url": "https://www.yelp.com/biz/verve-napa-valley-napa-3?adjust_creative=0T9f6kHMnzQCXJKBQD97qw&utm_campaign=yelp_api_v3&utm_medium=api_v3_business_search&utm_source=0T9f6kHMnzQCXJKBQD97qw", "review_count": 36, "categories": [{"alias": "winetours", "title": "Wine Tours"}], "rating": 5.0, "coordinates": {"latitude": 38.3177642822266, "longitude": -122.29174041748}, "transactions": [], "location": {"address1": "", "address2": null, "address3": "", "city": "Napa", "zip_code": "94558", "country": "US", "state": "CA", "display_address": ["Napa, CA 94558"]}, "phone": "+17072532269", "display_phone": "(707) 253-2269", "distance": 62953.9046256}, {"id": "butler-limousine-services-walnut-creek", "name": "Butler Limousine Services", "image_url": "https://s3-media1.fl.yelpcdn.com/bphoto/m3q7B5IcRbpAokCx_Vsy2w/o.jpg", "is_closed": false, "url": "https://www.yelp.com/biz/butler-limousine-services-walnut-creek?adjust_creative=0T9f6kHMnzQCXJKBQD97qw&utm_campaign=yelp_api_v3&utm_medium=api_v3_business_search&utm_source=0T9f6kHMnzQCXJKBQD97qw", "review_count": 17, "categories": [{"alias": "limos", "title": "Limos"}], "rating": 1.5, "coordinates": {"latitude": 37.8541701, "longitude": -122.0098642}, "transactions": [], "location": {"address1": "712 Bancroft Rd", "address2": "Ste 334", "address3": "", "city": "Walnut Creek", "zip_code": "94598", "country": "US", "state": "CA", "display_address": ["712 Bancroft Rd", "Ste 334", "Walnut Creek, CA 94598"]}, "phone": "+18667890340", "display_phone": "(866) 789-0340", "distance": 38884.81514376}], "total": 12, "region": {"center": {"latitude": 37.76164606509743, "longitude": -122.38931046210938}}}