{"businesses": [{"id": "balboa-high-school-san-francisco", "name": "Balboa High School", "image_url": "https://s3-media2.fl.yelpcdn.com/bphoto/kkEpQkXqOMXwrMdDJZCkug/o.jpg", "is_closed": false, "url": "https://www.yelp.com/biz/balboa-high-school-san-francisco?adjust_creative=0T9f6kHMnzQCXJKBQD97qw&utm_campaign=yelp_api_v3&utm_medium=api_v3_business_search&utm_source=0T9f6kHMnzQCXJKBQD97qw", "review_count": 7, "categories": [{"alias": "highschools", "title": "Middle Schools & High Schools"}], "rating": 4.5, "coordinates": {"latitude": 37.7219979, "longitude": -122.4399741}, "transactions": [], "location": {"address1": "1000 Cayuga Ave", "address2": "", "address3": "", "city": "San Francisco", "zip_code": "94112", "country": "US", "state": "CA", "display_address": ["1000 Cayuga Ave", "San Francisco, CA 94112"]}, "phone": "+14154694090", "display_phone": "(415) 469-4090", "distance": 99.3555499922}, {"id": "st-finn-barr-catholic-school-san-francisco", "name": "St Finn Barr Catholic School", "image_url": "https://s3-media3.fl.yelpcdn.com/bphoto/wGVvNJlHeuRqaKuIc1O7_A/o.jpg", "is_closed": false, "url": "https://www.yelp.com/biz/st-finn-barr-catholic-school-san-francisco?adjust_creative=0T9f6kHMnzQCXJKBQD97qw&utm_campaign=yelp_api_v3&utm_medium=api_v3_business_search&utm_source=0T9f6kHMnzQCXJKBQD97qw", "review_count": 29, "categories": [{"alias": "elementaryschools", "title": "Elementary Schools"}, {"alias": "highschools", "title": "Middle Schools & High Schools"}], "rating": 4.5, "coordinates": {"latitude": 37.7304767030172, "longitude": -122.447662155105}, "transactions": [], "location": {"address1": "419 Hearst Ave", "address2": "", "address3": "", "city": "San Francisco", "zip_code": "94112", "country": "US", "state": "CA", "display_address": ["419 Hearst Ave", "San Francisco, CA 94112"]}, "phone": "+14153331800", "display_phone": "(415) 333-1800", "distance": 1161.4120759319999}, {"id": "city-college-of-san-francisco-san-francisco-7", "name": "City College of San Francisco", "image_url": "https://s3-media2.fl.yelpcdn.com/bphoto/A8WzkrVJrzPW_0R6k40daA/o.jpg", "is_closed": false, "url": "https://www.yelp.com/biz/city-college-of-san-francisco-san-francisco-7?adjust_creative=0T9f6kHMnzQCXJKBQD97qw&utm_campaign=yelp_api_v3&utm_medium=api_v3_business_search&utm_source=0T9f6kHMnzQCXJKBQD97qw", "review_count": 212, "categories": [{"alias": "collegeuniv", "title": "Colleges & Universities"}], "rating": 4.0, "coordinates": {"latitude": 37.7257086206326, "longitude": -122.450943926935}, "transactions": [], "location": {"address1": "50 Phelan Ave", "address2": "", "address3": "", "city": "San Francisco", "zip_code": "94112", "country": "US", "state": "CA", "display_address": ["50 Phelan Ave", "San Francisco, CA 94112"]}, "phone": "+14152393000", "display_phone": "(415) 239-3000", "distance": 1058.109024134}], "total": 3, "region": {"center": {"latitude": 37.722067, "longitude": -122.43983}}}