{"businesses": [{"id": "bayco-vending-san-francisco", "name": "Bayco Vending", "image_url": "", "is_closed": false, "url": "https://www.yelp.com/biz/bayco-vending-san-francisco?adjust_creative=0T9f6kHMnzQCXJKBQD97qw&utm_campaign=yelp_api_v3&utm_medium=api_v3_business_search&utm_source=0T9f6kHMnzQCXJKBQD97qw", "review_count": 2, "categories": [{"alias": "localservices", "title": "Local Services"}], "rating": 1.0, "coordinates": {"latitude": 37.77991, "longitude": -122.42112}, "transactions": [], "location": {"address1": "", "address2": "", "address3": "", "city": "San Francisco", "zip_code": "94102", "country": "US", "state": "CA", "display_address": ["San Francisco, CA 94102"]}, "phone": "+14156213636", "display_phone": "(415) 621-3636", "distance": 2387.141424964}, {"id": "bayco-vending-south-san-francisco", "name": "Bayco Vending", "image_url": "https://s3-media3.fl.yelpcdn.com/bphoto/TGLUZ-9OyeoBFA_FEAMrUw/o.jpg", "is_closed": false, "url": "https://www.yelp.com/biz/bayco-vending-south-san-francisco?adjust_creative=0T9f6kHMnzQCXJKBQD97qw&utm_campaign=yelp_api_v3&utm_medium=api_v3_business_search&utm_source=0T9f6kHMnzQCXJKBQD97qw", "review_count": 1, "categories": [{"alias": "appliances", "title": "Appliances"}], "rating": 5.0, "coordinates": {"latitude": 37.6535, "longitude": -122.42417}, "transactions": [], "location": {"address1": "", "address2": "", "address3": "", "city": "South San Francisco", "zip_code": "94080", "country": "US", "state": "CA", "display_address": ["South San Francisco, CA 94080"]}, "phone": "+16505895252", "display_phone": "(650) 589-5252", "distance": 12081.208680758}], "total": 2, "region": {"center": {"latitude": 37.74775807466578, "longitude": -122.43644714355469}}}