{"businesses": [{"id": "bevmo-san-francisco-2", "name": "BevMo!", "image_url": "https://s3-media3.fl.yelpcdn.com/bphoto/IjkFB_Ew62Q0JccmzTIp1A/o.jpg", "is_closed": false, "url": "https://www.yelp.com/biz/bevmo-san-francisco-2?adjust_creative=0T9f6kHMnzQCXJKBQD97qw&utm_campaign=yelp_api_v3&utm_medium=api_v3_business_search&utm_source=0T9f6kHMnzQCXJKBQD97qw", "review_count": 71, "categories": [{"alias": "beer_and_wine", "title": "Beer, Wine & Spirits"}], "rating": 4.0, "coordinates": {"latitude": 37.7463095093708, "longitude": -122.398939978111}, "transactions": [], "price": "$$", "location": {"address1": "201 Bayshore Blvd", "address2": "", "address3": "", "city": "San Francisco", "zip_code": "94124", "country": "US", "state": "CA", "display_address": ["201 Bayshore Blvd", "San Francisco, CA 94124"]}, "phone": "+14156481233", "display_phone": "(415) 648-1233", "distance": 473.706493122}, {"id": "bevmo-san-francisco", "name": "BevMo!", "image_url": "https://s3-media1.fl.yelpcdn.com/bphoto/17G0sk0cG9ix1y6D3z43VQ/o.jpg", "is_closed": false, "url": "https://www.yelp.com/biz/bevmo-san-francisco?adjust_creative=0T9f6kHMnzQCXJKBQD97qw&utm_campaign=yelp_api_v3&utm_medium=api_v3_business_search&utm_source=0T9f6kHMnzQCXJKBQD97qw", "review_count": 143, "categories": [{"alias": "beer_and_wine", "title": "Beer, Wine & Spirits"}], "rating": 4.0, "coordinates": {"latitude": 37.7810096740723, "longitude": -122.455871582031}, "transactions": [], "price": "$$", "location": {"address1": "3445 Geary Blvd", "address2": "", "address3": "", "city": "San Francisco", "zip_code": "94118", "country": "US", "state": "CA", "display_address": ["3445 Geary Blvd", "San Francisco, CA 94118"]}, "phone": "+14159338494", "display_phone": "(415) 933-8494", "distance": 6065.794776129999}, {"id": "bevmo-san-francisco-3", "name": "BevMo!", "image_url": "https://s3-media1.fl.yelpcdn.com/bphoto/ElpJh8NFAbc0XxueNSFOzw/o.jpg", "is_closed": false, "url": "https://www.yelp.com/biz/bevmo-san-francisco-3?adjust_creative=0T9f6kHMnzQCXJKBQD97qw&utm_campaign=yelp_api_v3&utm_medium=api_v3_business_search&utm_source=0T9f6kHMnzQCXJKBQD97qw", "review_count": 197, "categories": [{"alias": "beer_and_wine", "title": "Beer, Wine & Spirits"}, {"alias": "tobaccoshops", "title": "Tobacco Shops"}], "rating": 4.0, "coordinates": {"latitude": 37.7877426147461, "longitude": -122.422309875488}, "transactions": [], "price": "$$", "location": {"address1": "1301 Van Ness Ave", "address2": null, "address3": "", "city": "San Francisco", "zip_code": "94109", "country": "US", "state": "CA", "display_address": ["1301 Van Ness Ave", "San Francisco, CA 94109"]}, "phone": "+14154478483", "display_phone": "(415) 447-8483", "distance": 5018.295969682}, {"id": "bevmo-colma", "name": "BevMo!", "image_url": "https://s3-media1.fl.yelpcdn.com/bphoto/7n-J99O2N-CoBvVvzBPYhw/o.jpg", "is_closed": false, "url": "https://www.yelp.com/biz/bevmo-colma?adjust_creative=0T9f6kHMnzQCXJKBQD97qw&utm_campaign=yelp_api_v3&utm_medium=api_v3_business_search&utm_source=0T9f6kHMnzQCXJKBQD97qw", "review_count": 115, "categories": [{"alias": "beer_and_wine", "title": "Beer, Wine & Spirits"}, {"alias": "tobaccoshops", "title": "Tobacco Shops"}], "rating": 4.0, "coordinates": {"latitude": 37.67423, "longitude": -122.46663}, "transactions": [], "price": "$$", "location": {"address1": "4915 Junipero Serra Blvd", "address2": "", "address3": "", "city": "Colma", "zip_code": "94014", "country": "US", "state": "CA", "display_address": ["4915 Junipero Serra Blvd", "Colma, CA 94014"]}, "phone": "+16507570196", "display_phone": "(650) 757-0196", "distance": 9602.06997843}, {"id": "mikes-market-san-francisco-2", "name": "Mike's Market", "image_url": "https://s3-media3.fl.yelpcdn.com/bphoto/sOnBYViT4WsR2niZ7biZhA/o.jpg", "is_closed": false, "url": "https://www.yelp.com/biz/mikes-market-san-francisco-2?adjust_creative=0T9f6kHMnzQCXJKBQD97qw&utm_campaign=yelp_api_v3&utm_medium=api_v3_business_search&utm_source=0T9f6kHMnzQCXJKBQD97qw", "review_count": 6, "categories": [{"alias": "convenience", "title": "Convenience Stores"}, {"alias": "beer_and_wine", "title": "Beer, Wine & Spirits"}], "rating": 5.0, "coordinates": {"latitude": 37.7364399, "longitude": -122.3985598}, "transactions": [], "price": "$$", "location": {"address1": "2200 Silver Ave", "address2": "", "address3": "", "city": "San Francisco", "zip_code": "94124", "country": "US", "state": "CA", "display_address": ["2200 Silver Ave", "San Francisco, CA 94124"]}, "phone": "+14158262606", "display_phone": "(415) 826-2606", "distance": 1066.1829863536}, {"id": "the-epicurean-trader-san-francisco", "name": "The Epicurean Trader", "image_url": "https://s3-media2.fl.yelpcdn.com/bphoto/RSbdlHIu_G6a96S5ipy6LQ/o.jpg", "is_closed": false, "url": "https://www.yelp.com/biz/the-epicurean-trader-san-francisco?adjust_creative=0T9f6kHMnzQCXJKBQD97qw&utm_campaign=yelp_api_v3&utm_medium=api_v3_business_search&utm_source=0T9f6kHMnzQCXJKBQD97qw", "review_count": 50, "categories": [{"alias": "gourmet", "title": "Specialty Food"}, {"alias": "beer_and_wine", "title": "Beer, Wine & Spirits"}, {"alias": "grocery", "title": "Grocery"}], "rating": 5.0, "coordinates": {"latitude": 37.73936, "longitude": -122.41761}, "transactions": [], "price": "$$", "location": {"address1": "401 Cortland Ave", "address2": null, "address3": "", "city": "San Francisco", "zip_code": "94110", "country": "US", "state": "CA", "display_address": ["401 Cortland Ave", "San Francisco, CA 94110"]}, "phone": "+14158729484", "display_phone": "(415) 872-9484", "distance": 1365.32301783}, {"id": "the-bartender-sf-san-francisco", "name": "The Bartender SF", "image_url": "https://s3-media4.fl.yelpcdn.com/bphoto/Qdm7Y3HVhfr4La6Ar9Og7A/o.jpg", "is_closed": false, "url": "https://www.yelp.com/biz/the-bartender-sf-san-francisco?adjust_creative=0T9f6kHMnzQCXJKBQD97qw&utm_campaign=yelp_api_v3&utm_medium=api_v3_business_search&utm_source=0T9f6kHMnzQCXJKBQD97qw", "review_count": 3, "categories": [{"alias": "beer_and_wine", "title": "Beer, Wine & Spirits"}, {"alias": "bartenders", "title": "Bartenders"}], "rating": 5.0, "coordinates": {"latitude": 37.7614364624023, "longitude": -122.43278503418}, "transactions": [], "price": "$$", "location": {"address1": null, "address2": null, "address3": "", "city": "San Francisco", "zip_code": "94114", "country": "US", "state": "CA", "display_address": ["San Francisco, CA 94114"]}, "phone": "+15104859305", "display_phone": "(510) 485-9305", "distance": 2797.1238477099996}, {"id": "renos-liquor-store-san-francisco", "name": "Reno's Liquor Store", "image_url": "https://s3-media1.fl.yelpcdn.com/bphoto/OXIxTNLmBMUe5Dqm9Yc0Sg/o.jpg", "is_closed": false, "url": "https://www.yelp.com/biz/renos-liquor-store-san-francisco?adjust_creative=0T9f6kHMnzQCXJKBQD97qw&utm_campaign=yelp_api_v3&utm_medium=api_v3_business_search&utm_source=0T9f6kHMnzQCXJKBQD97qw", "review_count": 39, "categories": [{"alias": "beer_and_wine", "title": "Beer, Wine & Spirits"}], "rating": 4.5, "coordinates": {"latitude": 37.7581367492676, "longitude": -122.388870239258}, "transactions": [], "price": "$", "location": {"address1": "728 22nd St", "address2": "", "address3": "", "city": "San Francisco", "zip_code": "94107", "country": "US", "state": "CA", "display_address": ["728 22nd St", "San Francisco, CA 94107"]}, "phone": "+14156477667", "display_phone": "(415) 647-7667", "distance": 1975.4543892899999}, {"id": "healthy-spirits-san-francisco-3", "name": "Healthy Spirits", "image_url": "https://s3-media2.fl.yelpcdn.com/bphoto/hKxLCt70EixVcpReuNZmNg/o.jpg", "is_closed": false, "url": "https://www.yelp.com/biz/healthy-spirits-san-francisco-3?adjust_creative=0T9f6kHMnzQCXJKBQD97qw&utm_campaign=yelp_api_v3&utm_medium=api_v3_business_search&utm_source=0T9f6kHMnzQCXJKBQD97qw", "review_count": 6, "categories": [{"alias": "beer_and_wine", "title": "Beer, Wine & Spirits"}], "rating": 5.0, "coordinates": {"latitude": 37.7395095825195, "longitude": -122.41869354248}, "transactions": ["delivery"], "price": "$$$", "location": {"address1": "249 Cortland Ave", "address2": "", "address3": "", "city": "San Francisco", "zip_code": "94110", "country": "US", "state": "CA", "display_address": ["249 Cortland Ave", "San Francisco, CA 94110"]}, "phone": "+14153747838", "display_phone": "(415) 374-7838", "distance": 1428.37534969}, {"id": "abc-market-san-francisco", "name": "ABC Market", "image_url": "", "is_closed": false, "url": "https://www.yelp.com/biz/abc-market-san-francisco?adjust_creative=0T9f6kHMnzQCXJKBQD97qw&utm_campaign=yelp_api_v3&utm_medium=api_v3_business_search&utm_source=0T9f6kHMnzQCXJKBQD97qw", "review_count": 4, "categories": [{"alias": "beer_and_wine", "title": "Beer, Wine & Spirits"}], "rating": 3.5, "coordinates": {"latitude": 37.7494874596596, "longitude": -122.408788204193}, "transactions": [], "price": "$$", "location": {"address1": "2801 Bryant St", "address2": "", "address3": "", "city": "San Francisco", "zip_code": "94110", "country": "US", "state": "CA", "display_address": ["2801 Bryant St", "San Francisco, CA 94110"]}, "phone": "+14152827420", "display_phone": "(415) 282-7420", "distance": 662.297564291}, {"id": "harvest-hills-market-san-francisco", "name": "Harvest Hills Market", "image_url": "https://s3-media4.fl.yelpcdn.com/bphoto/2zjKIU3cHOqP0LKjDgKikw/o.jpg", "is_closed": false, "url": "https://www.yelp.com/biz/harvest-hills-market-san-francisco?adjust_creative=0T9f6kHMnzQCXJKBQD97qw&utm_campaign=yelp_api_v3&utm_medium=api_v3_business_search&utm_source=0T9f6kHMnzQCXJKBQD97qw", "review_count": 54, "categories": [{"alias": "grocery", "title": "Grocery"}, {"alias": "beer_and_wine", "title": "Beer, Wine & Spirits"}], "rating": 4.0, "coordinates": {"latitude": 37.74671, "longitude": -122.413809}, "transactions": [], "price": "$$", "location": {"address1": "3216 Folsom St", "address2": null, "address3": "", "city": "San Francisco", "zip_code": "94110", "country": "US", "state": "CA", "display_address": ["3216 Folsom St", "San Francisco, CA 94110"]}, "phone": "+14153411515", "display_phone": "(415) 341-1515", "distance": 878.5758012869999}, {"id": "monarch-bar-catering-san-francisco", "name": "Monarch Bar Catering", "image_url": "https://s3-media1.fl.yelpcdn.com/bphoto/Sq2sGuN94xgfTlUeYE6S9w/o.jpg", "is_closed": false, "url": "https://www.yelp.com/biz/monarch-bar-catering-san-francisco?adjust_creative=0T9f6kHMnzQCXJKBQD97qw&utm_campaign=yelp_api_v3&utm_medium=api_v3_business_search&utm_source=0T9f6kHMnzQCXJKBQD97qw", "review_count": 5, "categories": [{"alias": "catering", "title": "Caterers"}, {"alias": "beer_and_wine", "title": "Beer, Wine & Spirits"}], "rating": 5.0, "coordinates": {"latitude": 37.7809638977051, "longitude": -122.408309936523}, "transactions": [], "location": {"address1": "101 6th St", "address2": "", "address3": "", "city": "San Francisco", "zip_code": "94103", "country": "US", "state": "CA", "display_address": ["101 6th St", "San Francisco, CA 94103"]}, "phone": "+14154045369", "display_phone": "(415) 404-5369", "distance": 4020.3027147099997}, {"id": "bartlett-market-and-liquors-san-francisco", "name": "Bartlett Market & Liquors", "image_url": "https://s3-media2.fl.yelpcdn.com/bphoto/NjIyiD4X6_hMWlBKLqyH-w/o.jpg", "is_closed": false, "url": "https://www.yelp.com/biz/bartlett-market-and-liquors-san-francisco?adjust_creative=0T9f6kHMnzQCXJKBQD97qw&utm_campaign=yelp_api_v3&utm_medium=api_v3_business_search&utm_source=0T9f6kHMnzQCXJKBQD97qw", "review_count": 7, "categories": [{"alias": "grocery", "title": "Grocery"}, {"alias": "beer_and_wine", "title": "Beer, Wine & Spirits"}], "rating": 3.0, "coordinates": {"latitude": 37.7521482110023, "longitude": -122.419371530414}, "transactions": [], "price": "$$", "location": {"address1": "3347 24th St", "address2": "", "address3": "", "city": "San Francisco", "zip_code": "94110", "country": "US", "state": "CA", "display_address": ["3347 24th St", "San Francisco, CA 94110"]}, "phone": "+14158241777", "display_phone": "(415) 824-1777", "distance": 1572.167303746}, {"id": "red-dragon-liquors-san-francisco-2", "name": "Red Dragon Liquors", "image_url": "https://s3-media4.fl.yelpcdn.com/bphoto/Gs400zc0QjKV5SkBr11PPg/o.jpg", "is_closed": false, "url": "https://www.yelp.com/biz/red-dragon-liquors-san-francisco-2?adjust_creative=0T9f6kHMnzQCXJKBQD97qw&utm_campaign=yelp_api_v3&utm_medium=api_v3_business_search&utm_source=0T9f6kHMnzQCXJKBQD97qw", "review_count": 4, "categories": [{"alias": "beer_and_wine", "title": "Beer, Wine & Spirits"}], "rating": 4.0, "coordinates": {"latitude": 37.758796, "longitude": -122.4188842}, "transactions": [], "price": "$$", "location": {"address1": "2397 Mission St", "address2": "", "address3": "", "city": "San Francisco", "zip_code": "94110", "country": "US", "state": "CA", "display_address": ["2397 Mission St", "San Francisco, CA 94110"]}, "phone": "+14158210949", "display_phone": "(415) 821-0949", "distance": 2018.6997691}, {"id": "garcia-liquor-san-francisco", "name": "Garcia Liquor", "image_url": "", "is_closed": false, "url": "https://www.yelp.com/biz/garcia-liquor-san-francisco?adjust_creative=0T9f6kHMnzQCXJKBQD97qw&utm_campaign=yelp_api_v3&utm_medium=api_v3_business_search&utm_source=0T9f6kHMnzQCXJKBQD97qw", "review_count": 2, "categories": [{"alias": "beer_and_wine", "title": "Beer, Wine & Spirits"}], "rating": 3.0, "coordinates": {"latitude": 37.7556619048119, "longitude": -122.418821007013}, "transactions": [], "location": {"address1": "2592 Mission St", "address2": "", "address3": "", "city": "San Francisco", "zip_code": "94110", "country": "US", "state": "CA", "display_address": ["2592 Mission St", "San Francisco, CA 94110"]}, "phone": "+14156411038", "display_phone": "(415) 641-1038", "distance": 1755.206715184}, {"id": "blackwells-wines-and-spirits-san-francisco", "name": "Blackwell's Wines & Spirits", "image_url": "https://s3-media4.fl.yelpcdn.com/bphoto/6f-7ZweCCCzESKshMNynFQ/o.jpg", "is_closed": false, "url": "https://www.yelp.com/biz/blackwells-wines-and-spirits-san-francisco?adjust_creative=0T9f6kHMnzQCXJKBQD97qw&utm_campaign=yelp_api_v3&utm_medium=api_v3_business_search&utm_source=0T9f6kHMnzQCXJKBQD97qw", "review_count": 140, "categories": [{"alias": "beer_and_wine", "title": "Beer, Wine & Spirits"}], "rating": 4.5, "coordinates": {"latitude": 37.7804905, "longitude": -122.4799051}, "transactions": [], "price": "$$", "location": {"address1": "5620 Geary Blvd", "address2": null, "address3": "", "city": "San Francisco", "zip_code": "94121", "country": "US", "state": "CA", "display_address": ["5620 Geary Blvd", "San Francisco, CA 94121"]}, "phone": "+14153869463", "display_phone": "(415) 386-9463", "distance": 7745.5586898599995}, {"id": "bus-stop-liquors-and-deli-san-francisco", "name": "Bus Stop Liquors & Deli", "image_url": "https://s3-media1.fl.yelpcdn.com/bphoto/3u9-5AeyYgBNH0yw4TdAfA/o.jpg", "is_closed": false, "url": "https://www.yelp.com/biz/bus-stop-liquors-and-deli-san-francisco?adjust_creative=0T9f6kHMnzQCXJKBQD97qw&utm_campaign=yelp_api_v3&utm_medium=api_v3_business_search&utm_source=0T9f6kHMnzQCXJKBQD97qw", "review_count": 7, "categories": [{"alias": "beer_and_wine", "title": "Beer, Wine & Spirits"}], "rating": 3.5, "coordinates": {"latitude": 37.7276714, "longitude": -122.4037563}, "transactions": [], "price": "$$", "location": {"address1": "2698 San Bruno Ave", "address2": "", "address3": "", "city": "San Francisco", "zip_code": "94134", "country": "US", "state": "CA", "display_address": ["2698 San Bruno Ave", "San Francisco, CA 94134"]}, "phone": "+14154674690", "display_phone": "(415) 467-4690", "distance": 1925.09089866}, {"id": "st-clairs-liquors-san-francisco", "name": "St Clair's Liquors", "image_url": "https://s3-media1.fl.yelpcdn.com/bphoto/XXn4sJv_GIlAnQ40nvB8mQ/o.jpg", "is_closed": false, "url": "https://www.yelp.com/biz/st-clairs-liquors-san-francisco?adjust_creative=0T9f6kHMnzQCXJKBQD97qw&utm_campaign=yelp_api_v3&utm_medium=api_v3_business_search&utm_source=0T9f6kHMnzQCXJKBQD97qw", "review_count": 12, "categories": [{"alias": "beer_and_wine", "title": "Beer, Wine & Spirits"}], "rating": 4.5, "coordinates": {"latitude": 37.7517509460449, "longitude": -122.429908752441}, "transactions": [], "price": "$$", "location": {"address1": "3900 24th St", "address2": "", "address3": "", "city": "San Francisco", "zip_code": "94114", "country": "US", "state": "CA", "display_address": ["3900 24th St", "San Francisco, CA 94114"]}, "phone": "+14152824900", "display_phone": "(415) 282-4900", "distance": 2387.9942142299997}, {"id": "noe-valley-wine-merchants-san-francisco", "name": "Noe Valley Wine Merchants", "image_url": "https://s3-media4.fl.yelpcdn.com/bphoto/nxsbNaXlhEqLjSnWgEwQMA/o.jpg", "is_closed": false, "url": "https://www.yelp.com/biz/noe-valley-wine-merchants-san-francisco?adjust_creative=0T9f6kHMnzQCXJKBQD97qw&utm_campaign=yelp_api_v3&utm_medium=api_v3_business_search&utm_source=0T9f6kHMnzQCXJKBQD97qw", "review_count": 31, "categories": [{"alias": "beer_and_wine", "title": "Beer, Wine & Spirits"}], "rating": 4.5, "coordinates": {"latitude": 37.7515892, "longitude": -122.4279787}, "transactions": [], "price": "$$", "location": {"address1": "3821 24th St", "address2": "", "address3": "", "city": "San Francisco", "zip_code": "94114", "country": "US", "state": "CA", "display_address": ["3821 24th St", "San Francisco, CA 94114"]}, "phone": "+14153747249", "display_phone": "(415) 374-7249", "distance": 2227.58244506}, {"id": "latinos-grocery-san-francisco", "name": "Latino's Grocery", "image_url": "https://s3-media3.fl.yelpcdn.com/bphoto/c7b7dflT9A57-p5r0aPzBA/o.jpg", "is_closed": false, "url": "https://www.yelp.com/biz/latinos-grocery-san-francisco?adjust_creative=0T9f6kHMnzQCXJKBQD97qw&utm_campaign=yelp_api_v3&utm_medium=api_v3_business_search&utm_source=0T9f6kHMnzQCXJKBQD97qw", "review_count": 7, "categories": [{"alias": "grocery", "title": "Grocery"}, {"alias": "beer_and_wine", "title": "Beer, Wine & Spirits"}, {"alias": "convenience", "title": "Convenience Stores"}], "rating": 2.5, "coordinates": {"latitude": 37.7522554993629, "longitude": -122.417508736253}, "transactions": [], "price": "$$", "location": {"address1": "3249 24th St", "address2": "", "address3": "", "city": "San Francisco", "zip_code": "94110", "country": "US", "state": "CA", "display_address": ["3249 24th St", "San Francisco, CA 94110"]}, "phone": "+14156483503", "display_phone": "(415) 648-3503", "distance": 1423.668754393}], "total": 44, "region": {"center": {"latitude": 37.73098425, "longitude": -122.42749322253003}}}