{"businesses": [{"id": "bio-cafe-san-francisco", "name": "Bio Cafe", "image_url": "https://s3-media4.fl.yelpcdn.com/bphoto/-0LumpfQ7PDHKRuiIHh8Pw/o.jpg", "is_closed": false, "url": "https://www.yelp.com/biz/bio-cafe-san-francisco?adjust_creative=0T9f6kHMnzQCXJKBQD97qw&utm_campaign=yelp_api_v3&utm_medium=api_v3_business_search&utm_source=0T9f6kHMnzQCXJKBQD97qw", "review_count": 365, "categories": [{"alias": "french", "title": "French"}, {"alias": "gluten_free", "title": "Gluten-Free"}, {"alias": "breakfast_brunch", "title": "Breakfast & Brunch"}], "rating": 3.5, "coordinates": {"latitude": 37.786643801853, "longitude": -122.405940330727}, "transactions": ["pickup"], "price": "$", "location": {"address1": "75 O'Farrell St", "address2": "", "address3": "", "city": "San Francisco", "zip_code": "94108", "country": "US", "state": "CA", "display_address": ["75 O'Farrell St", "San Francisco, CA 94108"]}, "phone": "+14153620255", "display_phone": "(415) 362-0255", "distance": 10.924388695582}, {"id": "bio-script-pharmacy-san-francisco", "name": "Bio-Script Pharmacy", "image_url": "", "is_closed": true, "url": "https://www.yelp.com/biz/bio-script-pharmacy-san-francisco?adjust_creative=0T9f6kHMnzQCXJKBQD97qw&utm_campaign=yelp_api_v3&utm_medium=api_v3_business_search&utm_source=0T9f6kHMnzQCXJKBQD97qw", "review_count": 4, "categories": [{"alias": "drugstores", "title": "Drugstores"}], "rating": 4.5, "coordinates": {"latitude": 37.76515, "longitude": -122.43247}, "transactions": [], "location": {"address1": "2262 Market St", "address2": "", "address3": "", "city": "San Francisco", "zip_code": "94114", "country": "US", "state": "CA", "display_address": ["2262 Market St", "San Francisco, CA 94114"]}, "phone": "+14152550101", "display_phone": "(415) 255-0101", "distance": 3331.9974918159996}, {"id": "bowld-acai-san-francisco-2", "name": "Bowl'D Acai", "image_url": "https://s3-media2.fl.yelpcdn.com/bphoto/51staP5b_nSHzKeHkd6YdA/o.jpg", "is_closed": false, "url": "https://www.yelp.com/biz/bowld-acai-san-francisco-2?adjust_creative=0T9f6kHMnzQCXJKBQD97qw&utm_campaign=yelp_api_v3&utm_medium=api_v3_business_search&utm_source=0T9f6kHMnzQCXJKBQD97qw", "review_count": 309, "categories": [{"alias": "foodtrucks", "title": "Food Trucks"}, {"alias": "juicebars", "title": "Juice Bars & Smoothies"}, {"alias": "hawaiian", "title": "Hawaiian"}], "rating": 4.5, "coordinates": {"latitude": 37.782619, "longitude": -122.407949}, "transactions": [], "price": "$$", "location": {"address1": "14 Mint Plz", "address2": "", "address3": "", "city": "San Francisco", "zip_code": "94103", "country": "US", "state": "CA", "display_address": ["14 Mint Plz", "San Francisco, CA 94103"]}, "phone": "+14157707000", "display_phone": "(415) 770-7000", "distance": 478.829022342}, {"id": "asian-box-san-francisco", "name": "Asian Box", "image_url": "https://s3-media1.fl.yelpcdn.com/bphoto/5LZYAPFrpeVGp0tAHB2Qzw/o.jpg", "is_closed": false, "url": "https://www.yelp.com/biz/asian-box-san-francisco?adjust_creative=0T9f6kHMnzQCXJKBQD97qw&utm_campaign=yelp_api_v3&utm_medium=api_v3_business_search&utm_source=0T9f6kHMnzQCXJKBQD97qw", "review_count": 237, "categories": [{"alias": "vietnamese", "title": "Vietnamese"}, {"alias": "asianfusion", "title": "Asian Fusion"}, {"alias": "gluten_free", "title": "Gluten-Free"}], "rating": 4.0, "coordinates": {"latitude": 37.7869862808919, "longitude": -122.407358093848}, "transactions": ["pickup"], "price": "$", "location": {"address1": "170 O'Farrell St", "address2": "", "address3": "", "city": "San Francisco", "zip_code": "94102", "country": "US", "state": "CA", "display_address": ["170 O'Farrell St", "San Francisco, CA 94102"]}, "phone": "+14152883688", "display_phone": "(415) 288-3688", "distance": 127.60173616159999}, {"id": "another-cafe-san-francisco", "name": "Another Cafe", "image_url": "https://s3-media4.fl.yelpcdn.com/bphoto/WzwBYwug8-90zpWX3Skekw/o.jpg", "is_closed": false, "url": "https://www.yelp.com/biz/another-cafe-san-francisco?adjust_creative=0T9f6kHMnzQCXJKBQD97qw&utm_campaign=yelp_api_v3&utm_medium=api_v3_business_search&utm_source=0T9f6kHMnzQCXJKBQD97qw", "review_count": 347, "categories": [{"alias": "coffee", "title": "Coffee & Tea"}, {"alias": "cafes", "title": "Cafes"}], "rating": 4.0, "coordinates": {"latitude": 37.7901729, "longitude": -122.4154032}, "transactions": [], "price": "$", "location": {"address1": "1191 Pine St", "address2": "", "address3": "", "city": "San Francisco", "zip_code": "94109", "country": "US", "state": "CA", "display_address": ["1191 Pine St", "San Francisco, CA 94109"]}, "phone": "+14158575770", "display_phone": "(415) 857-5770", "distance": 917.3963007670001}, {"id": "newtree-san-francisco-5", "name": "Newtree", "image_url": "https://s3-media2.fl.yelpcdn.com/bphoto/RXw-v7tBUVFNivktOe-W9g/o.jpg", "is_closed": false, "url": "https://www.yelp.com/biz/newtree-san-francisco-5?adjust_creative=0T9f6kHMnzQCXJKBQD97qw&utm_campaign=yelp_api_v3&utm_medium=api_v3_business_search&utm_source=0T9f6kHMnzQCXJKBQD97qw", "review_count": 185, "categories": [{"alias": "cafes", "title": "Cafes"}], "rating": 4.0, "coordinates": {"latitude": 37.789992, "longitude": -122.399207}, "transactions": [], "price": "$$", "location": {"address1": "1 Ecker St", "address2": "", "address3": "", "city": "San Francisco", "zip_code": "94105", "country": "US", "state": "CA", "display_address": ["1 Ecker St", "San Francisco, CA 94105"]}, "phone": "+14157479871", "display_phone": "(415) 747-9871", "distance": 702.344300384}, {"id": "cooksoo-truck-san-francisco", "name": "Cooksoo Truck", "image_url": "https://s3-media1.fl.yelpcdn.com/bphoto/ZjMYlRQQGuxttsspCj0WHg/o.jpg", "is_closed": false, "url": "https://www.yelp.com/biz/cooksoo-truck-san-francisco?adjust_creative=0T9f6kHMnzQCXJKBQD97qw&utm_campaign=yelp_api_v3&utm_medium=api_v3_business_search&utm_source=0T9f6kHMnzQCXJKBQD97qw", "review_count": 17, "categories": [{"alias": "foodtrucks", "title": "Food Trucks"}, {"alias": "korean", "title": "Korean"}, {"alias": "italian", "title": "Italian"}], "rating": 5.0, "coordinates": {"latitude": 37.7697792053223, "longitude": -122.411895751953}, "transactions": [], "price": "$$", "location": {"address1": "428 11th St", "address2": "", "address3": null, "city": "San Francisco", "zip_code": "94103", "country": "US", "state": "CA", "display_address": ["428 11th St", "San Francisco, CA 94103"]}, "phone": "+14154049707", "display_phone": "(415) 404-9707", "distance": 1944.8978507099998}, {"id": "the-grove-yerba-buena-san-francisco", "name": "The Grove Yerba Buena", "image_url": "https://s3-media2.fl.yelpcdn.com/bphoto/bXS52lCaGBcF8KMrFCkQ1A/o.jpg", "is_closed": false, "url": "https://www.yelp.com/biz/the-grove-yerba-buena-san-francisco?adjust_creative=0T9f6kHMnzQCXJKBQD97qw&utm_campaign=yelp_api_v3&utm_medium=api_v3_business_search&utm_source=0T9f6kHMnzQCXJKBQD97qw", "review_count": 1498, "categories": [{"alias": "sandwiches", "title": "Sandwiches"}, {"alias": "newamerican", "title": "American (New)"}, {"alias": "cafes", "title": "Cafes"}], "rating": 3.5, "coordinates": {"latitude": 37.786555, "longitude": -122.401971}, "transactions": [], "price": "$$", "location": {"address1": "690 Mission St", "address2": "", "address3": "", "city": "San Francisco", "zip_code": "94105", "country": "US", "state": "CA", "display_address": ["690 Mission St", "San Francisco, CA 94105"]}, "phone": "+14159570558", "display_phone": "(415) 957-0558", "distance": 352.08786465199995}, {"id": "toni-varela-nmd-san-francisco-3", "name": "Toni Varela, NMD", "image_url": "https://s3-media1.fl.yelpcdn.com/bphoto/nQQb3To_o8L6i_AeHGA5ig/o.jpg", "is_closed": false, "url": "https://www.yelp.com/biz/toni-varela-nmd-san-francisco-3?adjust_creative=0T9f6kHMnzQCXJKBQD97qw&utm_campaign=yelp_api_v3&utm_medium=api_v3_business_search&utm_source=0T9f6kHMnzQCXJKBQD97qw", "review_count": 12, "categories": [{"alias": "naturopathic", "title": "Naturopathic/Holistic"}, {"alias": "nutritionists", "title": "Nutritionists"}, {"alias": "herbalshops", "title": "Herbal Shops"}], "rating": 5.0, "coordinates": {"latitude": 37.8006882, "longitude": -122.4329967}, "transactions": [], "location": {"address1": "3303 Buchanan St", "address2": "", "address3": "", "city": "San Francisco", "zip_code": "94123", "country": "US", "state": "CA", "display_address": ["3303 Buchanan St", "San Francisco, CA 94123"]}, "phone": "+19257860375", "display_phone": "(925) 786-0375", "distance": 2842.796434108}, {"id": "l-ardoise-bistro-san-francisco", "name": "L'ardoise Bistro", "image_url": "https://s3-media1.fl.yelpcdn.com/bphoto/VJDYOLw03bUGeBLb14BRGA/o.jpg", "is_closed": false, "url": "https://www.yelp.com/biz/l-ardoise-bistro-san-francisco?adjust_creative=0T9f6kHMnzQCXJKBQD97qw&utm_campaign=yelp_api_v3&utm_medium=api_v3_business_search&utm_source=0T9f6kHMnzQCXJKBQD97qw", "review_count": 1075, "categories": [{"alias": "french", "title": "French"}], "rating": 4.5, "coordinates": {"latitude": 37.7665241, "longitude": -122.4331385}, "transactions": [], "price": "$$$", "location": {"address1": "151 Noe St", "address2": "", "address3": "", "city": "San Francisco", "zip_code": "94114", "country": "US", "state": "CA", "display_address": ["151 Noe St", "San Francisco, CA 94114"]}, "phone": "+14154372600", "display_phone": "(415) 437-2600", "distance": 3259.06719197}, {"id": "rainbow-grocery-san-francisco-2", "name": "Rainbow Grocery", "image_url": "https://s3-media1.fl.yelpcdn.com/bphoto/CkvpVqj-HWy6gJLzkB5Hcg/o.jpg", "is_closed": false, "url": "https://www.yelp.com/biz/rainbow-grocery-san-francisco-2?adjust_creative=0T9f6kHMnzQCXJKBQD97qw&utm_campaign=yelp_api_v3&utm_medium=api_v3_business_search&utm_source=0T9f6kHMnzQCXJKBQD97qw", "review_count": 1449, "categories": [{"alias": "grocery", "title": "Grocery"}, {"alias": "organic_stores", "title": "Organic Stores"}, {"alias": "beer_and_wine", "title": "Beer, Wine & Spirits"}], "rating": 4.0, "coordinates": {"latitude": 37.7693382238534, "longitude": -122.415459284656}, "transactions": [], "price": "$$", "location": {"address1": "1745 Folsom St", "address2": "", "address3": "", "city": "San Francisco", "zip_code": "94103", "country": "US", "state": "CA", "display_address": ["1745 Folsom St", "San Francisco, CA 94103"]}, "phone": "+14158630620", "display_phone": "(415) 863-0620", "distance": 2096.04143082}, {"id": "chai-bar-by-david-rio-san-francisco", "name": "Chai Bar By David Rio", "image_url": "https://s3-media1.fl.yelpcdn.com/bphoto/5vemJgFjI9hf4ldwK3KTOQ/o.jpg", "is_closed": false, "url": "https://www.yelp.com/biz/chai-bar-by-david-rio-san-francisco?adjust_creative=0T9f6kHMnzQCXJKBQD97qw&utm_campaign=yelp_api_v3&utm_medium=api_v3_business_search&utm_source=0T9f6kHMnzQCXJKBQD97qw", "review_count": 262, "categories": [{"alias": "tea", "title": "Tea Rooms"}, {"alias": "cafes", "title": "Cafes"}], "rating": 4.0, "coordinates": {"latitude": 37.781819251714, "longitude": -122.410724759102}, "transactions": [], "price": "$", "location": {"address1": "1019 Market St", "address2": "", "address3": "", "city": "San Francisco", "zip_code": "94103", "country": "US", "state": "CA", "display_address": ["1019 Market St", "San Francisco, CA 94103"]}, "phone": "+14158650677", "display_phone": "(415) 865-0677", "distance": 678.992455116}, {"id": "active-nutrition-san-francisco", "name": "Active Nutrition", "image_url": "https://s3-media2.fl.yelpcdn.com/bphoto/uHW2LHBdnPhtbdGke57eIw/o.jpg", "is_closed": false, "url": "https://www.yelp.com/biz/active-nutrition-san-francisco?adjust_creative=0T9f6kHMnzQCXJKBQD97qw&utm_campaign=yelp_api_v3&utm_medium=api_v3_business_search&utm_source=0T9f6kHMnzQCXJKBQD97qw", "review_count": 108, "categories": [{"alias": "healthmarkets", "title": "Health Markets"}, {"alias": "vitaminssupplements", "title": "Vitamins & Supplements"}], "rating": 5.0, "coordinates": {"latitude": 37.7645568847656, "longitude": -122.432060241699}, "transactions": [], "price": "$", "location": {"address1": "2275 Market St", "address2": null, "address3": "", "city": "San Francisco", "zip_code": "94114", "country": "US", "state": "CA", "display_address": ["2275 Market St", "San Francisco, CA 94114"]}, "phone": "+14152552844", "display_phone": "(415) 255-2844", "distance": 3354.510870944}, {"id": "eatsa-san-francisco-4", "name": "eatsa", "image_url": "https://s3-media4.fl.yelpcdn.com/bphoto/dgpEJIFIoygi4Pu_KgayUQ/o.jpg", "is_closed": false, "url": "https://www.yelp.com/biz/eatsa-san-francisco-4?adjust_creative=0T9f6kHMnzQCXJKBQD97qw&utm_campaign=yelp_api_v3&utm_medium=api_v3_business_search&utm_source=0T9f6kHMnzQCXJKBQD97qw", "review_count": 154, "categories": [{"alias": "salad", "title": "Salad"}, {"alias": "vegetarian", "title": "Vegetarian"}, {"alias": "breakfast_brunch", "title": "Breakfast & Brunch"}], "rating": 3.5, "coordinates": {"latitude": 37.793212890625, "longitude": -122.397041320801}, "transactions": [], "price": "$", "location": {"address1": "1 California St", "address2": "", "address3": "", "city": "San Francisco", "zip_code": "94111", "country": "US", "state": "CA", "display_address": ["1 California St", "San Francisco, CA 94111"]}, "phone": "+14159304006", "display_phone": "(415) 930-4006", "distance": 1079.3633522064001}, {"id": "ananda-fuara-san-francisco", "name": "Ananda Fuara", "image_url": "https://s3-media2.fl.yelpcdn.com/bphoto/U2rq-OdVqUaWZIVAOgyI5Q/o.jpg", "is_closed": false, "url": "https://www.yelp.com/biz/ananda-fuara-san-francisco?adjust_creative=0T9f6kHMnzQCXJKBQD97qw&utm_campaign=yelp_api_v3&utm_medium=api_v3_business_search&utm_source=0T9f6kHMnzQCXJKBQD97qw", "review_count": 900, "categories": [{"alias": "vegetarian", "title": "Vegetarian"}, {"alias": "vegan", "title": "Vegan"}, {"alias": "breakfast_brunch", "title": "Breakfast & Brunch"}], "rating": 4.0, "coordinates": {"latitude": 37.77798, "longitude": -122.4162}, "transactions": [], "price": "$$", "location": {"address1": "1298 Market St", "address2": "", "address3": "", "city": "San Francisco", "zip_code": "94102", "country": "US", "state": "CA", "display_address": ["1298 Market St", "San Francisco, CA 94102"]}, "phone": "+14156211994", "display_phone": "(415) 621-1994", "distance": 1357.695711834}, {"id": "the-social-study-san-francisco", "name": "The Social Study", "image_url": "https://s3-media3.fl.yelpcdn.com/bphoto/cEVf71zqcPx3CV1QS1e8mg/o.jpg", "is_closed": false, "url": "https://www.yelp.com/biz/the-social-study-san-francisco?adjust_creative=0T9f6kHMnzQCXJKBQD97qw&utm_campaign=yelp_api_v3&utm_medium=api_v3_business_search&utm_source=0T9f6kHMnzQCXJKBQD97qw", "review_count": 357, "categories": [{"alias": "wine_bars", "title": "Wine Bars"}, {"alias": "cafes", "title": "Cafes"}], "rating": 4.0, "coordinates": {"latitude": 37.7841219381414, "longitude": -122.432474792004}, "transactions": [], "price": "$$", "location": {"address1": "1795 Geary Blvd", "address2": null, "address3": "", "city": "San Francisco", "zip_code": "94115", "country": "US", "state": "CA", "display_address": ["1795 Geary Blvd", "San Francisco, CA 94115"]}, "phone": "+14152927417", "display_phone": "(415) 292-7417", "distance": 2345.1753095199997}, {"id": "gallery-cafe-san-francisco", "name": "Gallery Cafe", "image_url": "https://s3-media3.fl.yelpcdn.com/bphoto/GIOvua01AQ7cjF0c5CZZGw/o.jpg", "is_closed": false, "url": "https://www.yelp.com/biz/gallery-cafe-san-francisco?adjust_creative=0T9f6kHMnzQCXJKBQD97qw&utm_campaign=yelp_api_v3&utm_medium=api_v3_business_search&utm_source=0T9f6kHMnzQCXJKBQD97qw", "review_count": 231, "categories": [{"alias": "coffee", "title": "Coffee & Tea"}, {"alias": "breakfast_brunch", "title": "Breakfast & Brunch"}, {"alias": "tradamerican", "title": "American (Traditional)"}], "rating": 4.0, "coordinates": {"latitude": 37.79474, "longitude": -122.41118}, "transactions": [], "price": "$", "location": {"address1": "1200 Mason St", "address2": "", "address3": "", "city": "San Francisco", "zip_code": "94108", "country": "US", "state": "CA", "display_address": ["1200 Mason St", "San Francisco, CA 94108"]}, "phone": "+14152969932", "display_phone": "(415) 296-9932", "distance": 1024.340242914}, {"id": "ferry-plaza-farmers-market-san-francisco", "name": "Ferry Plaza Farmers Market", "image_url": "https://s3-media1.fl.yelpcdn.com/bphoto/WQr92gC4FxXX1rNiA4ovgQ/o.jpg", "is_closed": false, "url": "https://www.yelp.com/biz/ferry-plaza-farmers-market-san-francisco?adjust_creative=0T9f6kHMnzQCXJKBQD97qw&utm_campaign=yelp_api_v3&utm_medium=api_v3_business_search&utm_source=0T9f6kHMnzQCXJKBQD97qw", "review_count": 975, "categories": [{"alias": "farmersmarket", "title": "Farmers Market"}], "rating": 4.5, "coordinates": {"latitude": 37.7953346389624, "longitude": -122.393390042704}, "transactions": [], "price": "$$", "location": {"address1": "1 Ferry Building", "address2": "", "address3": "", "city": "San Francisco", "zip_code": "94111", "country": "US", "state": "CA", "display_address": ["1 Ferry Building", "San Francisco, CA 94111"]}, "phone": "+14152913276", "display_phone": "(415) 291-3276", "distance": 1469.6124341139998}, {"id": "good-luck-cafe-and-deli-san-francisco", "name": "Good Luck Cafe and Deli", "image_url": "https://s3-media3.fl.yelpcdn.com/bphoto/7diLgtddAjlrYm_62uLvUQ/o.jpg", "is_closed": false, "url": "https://www.yelp.com/biz/good-luck-cafe-and-deli-san-francisco?adjust_creative=0T9f6kHMnzQCXJKBQD97qw&utm_campaign=yelp_api_v3&utm_medium=api_v3_business_search&utm_source=0T9f6kHMnzQCXJKBQD97qw", "review_count": 350, "categories": [{"alias": "delis", "title": "Delis"}, {"alias": "cafes", "title": "Cafes"}, {"alias": "sandwiches", "title": "Sandwiches"}], "rating": 4.5, "coordinates": {"latitude": 37.793838, "longitude": -122.404846}, "transactions": [], "price": "$", "location": {"address1": "621 Kearny St", "address2": null, "address3": "", "city": "San Francisco", "zip_code": "94108", "country": "US", "state": "CA", "display_address": ["621 Kearny St", "San Francisco, CA 94108"]}, "phone": "+14157812328", "display_phone": "(415) 781-2328", "distance": 807.9831482579999}, {"id": "la-folie-san-francisco", "name": "La Folie", "image_url": "https://s3-media2.fl.yelpcdn.com/bphoto/KEYOfc079K4-fV6JWh-UBg/o.jpg", "is_closed": false, "url": "https://www.yelp.com/biz/la-folie-san-francisco?adjust_creative=0T9f6kHMnzQCXJKBQD97qw&utm_campaign=yelp_api_v3&utm_medium=api_v3_business_search&utm_source=0T9f6kHMnzQCXJKBQD97qw", "review_count": 1336, "categories": [{"alias": "french", "title": "French"}], "rating": 4.5, "coordinates": {"latitude": 37.798136, "longitude": -122.422036}, "transactions": [], "price": "$$$$", "location": {"address1": "2316 Polk St", "address2": "", "address3": "", "city": "San Francisco", "zip_code": "94109", "country": "US", "state": "CA", "display_address": ["2316 Polk St", "San Francisco, CA 94109"]}, "phone": "+14157765577", "display_phone": "(415) 776-5577", "distance": 1904.7509332019997}], "total": 28, "region": {"center": {"latitude": 37.786633, "longitude": -122.405972}}}