{"businesses": [{"id": "hotel-nikko-san-francisco-san-francisco-2", "name": "Hotel Nikko San Francisco", "image_url": "https://s3-media2.fl.yelpcdn.com/bphoto/xRfoLpWSvX-UjMVRua860w/o.jpg", "is_closed": false, "url": "https://www.yelp.com/biz/hotel-nikko-san-francisco-san-francisco-2?adjust_creative=0T9f6kHMnzQCXJKBQD97qw&utm_campaign=yelp_api_v3&utm_medium=api_v3_business_search&utm_source=0T9f6kHMnzQCXJKBQD97qw", "review_count": 668, "categories": [{"alias": "hotels", "title": "Hotels"}], "rating": 4.0, "coordinates": {"latitude": 37.7859844832523, "longitude": -122.409244244422}, "transactions": [], "price": "$$$", "location": {"address1": "222 Mason St", "address2": "", "address3": "", "city": "San Francisco", "zip_code": "94102", "country": "US", "state": "CA", "display_address": ["222 Mason St", "San Francisco, CA 94102"]}, "phone": "+14153941111", "display_phone": "(415) 394-1111", "distance": 1622.487342196}, {"id": "alcatraz-cruises-san-francsico", "name": "Alcatraz Cruises", "image_url": "https://s3-media3.fl.yelpcdn.com/bphoto/JbdzV76I7KqpASY8spfwlA/o.jpg", "is_closed": false, "url": "https://www.yelp.com/biz/alcatraz-cruises-san-francsico?adjust_creative=0T9f6kHMnzQCXJKBQD97qw&utm_campaign=yelp_api_v3&utm_medium=api_v3_business_search&utm_source=0T9f6kHMnzQCXJKBQD97qw", "review_count": 790, "categories": [{"alias": "tours", "title": "Tours"}, {"alias": "boatcharters", "title": "Boat Charters"}, {"alias": "eventplanning", "title": "Party & Event Planning"}], "rating": 4.5, "coordinates": {"latitude": 37.8065290150772, "longitude": -122.404576285211}, "transactions": [], "location": {"address1": "Alcatraz Landing Pier 33", "address2": "", "address3": "", "city": "San Francsico", "zip_code": "94111", "country": "US", "state": "CA", "display_address": ["Alcatraz Landing Pier 33", "San Francsico, CA 94111"]}, "phone": "+14159817625", "display_phone": "(415) 981-7625", "distance": 3730.45012}, {"id": "airport-home-appliance-redwood-city", "name": "Airport Home Appliance", "image_url": "https://s3-media2.fl.yelpcdn.com/bphoto/obhmRppxdhSbXvsKXwcdMA/o.jpg", "is_closed": false, "url": "https://www.yelp.com/biz/airport-home-appliance-redwood-city?adjust_creative=0T9f6kHMnzQCXJKBQD97qw&utm_campaign=yelp_api_v3&utm_medium=api_v3_business_search&utm_source=0T9f6kHMnzQCXJKBQD97qw", "review_count": 228, "categories": [{"alias": "appliances", "title": "Appliances"}, {"alias": "mattresses", "title": "Mattresses"}], "rating": 2.5, "coordinates": {"latitude": 37.47394, "longitude": -122.21927}, "transactions": [], "price": "$$", "location": {"address1": "2424 El Camino Real", "address2": "", "address3": "", "city": "Redwood City", "zip_code": "94063", "country": "US", "state": "CA", "display_address": ["2424 El Camino Real", "Redwood City, CA 94063"]}, "phone": "+16502610200", "display_phone": "(650) 261-0200", "distance": 38117.31767908}], "total": 3, "region": {"center": {"latitude": 37.643563574033465, "longitude": -122.33561117746997}}}