{"businesses": [{"id": "brainwash-cafe-and-laundromat-san-francisco", "name": "Brainwash Cafe & Laundromat", "image_url": "https://s3-media4.fl.yelpcdn.com/bphoto/5pSc_7mRqlh5BU1r23Po9w/o.jpg", "is_closed": false, "url": "https://www.yelp.com/biz/brainwash-cafe-and-laundromat-san-francisco?adjust_creative=0T9f6kHMnzQCXJKBQD97qw&utm_campaign=yelp_api_v3&utm_medium=api_v3_business_search&utm_source=0T9f6kHMnzQCXJKBQD97qw", "review_count": 682, "categories": [{"alias": "breakfast_brunch", "title": "Breakfast & Brunch"}, {"alias": "cafes", "title": "Cafes"}, {"alias": "laundromat", "title": "Laundromat"}], "rating": 3.5, "coordinates": {"latitude": 37.7763223436605, "longitude": -122.408566792216}, "transactions": [], "price": "$", "location": {"address1": "1122 Folsom St", "address2": "", "address3": "", "city": "San Francisco", "zip_code": "94103", "country": "US", "state": "CA", "display_address": ["1122 Folsom St", "San Francisco, CA 94103"]}, "phone": "+14158613663", "display_phone": "(415) 861-3663", "distance": 8.338828523338}, {"id": "sightglass-coffee-san-francisco", "name": "Sightglass Coffee", "image_url": "https://s3-media3.fl.yelpcdn.com/bphoto/b59PUT6mZNZEXraIUNGagw/o.jpg", "is_closed": false, "url": "https://www.yelp.com/biz/sightglass-coffee-san-francisco?adjust_creative=0T9f6kHMnzQCXJKBQD97qw&utm_campaign=yelp_api_v3&utm_medium=api_v3_business_search&utm_source=0T9f6kHMnzQCXJKBQD97qw", "review_count": 1448, "categories": [{"alias": "coffee", "title": "Coffee & Tea"}], "rating": 4.0, "coordinates": {"latitude": 37.77696, "longitude": -122.40851}, "transactions": [], "price": "$$", "location": {"address1": "270 7th St", "address2": "", "address3": "", "city": "San Francisco", "zip_code": "94103", "country": "US", "state": "CA", "display_address": ["270 7th St", "San Francisco, CA 94103"]}, "phone": "+14158611313", "display_phone": "(415) 861-1313", "distance": 86.9583614037}, {"id": "wicked-grounds-san-francisco", "name": "Wicked Grounds", "image_url": "https://s3-media4.fl.yelpcdn.com/bphoto/1-QPin3Z7Whs0aoFjoJ-HA/o.jpg", "is_closed": false, "url": "https://www.yelp.com/biz/wicked-grounds-san-francisco?adjust_creative=0T9f6kHMnzQCXJKBQD97qw&utm_campaign=yelp_api_v3&utm_medium=api_v3_business_search&utm_source=0T9f6kHMnzQCXJKBQD97qw", "review_count": 239, "categories": [{"alias": "coffee", "title": "Coffee & Tea"}, {"alias": "adultentertainment", "title": "Adult Entertainment"}], "rating": 4.5, "coordinates": {"latitude": 37.7752828, "longitude": -122.410181}, "transactions": [], "price": "$", "location": {"address1": "289 8th St", "address2": "", "address3": "", "city": "San Francisco", "zip_code": "94103", "country": "US", "state": "CA", "display_address": ["289 8th St", "San Francisco, CA 94103"]}, "phone": "+14155030405", "display_phone": "(415) 503-0405", "distance": 176.6177103162}, {"id": "tartine-bakery-and-cafe-san-francisco", "name": "Tartine Bakery & Cafe", "image_url": "https://s3-media1.fl.yelpcdn.com/bphoto/vTLu8G86IqIazm7BRqIH4g/o.jpg", "is_closed": false, "url": "https://www.yelp.com/biz/tartine-bakery-and-cafe-san-francisco?adjust_creative=0T9f6kHMnzQCXJKBQD97qw&utm_campaign=yelp_api_v3&utm_medium=api_v3_business_search&utm_source=0T9f6kHMnzQCXJKBQD97qw", "review_count": 6601, "categories": [{"alias": "bakeries", "title": "Bakeries"}, {"alias": "cafes", "title": "Cafes"}, {"alias": "desserts", "title": "Desserts"}], "rating": 4.0, "coordinates": {"latitude": 37.7614250022004, "longitude": -122.424051321456}, "transactions": [], "price": "$$", "location": {"address1": "600 Guerrero St", "address2": "", "address3": "", "city": "San Francisco", "zip_code": "94110", "country": "US", "state": "CA", "display_address": ["600 Guerrero St", "San Francisco, CA 94110"]}, "phone": "+14154872600", "display_phone": "(415) 487-2600", "distance": 2139.85571232}, {"id": "gaslamp-cafe-san-francisco", "name": "Gaslamp Cafe", "image_url": "https://s3-media3.fl.yelpcdn.com/bphoto/CdfBLze7twD8XJ1HrXzK1g/o.jpg", "is_closed": false, "url": "https://www.yelp.com/biz/gaslamp-cafe-san-francisco?adjust_creative=0T9f6kHMnzQCXJKBQD97qw&utm_campaign=yelp_api_v3&utm_medium=api_v3_business_search&utm_source=0T9f6kHMnzQCXJKBQD97qw", "review_count": 204, "categories": [{"alias": "cafes", "title": "Cafes"}, {"alias": "breakfast_brunch", "title": "Breakfast & Brunch"}, {"alias": "sandwiches", "title": "Sandwiches"}], "rating": 3.5, "coordinates": {"latitude": 37.771734730059, "longitude": -122.416677691027}, "transactions": ["pickup"], "price": "$$", "location": {"address1": "1599 Howard St", "address2": "", "address3": "", "city": "San Francisco", "zip_code": "94103", "country": "US", "state": "CA", "display_address": ["1599 Howard St", "San Francisco, CA 94103"]}, "phone": "+14155807493", "display_phone": "(415) 580-7493", "distance": 874.7084768}, {"id": "little-hollywood-launderette-san-francisco-2", "name": "Little Hollywood Launderette", "image_url": "https://s3-media3.fl.yelpcdn.com/bphoto/XuqG90vpCd7LxDUVQ0T4uA/o.jpg", "is_closed": false, "url": "https://www.yelp.com/biz/little-hollywood-launderette-san-francisco-2?adjust_creative=0T9f6kHMnzQCXJKBQD97qw&utm_campaign=yelp_api_v3&utm_medium=api_v3_business_search&utm_source=0T9f6kHMnzQCXJKBQD97qw", "review_count": 39, "categories": [{"alias": "laundromat", "title": "Laundromat"}], "rating": 4.0, "coordinates": {"latitude": 37.7703415821996, "longitude": -122.425396442413}, "transactions": [], "price": "$", "location": {"address1": "1906 Market St", "address2": "", "address3": "", "city": "San Francisco", "zip_code": "94102", "country": "US", "state": "CA", "display_address": ["1906 Market St", "San Francisco, CA 94102"]}, "phone": "+14152529357", "display_phone": "(415) 252-9357", "distance": 1621.8682290979998}, {"id": "fiesta-laundromat-san-francisco", "name": "Fiesta Laundromat", "image_url": "https://s3-media3.fl.yelpcdn.com/bphoto/wDrEPi2pRkd4ZeKlmAVWWA/o.jpg", "is_closed": false, "url": "https://www.yelp.com/biz/fiesta-laundromat-san-francisco?adjust_creative=0T9f6kHMnzQCXJKBQD97qw&utm_campaign=yelp_api_v3&utm_medium=api_v3_business_search&utm_source=0T9f6kHMnzQCXJKBQD97qw", "review_count": 30, "categories": [{"alias": "laundromat", "title": "Laundromat"}], "rating": 3.5, "coordinates": {"latitude": 37.7589119205259, "longitude": -122.417342897592}, "transactions": [], "price": "$$", "location": {"address1": "898 S Van Ness Ave", "address2": "", "address3": "", "city": "San Francisco", "zip_code": "94110", "country": "US", "state": "CA", "display_address": ["898 S Van Ness Ave", "San Francisco, CA 94110"]}, "phone": "+14154017605", "display_phone": "(415) 401-7605", "distance": 2078.048526818}, {"id": "quetzal-internet-cafe-san-francisco", "name": "Quetzal Internet Cafe", "image_url": "https://s3-media3.fl.yelpcdn.com/bphoto/2-Z4m88SSatxg2mJSZGcYw/o.jpg", "is_closed": false, "url": "https://www.yelp.com/biz/quetzal-internet-cafe-san-francisco?adjust_creative=0T9f6kHMnzQCXJKBQD97qw&utm_campaign=yelp_api_v3&utm_medium=api_v3_business_search&utm_source=0T9f6kHMnzQCXJKBQD97qw", "review_count": 362, "categories": [{"alias": "coffee", "title": "Coffee & Tea"}, {"alias": "internetcafe", "title": "Internet Cafes"}], "rating": 3.5, "coordinates": {"latitude": 37.7883654087782, "longitude": -122.420168146491}, "transactions": ["pickup"], "price": "$", "location": {"address1": "1234 Polk St", "address2": "", "address3": "", "city": "San Francisco", "zip_code": "94109", "country": "US", "state": "CA", "display_address": ["1234 Polk St", "San Francisco, CA 94109"]}, "phone": "+14156734181", "display_phone": "(415) 673-4181", "distance": 1685.0156729519997}, {"id": "nook-san-francisco", "name": "Nook", "image_url": "https://s3-media1.fl.yelpcdn.com/bphoto/FDbu8xWEBPHaLQtmg3BhMA/o.jpg", "is_closed": false, "url": "https://www.yelp.com/biz/nook-san-francisco?adjust_creative=0T9f6kHMnzQCXJKBQD97qw&utm_campaign=yelp_api_v3&utm_medium=api_v3_business_search&utm_source=0T9f6kHMnzQCXJKBQD97qw", "review_count": 612, "categories": [{"alias": "coffee", "title": "Coffee & Tea"}, {"alias": "wine_bars", "title": "Wine Bars"}, {"alias": "cafes", "title": "Cafes"}], "rating": 4.0, "coordinates": {"latitude": 37.79473, "longitude": -122.41798}, "transactions": [], "price": "$$", "location": {"address1": "1500 Hyde St", "address2": "", "address3": "", "city": "San Francisco", "zip_code": "94109", "country": "US", "state": "CA", "display_address": ["1500 Hyde St", "San Francisco, CA 94109"]}, "phone": "+14154474100", "display_phone": "(415) 447-4100", "distance": 2219.747051402}, {"id": "specialtys-caf\u00e9-and-bakery-san-francisco-44", "name": "Specialty's Caf\u00e9 & Bakery", "image_url": "https://s3-media2.fl.yelpcdn.com/bphoto/p8SiAUjI-m8ef4WdvnoIwg/o.jpg", "is_closed": false, "url": "https://www.yelp.com/biz/specialtys-caf%C3%A9-and-bakery-san-francisco-44?adjust_creative=0T9f6kHMnzQCXJKBQD97qw&utm_campaign=yelp_api_v3&utm_medium=api_v3_business_search&utm_source=0T9f6kHMnzQCXJKBQD97qw", "review_count": 75, "categories": [{"alias": "cafes", "title": "Cafes"}, {"alias": "sandwiches", "title": "Sandwiches"}, {"alias": "salad", "title": "Salad"}], "rating": 2.5, "coordinates": {"latitude": 37.7843803, "longitude": -122.3985485}, "transactions": [], "price": "$", "location": {"address1": "680 Folsom St", "address2": "", "address3": "", "city": "San Francisco", "zip_code": "94107", "country": "US", "state": "CA", "display_address": ["680 Folsom St", "San Francisco, CA 94107"]}, "phone": "+18775022837", "display_phone": "(877) 502-2837", "distance": 1259.4565127196}, {"id": "precita-clean-laundromat-san-francisco", "name": "Precita Clean Laundromat", "image_url": "https://s3-media3.fl.yelpcdn.com/bphoto/mnY40ZAdc3JrDnaOhLrCQw/o.jpg", "is_closed": false, "url": "https://www.yelp.com/biz/precita-clean-laundromat-san-francisco?adjust_creative=0T9f6kHMnzQCXJKBQD97qw&utm_campaign=yelp_api_v3&utm_medium=api_v3_business_search&utm_source=0T9f6kHMnzQCXJKBQD97qw", "review_count": 15, "categories": [{"alias": "laundromat", "title": "Laundromat"}], "rating": 3.0, "coordinates": {"latitude": 37.74695, "longitude": -122.41382}, "transactions": [], "price": "$$", "location": {"address1": "3210 Folsom St", "address2": "", "address3": "", "city": "San Francisco", "zip_code": "94110", "country": "US", "state": "CA", "display_address": ["3210 Folsom St", "San Francisco, CA 94110"]}, "phone": "", "display_phone": "", "distance": 3288.2150752479997}, {"id": "atlas-cafe-san-francisco", "name": "Atlas Cafe", "image_url": "https://s3-media3.fl.yelpcdn.com/bphoto/QR50HNZmDDuh5Ayk_i6kHw/o.jpg", "is_closed": false, "url": "https://www.yelp.com/biz/atlas-cafe-san-francisco?adjust_creative=0T9f6kHMnzQCXJKBQD97qw&utm_campaign=yelp_api_v3&utm_medium=api_v3_business_search&utm_source=0T9f6kHMnzQCXJKBQD97qw", "review_count": 692, "categories": [{"alias": "sandwiches", "title": "Sandwiches"}, {"alias": "breakfast_brunch", "title": "Breakfast & Brunch"}, {"alias": "cafes", "title": "Cafes"}], "rating": 4.0, "coordinates": {"latitude": 37.7589581646107, "longitude": -122.411439730935}, "transactions": [], "price": "$", "location": {"address1": "3049 20th St", "address2": "", "address3": "", "city": "San Francisco", "zip_code": "94110", "country": "US", "state": "CA", "display_address": ["3049 20th St", "San Francisco, CA 94110"]}, "phone": "+14156481047", "display_phone": "(415) 648-1047", "distance": 1940.1055580579998}, {"id": "tpz-laundromat-san-francisco", "name": "TPZ Laundromat", "image_url": "", "is_closed": false, "url": "https://www.yelp.com/biz/tpz-laundromat-san-francisco?adjust_creative=0T9f6kHMnzQCXJKBQD97qw&utm_campaign=yelp_api_v3&utm_medium=api_v3_business_search&utm_source=0T9f6kHMnzQCXJKBQD97qw", "review_count": 3, "categories": [{"alias": "laundromat", "title": "Laundromat"}], "rating": 3.0, "coordinates": {"latitude": 37.7724223583937, "longitude": -122.422666624188}, "transactions": [], "location": {"address1": "8 Valencia St", "address2": "", "address3": "", "city": "San Francisco", "zip_code": "94103", "country": "US", "state": "CA", "display_address": ["8 Valencia St", "San Francisco, CA 94103"]}, "phone": "+14155587700", "display_phone": "(415) 558-7700", "distance": 1335.913616802}, {"id": "washateria-san-francisco", "name": "Washateria", "image_url": "", "is_closed": false, "url": "https://www.yelp.com/biz/washateria-san-francisco?adjust_creative=0T9f6kHMnzQCXJKBQD97qw&utm_campaign=yelp_api_v3&utm_medium=api_v3_business_search&utm_source=0T9f6kHMnzQCXJKBQD97qw", "review_count": 10, "categories": [{"alias": "laundryservices", "title": "Laundry Services"}], "rating": 2.5, "coordinates": {"latitude": 37.7635099, "longitude": -122.42379}, "transactions": [], "price": "$", "location": {"address1": "485 Guerrero St", "address2": "", "address3": "", "city": "San Francisco", "zip_code": "94110", "country": "US", "state": "CA", "display_address": ["485 Guerrero St", "San Francisco, CA 94110"]}, "phone": "", "display_phone": "", "distance": 1952.7379114539997}, {"id": "fanta-cleaners-san-francisco", "name": "Fanta Cleaners", "image_url": "https://s3-media3.fl.yelpcdn.com/bphoto/viBj72NZsji8hxRipkM4Mw/o.jpg", "is_closed": false, "url": "https://www.yelp.com/biz/fanta-cleaners-san-francisco?adjust_creative=0T9f6kHMnzQCXJKBQD97qw&utm_campaign=yelp_api_v3&utm_medium=api_v3_business_search&utm_source=0T9f6kHMnzQCXJKBQD97qw", "review_count": 59, "categories": [{"alias": "sewingalterations", "title": "Sewing & Alterations"}, {"alias": "laundryservices", "title": "Laundry Services"}], "rating": 2.5, "coordinates": {"latitude": 37.7775364, "longitude": -122.3957003}, "transactions": [], "price": "$$", "location": {"address1": "650 4th St", "address2": null, "address3": "", "city": "San Francisco", "zip_code": "94107", "country": "US", "state": "CA", "display_address": ["650 4th St", "San Francisco, CA 94107"]}, "phone": "+14154957788", "display_phone": "(415) 495-7788", "distance": 1136.865617582}, {"id": "the-wash-quarters-san-francisco", "name": "The Wash Quarters", "image_url": "", "is_closed": false, "url": "https://www.yelp.com/biz/the-wash-quarters-san-francisco?adjust_creative=0T9f6kHMnzQCXJKBQD97qw&utm_campaign=yelp_api_v3&utm_medium=api_v3_business_search&utm_source=0T9f6kHMnzQCXJKBQD97qw", "review_count": 52, "categories": [{"alias": "laundryservices", "title": "Laundry Services"}], "rating": 3.5, "coordinates": {"latitude": 37.7572199, "longitude": -122.42085}, "transactions": [], "price": "$$", "location": {"address1": "985 Valencia St", "address2": "", "address3": "", "city": "San Francisco", "zip_code": "94110", "country": "US", "state": "CA", "display_address": ["985 Valencia St", "San Francisco, CA 94110"]}, "phone": "+14158267634", "display_phone": "(415) 826-7634", "distance": 2380.39249674}, {"id": "sfwash-san-francisco", "name": "Sfwash", "image_url": "https://s3-media2.fl.yelpcdn.com/bphoto/42nnPhnkE1UQX82PoX1YiA/o.jpg", "is_closed": false, "url": "https://www.yelp.com/biz/sfwash-san-francisco?adjust_creative=0T9f6kHMnzQCXJKBQD97qw&utm_campaign=yelp_api_v3&utm_medium=api_v3_business_search&utm_source=0T9f6kHMnzQCXJKBQD97qw", "review_count": 111, "categories": [{"alias": "laundryservices", "title": "Laundry Services"}], "rating": 3.5, "coordinates": {"latitude": 37.74246, "longitude": -122.42159}, "transactions": [], "price": "$$", "location": {"address1": "3377 Mission St", "address2": "", "address3": "", "city": "San Francisco", "zip_code": "94110", "country": "US", "state": "CA", "display_address": ["3377 Mission St", "San Francisco, CA 94110"]}, "phone": "+14156772245", "display_phone": "(415) 677-2245", "distance": 3932.0408764199997}], "total": 17, "region": {"center": {"latitude": 37.776254, "longitude": -122.408529}}}