{"businesses": [{"id": "bryant-shell-no-4-san-francisco", "name": "Bryant Shell No 4", "image_url": "https://s3-media2.fl.yelpcdn.com/bphoto/EY23DnwfyTjZCJ6hQWlHVA/o.jpg", "is_closed": false, "url": "https://www.yelp.com/biz/bryant-shell-no-4-san-francisco?adjust_creative=0T9f6kHMnzQCXJKBQD97qw&utm_campaign=yelp_api_v3&utm_medium=api_v3_business_search&utm_source=0T9f6kHMnzQCXJKBQD97qw", "review_count": 11, "categories": [{"alias": "servicestations", "title": "Gas Stations"}], "rating": 1.5, "coordinates": {"latitude": 37.7799072265625, "longitude": -122.398025512695}, "transactions": [], "location": {"address1": "598 Bryant St", "address2": "", "address3": "", "city": "San Francisco", "zip_code": "94107", "country": "US", "state": "CA", "display_address": ["598 Bryant St", "San Francisco, CA 94107"]}, "phone": "+14154955833", "display_phone": "(415) 495-5833", "distance": 25.54162753514}, {"id": "u-haul-moving-and-storage-of-downtown-san-francisco-san-francisco-4", "name": "U-Haul Moving & Storage of Downtown San Francisco", "image_url": "https://s3-media2.fl.yelpcdn.com/bphoto/U1DuNrk07ySeGCeyCCmOzQ/o.jpg", "is_closed": false, "url": "https://www.yelp.com/biz/u-haul-moving-and-storage-of-downtown-san-francisco-san-francisco-4?adjust_creative=0T9f6kHMnzQCXJKBQD97qw&utm_campaign=yelp_api_v3&utm_medium=api_v3_business_search&utm_source=0T9f6kHMnzQCXJKBQD97qw", "review_count": 169, "categories": [{"alias": "selfstorage", "title": "Self Storage"}, {"alias": "truck_rental", "title": "Truck Rental"}, {"alias": "propane", "title": "Propane"}], "rating": 2.0, "coordinates": {"latitude": 37.7681530663257, "longitude": -122.410183239812}, "transactions": [], "location": {"address1": "1525 Bryant St", "address2": "", "address3": "", "city": "San Francisco", "zip_code": "94103", "country": "US", "state": "CA", "display_address": ["1525 Bryant St", "San Francisco, CA 94103"]}, "phone": "+14152520133", "display_phone": "(415) 252-0133", "distance": 1684.89529432}, {"id": "roberts-tires-and-wheels-san-francisco", "name": "Robert's Tires & Wheels", "image_url": "https://s3-media1.fl.yelpcdn.com/bphoto/maTQzHkub1n6e8OhdB5yqQ/o.jpg", "is_closed": false, "url": "https://www.yelp.com/biz/roberts-tires-and-wheels-san-francisco?adjust_creative=0T9f6kHMnzQCXJKBQD97qw&utm_campaign=yelp_api_v3&utm_medium=api_v3_business_search&utm_source=0T9f6kHMnzQCXJKBQD97qw", "review_count": 357, "categories": [{"alias": "tires", "title": "Tires"}, {"alias": "autorepair", "title": "Auto Repair"}], "rating": 4.5, "coordinates": {"latitude": 37.7777099609375, "longitude": -122.403923034668}, "transactions": [], "location": {"address1": "986 Harrison St", "address2": "", "address3": "", "city": "San Francisco", "zip_code": "94107", "country": "US", "state": "CA", "display_address": ["986 Harrison St", "San Francisco, CA 94107"]}, "phone": "+14152439282", "display_phone": "(415) 243-9282", "distance": 579.241055764}, {"id": "autoreturn-san-francisco", "name": "AutoReturn", "image_url": "https://s3-media4.fl.yelpcdn.com/bphoto/OtN0uFsQB_hZJz4LbiZ9sg/o.jpg", "is_closed": false, "url": "https://www.yelp.com/biz/autoreturn-san-francisco?adjust_creative=0T9f6kHMnzQCXJKBQD97qw&utm_campaign=yelp_api_v3&utm_medium=api_v3_business_search&utm_source=0T9f6kHMnzQCXJKBQD97qw", "review_count": 170, "categories": [{"alias": "towing", "title": "Towing"}], "rating": 2.0, "coordinates": {"latitude": 37.7746799, "longitude": -122.40583}, "transactions": [], "location": {"address1": "450 7th St", "address2": "", "address3": "", "city": "San Francisco", "zip_code": "94103", "country": "US", "state": "CA", "display_address": ["450 7th St", "San Francisco, CA 94103"]}, "phone": "+14158658200", "display_phone": "(415) 865-8200", "distance": 905.5449761663999}, {"id": "cc-rider-motorcycle-tow-san-francisco-2", "name": "CC Rider Motorcycle Tow", "image_url": "https://s3-media1.fl.yelpcdn.com/bphoto/-x9bcIqKWFl2NFOHvrhMOg/o.jpg", "is_closed": false, "url": "https://www.yelp.com/biz/cc-rider-motorcycle-tow-san-francisco-2?adjust_creative=0T9f6kHMnzQCXJKBQD97qw&utm_campaign=yelp_api_v3&utm_medium=api_v3_business_search&utm_source=0T9f6kHMnzQCXJKBQD97qw", "review_count": 150, "categories": [{"alias": "motorcyclerepair", "title": "Motorcycle Repair"}, {"alias": "towing", "title": "Towing"}], "rating": 5.0, "coordinates": {"latitude": 37.78025, "longitude": -122.40165}, "transactions": [], "location": {"address1": "162 Clara St", "address2": "", "address3": "", "city": "San Francisco", "zip_code": "94102", "country": "US", "state": "CA", "display_address": ["162 Clara St", "San Francisco, CA 94102"]}, "phone": "+14153348697", "display_phone": "(415) 334-8697", "distance": 2057.939340716}, {"id": "mercedes-benz-of-san-francisco-san-francisco-4", "name": "Mercedes-Benz Of San Francisco", "image_url": "https://s3-media1.fl.yelpcdn.com/bphoto/6meafyYpHqDs2AUyq4oZew/o.jpg", "is_closed": false, "url": "https://www.yelp.com/biz/mercedes-benz-of-san-francisco-san-francisco-4?adjust_creative=0T9f6kHMnzQCXJKBQD97qw&utm_campaign=yelp_api_v3&utm_medium=api_v3_business_search&utm_source=0T9f6kHMnzQCXJKBQD97qw", "review_count": 423, "categories": [{"alias": "car_dealers", "title": "Car Dealers"}, {"alias": "autorepair", "title": "Auto Repair"}], "rating": 3.5, "coordinates": {"latitude": 37.7722561, "longitude": -122.4070388}, "transactions": [], "location": {"address1": "500 8th St", "address2": null, "address3": "", "city": "San Francisco", "zip_code": "94103", "country": "US", "state": "CA", "display_address": ["500 8th St", "San Francisco, CA 94103"]}, "phone": "+18775546016", "display_phone": "(877) 554-6016", "distance": 1187.308931476}, {"id": "the-garage-sf-san-francisco-5", "name": "The Garage SF", "image_url": "https://s3-media2.fl.yelpcdn.com/bphoto/UBQ2X3-jiTFyTOs0zfQkMQ/o.jpg", "is_closed": false, "url": "https://www.yelp.com/biz/the-garage-sf-san-francisco-5?adjust_creative=0T9f6kHMnzQCXJKBQD97qw&utm_campaign=yelp_api_v3&utm_medium=api_v3_business_search&utm_source=0T9f6kHMnzQCXJKBQD97qw", "review_count": 293, "categories": [{"alias": "autorepair", "title": "Auto Repair"}, {"alias": "bodyshops", "title": "Body Shops"}, {"alias": "oilchange", "title": "Oil Change Stations"}], "rating": 4.5, "coordinates": {"latitude": 37.77201, "longitude": -122.412463}, "transactions": [], "location": {"address1": "340 10th St", "address2": "", "address3": "", "city": "San Francisco", "zip_code": "94103", "country": "US", "state": "CA", "display_address": ["340 10th St", "San Francisco, CA 94103"]}, "phone": "+14158640111", "display_phone": "(415) 864-0111", "distance": 1545.4351524618}], "total": 7, "region": {"center": {"latitude": 37.779764, "longitude": -122.397869}}}