{"businesses": [{"id": "el-burrito-express-san-francisco", "name": "El Burrito Express", "image_url": "https://s3-media4.fl.yelpcdn.com/bphoto/gxLv13cu1O9NWPKy66vLtg/o.jpg", "is_closed": false, "url": "https://www.yelp.com/biz/el-burrito-express-san-francisco?adjust_creative=0T9f6kHMnzQCXJKBQD97qw&utm_campaign=yelp_api_v3&utm_medium=api_v3_business_search&utm_source=0T9f6kHMnzQCXJKBQD97qw", "review_count": 741, "categories": [{"alias": "mexican", "title": "Mexican"}], "rating": 3.5, "coordinates": {"latitude": 37.742587, "longitude": -122.483301}, "transactions": [], "price": "$", "location": {"address1": "1601 Taraval St", "address2": "", "address3": "", "city": "San Francisco", "zip_code": "94116", "country": "US", "state": "CA", "display_address": ["1601 Taraval St", "San Francisco, CA 94116"]}, "phone": "+14155668300", "display_phone": "(415) 566-8300", "distance": 9.91635718236}, {"id": "el-burrito-express-catering-san-francisco", "name": "El Burrito Express Catering", "image_url": "https://s3-media3.fl.yelpcdn.com/bphoto/EmVZiFrxr2jhb3bx3hJt6Q/o.jpg", "is_closed": false, "url": "https://www.yelp.com/biz/el-burrito-express-catering-san-francisco?adjust_creative=0T9f6kHMnzQCXJKBQD97qw&utm_campaign=yelp_api_v3&utm_medium=api_v3_business_search&utm_source=0T9f6kHMnzQCXJKBQD97qw", "review_count": 19, "categories": [{"alias": "catering", "title": "Caterers"}], "rating": 5.0, "coordinates": {"latitude": 37.74257, "longitude": -122.4834}, "transactions": [], "location": {"address1": "1601 Taraval St", "address2": "", "address3": "", "city": "San Francisco", "zip_code": "94116", "country": "US", "state": "CA", "display_address": ["1601 Taraval St", "San Francisco, CA 94116"]}, "phone": "+14156996983", "display_phone": "(415) 699-6983", "distance": 11.876886230622}, {"id": "el-burrito-express-2-san-francisco", "name": "El Burrito Express 2", "image_url": "https://s3-media3.fl.yelpcdn.com/bphoto/mlk3ffHOZ_B14IB90s6uRQ/o.jpg", "is_closed": false, "url": "https://www.yelp.com/biz/el-burrito-express-2-san-francisco?adjust_creative=0T9f6kHMnzQCXJKBQD97qw&utm_campaign=yelp_api_v3&utm_medium=api_v3_business_search&utm_source=0T9f6kHMnzQCXJKBQD97qw", "review_count": 578, "categories": [{"alias": "mexican", "title": "Mexican"}], "rating": 4.0, "coordinates": {"latitude": 37.78646, "longitude": -122.43982}, "transactions": ["delivery", "pickup"], "price": "$", "location": {"address1": "1812 Divisadero St", "address2": "", "address3": "", "city": "San Francisco", "zip_code": "94115", "country": "US", "state": "CA", "display_address": ["1812 Divisadero St", "San Francisco, CA 94115"]}, "phone": "+14157764246", "display_phone": "(415) 776-4246", "distance": 6187.763114181999}, {"id": "the-city-taqueria-san-francisco-3", "name": "The City Taqueria", "image_url": "https://s3-media4.fl.yelpcdn.com/bphoto/YI3f-5lGET3ZIFxT-GY7zg/o.jpg", "is_closed": false, "url": "https://www.yelp.com/biz/the-city-taqueria-san-francisco-3?adjust_creative=0T9f6kHMnzQCXJKBQD97qw&utm_campaign=yelp_api_v3&utm_medium=api_v3_business_search&utm_source=0T9f6kHMnzQCXJKBQD97qw", "review_count": 277, "categories": [{"alias": "mexican", "title": "Mexican"}], "rating": 3.5, "coordinates": {"latitude": 37.7867240905762, "longitude": -122.439781188965}, "transactions": [], "price": "$", "location": {"address1": "1836 Divisadero St", "address2": "", "address3": "", "city": "San Francisco", "zip_code": "94115", "country": "US", "state": "CA", "display_address": ["1836 Divisadero St", "San Francisco, CA 94115"]}, "phone": "+14153463515", "display_phone": "(415) 346-3515", "distance": 6217.1652731799995}, {"id": "the-taco-shop-at-underdogs-san-francisco-2", "name": "The Taco Shop At Underdog's", "image_url": "https://s3-media3.fl.yelpcdn.com/bphoto/a0LpGvr-lWAsnK3sjOnapA/o.jpg", "is_closed": false, "url": "https://www.yelp.com/biz/the-taco-shop-at-underdogs-san-francisco-2?adjust_creative=0T9f6kHMnzQCXJKBQD97qw&utm_campaign=yelp_api_v3&utm_medium=api_v3_business_search&utm_source=0T9f6kHMnzQCXJKBQD97qw", "review_count": 1577, "categories": [{"alias": "sportsbars", "title": "Sports Bars"}, {"alias": "mexican", "title": "Mexican"}], "rating": 4.0, "coordinates": {"latitude": 37.7637901306152, "longitude": -122.477653503418}, "transactions": [], "price": "$$", "location": {"address1": "1824 Irving St", "address2": null, "address3": "", "city": "San Francisco", "zip_code": "94122", "country": "US", "state": "CA", "display_address": ["1824 Irving St", "San Francisco, CA 94122"]}, "phone": "+14155668700", "display_phone": "(415) 566-8700", "distance": 2400.5303290939996}, {"id": "burrito-loco-san-francisco", "name": "Burrito Loco", "image_url": "https://s3-media2.fl.yelpcdn.com/bphoto/dRXPvJeBydPWl5gEByFI9w/o.jpg", "is_closed": false, "url": "https://www.yelp.com/biz/burrito-loco-san-francisco?adjust_creative=0T9f6kHMnzQCXJKBQD97qw&utm_campaign=yelp_api_v3&utm_medium=api_v3_business_search&utm_source=0T9f6kHMnzQCXJKBQD97qw", "review_count": 86, "categories": [{"alias": "mexican", "title": "Mexican"}], "rating": 3.5, "coordinates": {"latitude": 37.7409191052678, "longitude": -122.465664009698}, "transactions": ["pickup"], "price": "$", "location": {"address1": "850 Ulloa St", "address2": "", "address3": "", "city": "San Francisco", "zip_code": "94127", "country": "US", "state": "CA", "display_address": ["850 Ulloa St", "San Francisco, CA 94127"]}, "phone": "+14156654677", "display_phone": "(415) 665-4677", "distance": 1565.9044927624}, {"id": "taqueria-dos-charros-san-francisco-2", "name": "Taqueria Dos Charros", "image_url": "https://s3-media4.fl.yelpcdn.com/bphoto/-V5tyk0CKBPbCJkPdHn0DQ/o.jpg", "is_closed": false, "url": "https://www.yelp.com/biz/taqueria-dos-charros-san-francisco-2?adjust_creative=0T9f6kHMnzQCXJKBQD97qw&utm_campaign=yelp_api_v3&utm_medium=api_v3_business_search&utm_source=0T9f6kHMnzQCXJKBQD97qw", "review_count": 120, "categories": [{"alias": "mexican", "title": "Mexican"}], "rating": 4.0, "coordinates": {"latitude": 37.7182143688882, "longitude": -122.474491011863}, "transactions": [], "price": "$", "location": {"address1": "55 Cambon Dr", "address2": "", "address3": "", "city": "San Francisco", "zip_code": "94132", "country": "US", "state": "CA", "display_address": ["55 Cambon Dr", "San Francisco, CA 94132"]}, "phone": "+14153346075", "display_phone": "(415) 334-6075", "distance": 2828.570512244}, {"id": "taco-bell-san-francisco-19", "name": "Taco Bell", "image_url": "https://s3-media2.fl.yelpcdn.com/bphoto/gSs-NUrCRFkXjI8QbnPnlg/o.jpg", "is_closed": false, "url": "https://www.yelp.com/biz/taco-bell-san-francisco-19?adjust_creative=0T9f6kHMnzQCXJKBQD97qw&utm_campaign=yelp_api_v3&utm_medium=api_v3_business_search&utm_source=0T9f6kHMnzQCXJKBQD97qw", "review_count": 43, "categories": [{"alias": "hotdogs", "title": "Fast Food"}, {"alias": "chicken_wings", "title": "Chicken Wings"}, {"alias": "mexican", "title": "Mexican"}], "rating": 2.5, "coordinates": {"latitude": 37.743091, "longitude": -122.478439}, "transactions": [], "price": "$", "location": {"address1": "1150 Taraval St", "address2": "", "address3": "", "city": "San Francisco", "zip_code": "94116", "country": "US", "state": "CA", "display_address": ["1150 Taraval St", "San Francisco, CA 94116"]}, "phone": "+14157313314", "display_phone": "(415) 731-3314", "distance": 433.20278493599994}, {"id": "la-playa-taqueria-san-francisco", "name": "La Playa Taqueria", "image_url": "https://s3-media3.fl.yelpcdn.com/bphoto/YCk-H_LsPCnlt08QXmCm7Q/o.jpg", "is_closed": false, "url": "https://www.yelp.com/biz/la-playa-taqueria-san-francisco?adjust_creative=0T9f6kHMnzQCXJKBQD97qw&utm_campaign=yelp_api_v3&utm_medium=api_v3_business_search&utm_source=0T9f6kHMnzQCXJKBQD97qw", "review_count": 296, "categories": [{"alias": "mexican", "title": "Mexican"}], "rating": 3.0, "coordinates": {"latitude": 37.7529468387365, "longitude": -122.504629567266}, "transactions": ["pickup"], "price": "$", "location": {"address1": "3817 Noriega St", "address2": "", "address3": "", "city": "San Francisco", "zip_code": "94122", "country": "US", "state": "CA", "display_address": ["3817 Noriega St", "San Francisco, CA 94122"]}, "phone": "+14156812007", "display_phone": "(415) 681-2007", "distance": 2201.022380502}, {"id": "el-toreador-restaurant-san-francisco-2", "name": "El Toreador Restaurant", "image_url": "https://s3-media2.fl.yelpcdn.com/bphoto/0vlLKmqj7qLqu0viQm0dqA/o.jpg", "is_closed": false, "url": "https://www.yelp.com/biz/el-toreador-restaurant-san-francisco-2?adjust_creative=0T9f6kHMnzQCXJKBQD97qw&utm_campaign=yelp_api_v3&utm_medium=api_v3_business_search&utm_source=0T9f6kHMnzQCXJKBQD97qw", "review_count": 776, "categories": [{"alias": "mexican", "title": "Mexican"}, {"alias": "desserts", "title": "Desserts"}, {"alias": "seafood", "title": "Seafood"}], "rating": 3.5, "coordinates": {"latitude": 37.74046, "longitude": -122.46663}, "transactions": [], "price": "$$", "location": {"address1": "50 W Portal Ave", "address2": "", "address3": "", "city": "San Francisco", "zip_code": "94127", "country": "US", "state": "CA", "display_address": ["50 W Portal Ave", "San Francisco, CA 94127"]}, "phone": "+14155668104", "display_phone": "(415) 566-8104", "distance": 1506.5491367503998}, {"id": "el-rancho-grande-san-francisco", "name": "El Rancho Grande", "image_url": "https://s3-media3.fl.yelpcdn.com/bphoto/xnoOrXzLQ4pVdeYS2gdeGQ/o.jpg", "is_closed": false, "url": "https://www.yelp.com/biz/el-rancho-grande-san-francisco?adjust_creative=0T9f6kHMnzQCXJKBQD97qw&utm_campaign=yelp_api_v3&utm_medium=api_v3_business_search&utm_source=0T9f6kHMnzQCXJKBQD97qw", "review_count": 246, "categories": [{"alias": "tex-mex", "title": "Tex-Mex"}, {"alias": "mexican", "title": "Mexican"}], "rating": 3.5, "coordinates": {"latitude": 37.77752, "longitude": -122.43859}, "transactions": ["pickup"], "price": "$", "location": {"address1": "855 Divisadero St", "address2": "", "address3": "", "city": "San Francisco", "zip_code": "94117", "country": "US", "state": "CA", "display_address": ["855 Divisadero St", "San Francisco, CA 94117"]}, "phone": "+14156738226", "display_phone": "(415) 673-8226", "distance": 5532.10625}, {"id": "chipotle-mexican-grill-san-francisco-14", "name": "Chipotle Mexican Grill", "image_url": "https://s3-media4.fl.yelpcdn.com/bphoto/4cHyy3MACqjqXpI8mQMECw/o.jpg", "is_closed": false, "url": "https://www.yelp.com/biz/chipotle-mexican-grill-san-francisco-14?adjust_creative=0T9f6kHMnzQCXJKBQD97qw&utm_campaign=yelp_api_v3&utm_medium=api_v3_business_search&utm_source=0T9f6kHMnzQCXJKBQD97qw", "review_count": 131, "categories": [{"alias": "mexican", "title": "Mexican"}, {"alias": "hotdogs", "title": "Fast Food"}], "rating": 2.5, "coordinates": {"latitude": 37.7279087, "longitude": -122.4763826}, "transactions": [], "price": "$", "location": {"address1": "3251 20th Ave", "address2": "Space OP183", "address3": "", "city": "San Francisco", "zip_code": "94132", "country": "US", "state": "CA", "display_address": ["3251 20th Ave", "Space OP183", "San Francisco, CA 94132"]}, "phone": "+14154183048", "display_phone": "(415) 418-3048", "distance": 1751.882945282}, {"id": "la-fonda-san-francisco", "name": "La Fonda", "image_url": "https://s3-media2.fl.yelpcdn.com/bphoto/R0wsxyI8epoOX7jG5rNtyw/o.jpg", "is_closed": false, "url": "https://www.yelp.com/biz/la-fonda-san-francisco?adjust_creative=0T9f6kHMnzQCXJKBQD97qw&utm_campaign=yelp_api_v3&utm_medium=api_v3_business_search&utm_source=0T9f6kHMnzQCXJKBQD97qw", "review_count": 373, "categories": [{"alias": "mexican", "title": "Mexican"}], "rating": 3.0, "coordinates": {"latitude": 37.7642499, "longitude": -122.46553}, "transactions": [], "price": "$", "location": {"address1": "712 Irving St", "address2": null, "address3": "", "city": "San Francisco", "zip_code": "94122", "country": "US", "state": "CA", "display_address": ["712 Irving St", "San Francisco, CA 94122"]}, "phone": "+14156819205", "display_phone": "(415) 681-9205", "distance": 2863.239236392}, {"id": "taqueria-girasol-san-francisco", "name": "Taqueria Girasol", "image_url": "https://s3-media3.fl.yelpcdn.com/bphoto/aQO9Jfl0jfvbyB-fsggTmg/o.jpg", "is_closed": false, "url": "https://www.yelp.com/biz/taqueria-girasol-san-francisco?adjust_creative=0T9f6kHMnzQCXJKBQD97qw&utm_campaign=yelp_api_v3&utm_medium=api_v3_business_search&utm_source=0T9f6kHMnzQCXJKBQD97qw", "review_count": 73, "categories": [{"alias": "mexican", "title": "Mexican"}], "rating": 3.5, "coordinates": {"latitude": 37.7220764669253, "longitude": -122.478703679452}, "transactions": [], "price": "$", "location": {"address1": "1650 Holloway Ave", "address2": "", "address3": "", "city": "San Francisco", "zip_code": "94132", "country": "US", "state": "CA", "display_address": ["1650 Holloway Ave", "San Francisco, CA 94132"]}, "phone": "+14153381040", "display_phone": "(415) 338-1040", "distance": 2326.048786422}, {"id": "the-little-chihuahua-san-francisco", "name": "The Little Chihuahua", "image_url": "https://s3-media1.fl.yelpcdn.com/bphoto/b3cz02gzsidM9S20qdj2uQ/o.jpg", "is_closed": false, "url": "https://www.yelp.com/biz/the-little-chihuahua-san-francisco?adjust_creative=0T9f6kHMnzQCXJKBQD97qw&utm_campaign=yelp_api_v3&utm_medium=api_v3_business_search&utm_source=0T9f6kHMnzQCXJKBQD97qw", "review_count": 1312, "categories": [{"alias": "mexican", "title": "Mexican"}], "rating": 4.0, "coordinates": {"latitude": 37.7720399, "longitude": -122.43688}, "transactions": [], "price": "$$", "location": {"address1": "292 Divisadero St", "address2": "", "address3": "", "city": "San Francisco", "zip_code": "94117", "country": "US", "state": "CA", "display_address": ["292 Divisadero St", "San Francisco, CA 94117"]}, "phone": "+14152558225", "display_phone": "(415) 255-8225", "distance": 5223.11136066}, {"id": "chipotle-mexican-grill-san-francisco-5", "name": "Chipotle Mexican Grill", "image_url": "https://s3-media3.fl.yelpcdn.com/bphoto/wMurhyxZ2kSuit-zaTvsOw/o.jpg", "is_closed": false, "url": "https://www.yelp.com/biz/chipotle-mexican-grill-san-francisco-5?adjust_creative=0T9f6kHMnzQCXJKBQD97qw&utm_campaign=yelp_api_v3&utm_medium=api_v3_business_search&utm_source=0T9f6kHMnzQCXJKBQD97qw", "review_count": 159, "categories": [{"alias": "hotdogs", "title": "Fast Food"}, {"alias": "mexican", "title": "Mexican"}], "rating": 2.5, "coordinates": {"latitude": 37.7325056039412, "longitude": -122.490071435588}, "transactions": [], "price": "$", "location": {"address1": "1523 Sloat Blvd", "address2": "", "address3": "", "city": "San Francisco", "zip_code": "94132", "country": "US", "state": "CA", "display_address": ["1523 Sloat Blvd", "San Francisco, CA 94132"]}, "phone": "+14155922187", "display_phone": "(415) 592-2187", "distance": 1276.243312952}, {"id": "chinos-taqueria-san-francisco", "name": "Chino's Taqueria", "image_url": "https://s3-media4.fl.yelpcdn.com/bphoto/HRblqEntQ3Rq6l37xUd5Pw/o.jpg", "is_closed": false, "url": "https://www.yelp.com/biz/chinos-taqueria-san-francisco?adjust_creative=0T9f6kHMnzQCXJKBQD97qw&utm_campaign=yelp_api_v3&utm_medium=api_v3_business_search&utm_source=0T9f6kHMnzQCXJKBQD97qw", "review_count": 382, "categories": [{"alias": "mexican", "title": "Mexican"}], "rating": 4.0, "coordinates": {"latitude": 37.77603, "longitude": -122.49559}, "transactions": [], "price": "$", "location": {"address1": "3416 Balboa St", "address2": "", "address3": "", "city": "San Francisco", "zip_code": "94121", "country": "US", "state": "CA", "display_address": ["3416 Balboa St", "San Francisco, CA 94121"]}, "phone": "+14156689956", "display_phone": "(415) 668-9956", "distance": 3858.745256394}, {"id": "el-beach-burrito-san-francisco", "name": "El Beach Burrito", "image_url": "https://s3-media4.fl.yelpcdn.com/bphoto/FHJTYGDB_MdMs-qyvmjZkw/o.jpg", "is_closed": false, "url": "https://www.yelp.com/biz/el-beach-burrito-san-francisco?adjust_creative=0T9f6kHMnzQCXJKBQD97qw&utm_campaign=yelp_api_v3&utm_medium=api_v3_business_search&utm_source=0T9f6kHMnzQCXJKBQD97qw", "review_count": 233, "categories": [{"alias": "mexican", "title": "Mexican"}], "rating": 2.5, "coordinates": {"latitude": 37.7605193, "longitude": -122.5041095}, "transactions": [], "price": "$", "location": {"address1": "3914 Judah St", "address2": null, "address3": "", "city": "San Francisco", "zip_code": "94122", "country": "US", "state": "CA", "display_address": ["3914 Judah St", "San Francisco, CA 94122"]}, "phone": "+14157312004", "display_phone": "(415) 731-2004", "distance": 2697.2528743959997}, {"id": "marco-polo-italian-ice-cream-san-francisco", "name": "Marco Polo Italian Ice Cream", "image_url": "https://s3-media4.fl.yelpcdn.com/bphoto/O6QDkYE3RfefCHBXHDX4ZA/o.jpg", "is_closed": false, "url": "https://www.yelp.com/biz/marco-polo-italian-ice-cream-san-francisco?adjust_creative=0T9f6kHMnzQCXJKBQD97qw&utm_campaign=yelp_api_v3&utm_medium=api_v3_business_search&utm_source=0T9f6kHMnzQCXJKBQD97qw", "review_count": 1236, "categories": [{"alias": "icecream", "title": "Ice Cream & Frozen Yogurt"}, {"alias": "gelato", "title": "Gelato"}, {"alias": "desserts", "title": "Desserts"}], "rating": 4.5, "coordinates": {"latitude": 37.742691, "longitude": -122.481863}, "transactions": [], "price": "$", "location": {"address1": "1447 Taraval St", "address2": "", "address3": "", "city": "San Francisco", "zip_code": "94116", "country": "US", "state": "CA", "display_address": ["1447 Taraval St", "San Francisco, CA 94116"]}, "phone": "+14157312833", "display_phone": "(415) 731-2833", "distance": 129.4908438272}, {"id": "la-palma-mexicatessen-san-francisco", "name": "La Palma Mexicatessen", "image_url": "https://s3-media2.fl.yelpcdn.com/bphoto/ri9gXZL5zH_NHvWTczLdJg/o.jpg", "is_closed": false, "url": "https://www.yelp.com/biz/la-palma-mexicatessen-san-francisco?adjust_creative=0T9f6kHMnzQCXJKBQD97qw&utm_campaign=yelp_api_v3&utm_medium=api_v3_business_search&utm_source=0T9f6kHMnzQCXJKBQD97qw", "review_count": 521, "categories": [{"alias": "mexican", "title": "Mexican"}], "rating": 4.5, "coordinates": {"latitude": 37.7529792785645, "longitude": -122.409942626953}, "transactions": ["pickup"], "price": "$", "location": {"address1": "2884 24th St", "address2": "", "address3": "", "city": "San Francisco", "zip_code": "94110", "country": "US", "state": "CA", "display_address": ["2884 24th St", "San Francisco, CA 94110"]}, "phone": "+14156471500", "display_phone": "(415) 647-1500", "distance": 6552.2564152899995}], "total": 1025, "region": {"center": {"latitude": 37.74629319988506, "longitude": -122.46111287746997}}}