{"businesses": [{"id": "18-reasons-san-francisco", "name": "18 Reasons", "image_url": "https://s3-media2.fl.yelpcdn.com/bphoto/-FWlF4Mok81Kr4urcz_s3A/o.jpg", "is_closed": false, "url": "https://www.yelp.com/biz/18-reasons-san-francisco?adjust_creative=0T9f6kHMnzQCXJKBQD97qw&utm_campaign=yelp_api_v3&utm_medium=api_v3_business_search&utm_source=0T9f6kHMnzQCXJKBQD97qw", "review_count": 44, "categories": [{"alias": "venues", "title": "Venues & Event Spaces"}, {"alias": "cookingschools", "title": "Cooking Schools"}], "rating": 4.5, "coordinates": {"latitude": 37.7617, "longitude": -122.4254}, "transactions": [], "location": {"address1": "3674 18th St", "address2": "", "address3": "", "city": "San Francisco", "zip_code": "94110", "country": "US", "state": "CA", "display_address": ["3674 18th St", "San Francisco, CA 94110"]}, "phone": "+14155682710", "display_phone": "(415) 568-2710", "distance": 23.19422328972}, {"id": "bi-rite-market-san-francisco", "name": "Bi-Rite Market", "image_url": "https://s3-media2.fl.yelpcdn.com/bphoto/lrTjUHSGWcod9hSnyLmjZQ/o.jpg", "is_closed": false, "url": "https://www.yelp.com/biz/bi-rite-market-san-francisco?adjust_creative=0T9f6kHMnzQCXJKBQD97qw&utm_campaign=yelp_api_v3&utm_medium=api_v3_business_search&utm_source=0T9f6kHMnzQCXJKBQD97qw", "review_count": 867, "categories": [{"alias": "gourmet", "title": "Specialty Food"}, {"alias": "catering", "title": "Caterers"}, {"alias": "grocery", "title": "Grocery"}], "rating": 4.5, "coordinates": {"latitude": 37.7613794289775, "longitude": -122.424692944591}, "transactions": [], "price": "$$$", "location": {"address1": "3639 18th St", "address2": "", "address3": "", "city": "San Francisco", "zip_code": "94110", "country": "US", "state": "CA", "display_address": ["3639 18th St", "San Francisco, CA 94110"]}, "phone": "+14152419760", "display_phone": "(415) 241-9760", "distance": 63.74396986509999}, {"id": "tank18-san-francisco", "name": "Tank18", "image_url": "https://s3-media2.fl.yelpcdn.com/bphoto/uKpu3ufCsQELSG_X97qldg/o.jpg", "is_closed": false, "url": "https://www.yelp.com/biz/tank18-san-francisco?adjust_creative=0T9f6kHMnzQCXJKBQD97qw&utm_campaign=yelp_api_v3&utm_medium=api_v3_business_search&utm_source=0T9f6kHMnzQCXJKBQD97qw", "review_count": 97, "categories": [{"alias": "wine_bars", "title": "Wine Bars"}, {"alias": "venues", "title": "Venues & Event Spaces"}, {"alias": "wineries", "title": "Wineries"}], "rating": 4.0, "coordinates": {"latitude": 37.7742614746094, "longitude": -122.413642883301}, "transactions": [], "price": "$$", "location": {"address1": "1345 Howard St", "address2": "", "address3": "", "city": "San Francisco", "zip_code": "94103", "country": "US", "state": "CA", "display_address": ["1345 Howard St", "San Francisco, CA 94103"]}, "phone": "", "display_phone": "", "distance": 1755.6600662619999}, {"id": "jordans-kitchen-san-francisco", "name": "Jordan's Kitchen", "image_url": "https://s3-media1.fl.yelpcdn.com/bphoto/DYY2JBzYVH_S3Ee-tbGC6g/o.jpg", "is_closed": false, "url": "https://www.yelp.com/biz/jordans-kitchen-san-francisco?adjust_creative=0T9f6kHMnzQCXJKBQD97qw&utm_campaign=yelp_api_v3&utm_medium=api_v3_business_search&utm_source=0T9f6kHMnzQCXJKBQD97qw", "review_count": 223, "categories": [{"alias": "cookingschools", "title": "Cooking Schools"}, {"alias": "teambuilding", "title": "Team Building Activities"}, {"alias": "venues", "title": "Venues & Event Spaces"}], "rating": 5.0, "coordinates": {"latitude": 37.7714538574219, "longitude": -122.410682678223}, "transactions": [], "location": {"address1": "413 10th St", "address2": null, "address3": "", "city": "San Francisco", "zip_code": "94103", "country": "US", "state": "CA", "display_address": ["413 10th St", "San Francisco, CA 94103"]}, "phone": "+14158729160", "display_phone": "(415) 872-9160", "distance": 1702.6992618059999}, {"id": "la-happy-belly-san-francisco", "name": "La Happy Belly", "image_url": "https://s3-media2.fl.yelpcdn.com/bphoto/UgXOmbq3FZ7cmUj0o1eihg/o.jpg", "is_closed": false, "url": "https://www.yelp.com/biz/la-happy-belly-san-francisco?adjust_creative=0T9f6kHMnzQCXJKBQD97qw&utm_campaign=yelp_api_v3&utm_medium=api_v3_business_search&utm_source=0T9f6kHMnzQCXJKBQD97qw", "review_count": 7, "categories": [{"alias": "cookingschools", "title": "Cooking Schools"}, {"alias": "nutritionists", "title": "Nutritionists"}], "rating": 5.0, "coordinates": {"latitude": 37.750732421875, "longitude": -122.41983795166}, "transactions": [], "location": {"address1": "3470 25th St", "address2": null, "address3": "", "city": "San Francisco", "zip_code": "94110", "country": "US", "state": "CA", "display_address": ["3470 25th St", "San Francisco, CA 94110"]}, "phone": "+15104995859", "display_phone": "(510) 499-5859", "distance": 1293.0346837099999}, {"id": "food-body-me-san-francisco-2", "name": "Food Body Me", "image_url": "https://s3-media2.fl.yelpcdn.com/bphoto/tcNRoL8uQTA-whMctzlEUA/o.jpg", "is_closed": false, "url": "https://www.yelp.com/biz/food-body-me-san-francisco-2?adjust_creative=0T9f6kHMnzQCXJKBQD97qw&utm_campaign=yelp_api_v3&utm_medium=api_v3_business_search&utm_source=0T9f6kHMnzQCXJKBQD97qw", "review_count": 39, "categories": [{"alias": "yoga", "title": "Yoga"}, {"alias": "cookingschools", "title": "Cooking Schools"}], "rating": 2.5, "coordinates": {"latitude": 37.7652283, "longitude": -122.4266586}, "transactions": [], "location": {"address1": "264 Dolores St", "address2": null, "address3": "", "city": "San Francisco", "zip_code": "94103", "country": "US", "state": "CA", "display_address": ["264 Dolores St", "San Francisco, CA 94103"]}, "phone": "+14159670997", "display_phone": "(415) 967-0997", "distance": 430.309111149}, {"id": "sf-music-together-san-francisco", "name": "SF Music Together", "image_url": "https://s3-media1.fl.yelpcdn.com/bphoto/hrKUoeKuIVgQFP30NN_6QQ/o.jpg", "is_closed": false, "url": "https://www.yelp.com/biz/sf-music-together-san-francisco?adjust_creative=0T9f6kHMnzQCXJKBQD97qw&utm_campaign=yelp_api_v3&utm_medium=api_v3_business_search&utm_source=0T9f6kHMnzQCXJKBQD97qw", "review_count": 36, "categories": [{"alias": "specialtyschools", "title": "Specialty Schools"}, {"alias": "musicalinstrumentsandteachers", "title": "Musical Instruments & Teachers"}], "rating": 5.0, "coordinates": {"latitude": 37.76945, "longitude": -122.446}, "transactions": [], "price": "$$$", "location": {"address1": "1350 Waller St", "address2": "", "address3": "", "city": "San Francisco", "zip_code": "94117", "country": "US", "state": "CA", "display_address": ["1350 Waller St", "San Francisco, CA 94117"]}, "phone": "+14157451495", "display_phone": "(415) 745-1495", "distance": 2014.2864760179998}, {"id": "thai-cooking-with-sunshine-san-francisco-3", "name": "Thai Cooking With Sunshine", "image_url": "https://s3-media1.fl.yelpcdn.com/bphoto/g72rcE2zZEuMnNHP6idBiA/o.jpg", "is_closed": false, "url": "https://www.yelp.com/biz/thai-cooking-with-sunshine-san-francisco-3?adjust_creative=0T9f6kHMnzQCXJKBQD97qw&utm_campaign=yelp_api_v3&utm_medium=api_v3_business_search&utm_source=0T9f6kHMnzQCXJKBQD97qw", "review_count": 51, "categories": [{"alias": "cookingschools", "title": "Cooking Schools"}], "rating": 5.0, "coordinates": {"latitude": 37.764156, "longitude": -122.423813}, "transactions": [], "location": {"address1": "439 Guerrero St", "address2": null, "address3": "", "city": "San Francisco", "zip_code": "94110", "country": "US", "state": "CA", "display_address": ["439 Guerrero St", "San Francisco, CA 94110"]}, "phone": "+14154006165", "display_phone": "(415) 400-6165", "distance": 327.10606373859997}, {"id": "discover-wine-and-spirits-academy-san-francisco-2", "name": "Discover Wine & Spirits Academy", "image_url": "https://s3-media2.fl.yelpcdn.com/bphoto/B9nOlQqb91A3lWLTMjxekA/o.jpg", "is_closed": false, "url": "https://www.yelp.com/biz/discover-wine-and-spirits-academy-san-francisco-2?adjust_creative=0T9f6kHMnzQCXJKBQD97qw&utm_campaign=yelp_api_v3&utm_medium=api_v3_business_search&utm_source=0T9f6kHMnzQCXJKBQD97qw", "review_count": 15, "categories": [{"alias": "specialtyschools", "title": "Specialty Schools"}], "rating": 3.5, "coordinates": {"latitude": 37.78752, "longitude": -122.44747}, "transactions": [], "location": {"address1": "3200 California St", "address2": "", "address3": "", "city": "San Francisco", "zip_code": "94118", "country": "US", "state": "CA", "display_address": ["3200 California St", "San Francisco, CA 94118"]}, "phone": "+18004902850", "display_phone": "(800) 490-2850", "distance": 3454.5252364519997}, {"id": "urban-oasis-san-francisco-5", "name": "Urban Oasis", "image_url": "https://s3-media4.fl.yelpcdn.com/bphoto/r3wOebAF8iXNRUnK7YM8lQ/o.jpg", "is_closed": false, "url": "https://www.yelp.com/biz/urban-oasis-san-francisco-5?adjust_creative=0T9f6kHMnzQCXJKBQD97qw&utm_campaign=yelp_api_v3&utm_medium=api_v3_business_search&utm_source=0T9f6kHMnzQCXJKBQD97qw", "review_count": 74, "categories": [{"alias": "massage", "title": "Massage"}, {"alias": "specialtyschools", "title": "Specialty Schools"}, {"alias": "cosmetics", "title": "Cosmetics & Beauty Supply"}], "rating": 5.0, "coordinates": {"latitude": 37.757329, "longitude": -122.41897}, "transactions": [], "price": "$$", "location": {"address1": "2489 Mission St", "address2": "Ste 35", "address3": "", "city": "San Francisco", "zip_code": "94110", "country": "US", "state": "CA", "display_address": ["2489 Mission St", "Ste 35", "San Francisco, CA 94110"]}, "phone": "+14154248462", "display_phone": "(415) 424-8462", "distance": 731.1763828738}, {"id": "the-chapel-san-francisco", "name": "The Chapel", "image_url": "https://s3-media4.fl.yelpcdn.com/bphoto/mOkNOUQGNefSVTqcLB4s-w/o.jpg", "is_closed": false, "url": "https://www.yelp.com/biz/the-chapel-san-francisco?adjust_creative=0T9f6kHMnzQCXJKBQD97qw&utm_campaign=yelp_api_v3&utm_medium=api_v3_business_search&utm_source=0T9f6kHMnzQCXJKBQD97qw", "review_count": 224, "categories": [{"alias": "musicvenues", "title": "Music Venues"}, {"alias": "bars", "title": "Bars"}, {"alias": "venues", "title": "Venues & Event Spaces"}], "rating": 3.5, "coordinates": {"latitude": 37.7605209350586, "longitude": -122.421188354492}, "transactions": [], "price": "$$", "location": {"address1": "777 Valencia St", "address2": "", "address3": "", "city": "San Francisco", "zip_code": "94110", "country": "US", "state": "CA", "display_address": ["777 Valencia St", "San Francisco, CA 94110"]}, "phone": "+14155515157", "display_phone": "(415) 551-5157", "distance": 385.8125016758}, {"id": "orbit-room-san-francisco", "name": "Orbit Room", "image_url": "https://s3-media1.fl.yelpcdn.com/bphoto/xSdyfPxmLxrIlWK_mSE3nA/o.jpg", "is_closed": false, "url": "https://www.yelp.com/biz/orbit-room-san-francisco?adjust_creative=0T9f6kHMnzQCXJKBQD97qw&utm_campaign=yelp_api_v3&utm_medium=api_v3_business_search&utm_source=0T9f6kHMnzQCXJKBQD97qw", "review_count": 444, "categories": [{"alias": "cocktailbars", "title": "Cocktail Bars"}, {"alias": "pizza", "title": "Pizza"}, {"alias": "venues", "title": "Venues & Event Spaces"}], "rating": 3.5, "coordinates": {"latitude": 37.7707003898946, "longitude": -122.425268754333}, "transactions": [], "price": "$$", "location": {"address1": "1900 Market St", "address2": "", "address3": "", "city": "San Francisco", "zip_code": "94102", "country": "US", "state": "CA", "display_address": ["1900 Market St", "San Francisco, CA 94102"]}, "phone": "+14159326655", "display_phone": "(415) 932-6655", "distance": 1023.172425343}, {"id": "woods-cervecer\u00eda-san-francisco-2", "name": "Woods Cervecer\u00eda", "image_url": "https://s3-media1.fl.yelpcdn.com/bphoto/PFPxHJYsLHrnu473K9Poog/o.jpg", "is_closed": false, "url": "https://www.yelp.com/biz/woods-cervecer%C3%ADa-san-francisco-2?adjust_creative=0T9f6kHMnzQCXJKBQD97qw&utm_campaign=yelp_api_v3&utm_medium=api_v3_business_search&utm_source=0T9f6kHMnzQCXJKBQD97qw", "review_count": 162, "categories": [{"alias": "bars", "title": "Bars"}, {"alias": "breweries", "title": "Breweries"}, {"alias": "venues", "title": "Venues & Event Spaces"}], "rating": 4.0, "coordinates": {"latitude": 37.7610893249512, "longitude": -122.428520202637}, "transactions": [], "price": "$$", "location": {"address1": "3801 18th St", "address2": "", "address3": "", "city": "San Francisco", "zip_code": "94114", "country": "US", "state": "CA", "display_address": ["3801 18th St", "San Francisco, CA 94114"]}, "phone": "+14152128412", "display_phone": "(415) 212-8412", "distance": 269.8199810052}, {"id": "san-francisco-unified-school-district-san-francisco-3", "name": "San Francisco Unified School District", "image_url": "https://s3-media4.fl.yelpcdn.com/bphoto/cvahjsPGEXz62I3ziEa-NQ/o.jpg", "is_closed": false, "url": "https://www.yelp.com/biz/san-francisco-unified-school-district-san-francisco-3?adjust_creative=0T9f6kHMnzQCXJKBQD97qw&utm_campaign=yelp_api_v3&utm_medium=api_v3_business_search&utm_source=0T9f6kHMnzQCXJKBQD97qw", "review_count": 16, "categories": [{"alias": "specialtyschools", "title": "Specialty Schools"}], "rating": 5.0, "coordinates": {"latitude": 37.745527266083, "longitude": -122.45263581671}, "transactions": [], "location": {"address1": "555 Portola Dr", "address2": null, "address3": "", "city": "San Francisco", "zip_code": "94131", "country": "US", "state": "CA", "display_address": ["555 Portola Dr", "San Francisco, CA 94131"]}, "phone": "+14156955700", "display_phone": "(415) 695-5700", "distance": 2981.312649776}, {"id": "raise-the-macallan-san-francisco", "name": "Raise The Macallan", "image_url": "https://s3-media2.fl.yelpcdn.com/bphoto/slNbHoCGGjZbkAx6X8I1Iw/o.jpg", "is_closed": false, "url": "https://www.yelp.com/biz/raise-the-macallan-san-francisco?adjust_creative=0T9f6kHMnzQCXJKBQD97qw&utm_campaign=yelp_api_v3&utm_medium=api_v3_business_search&utm_source=0T9f6kHMnzQCXJKBQD97qw", "review_count": 22, "categories": [{"alias": "venues", "title": "Venues & Event Spaces"}], "rating": 4.0, "coordinates": {"latitude": 37.7876901086184, "longitude": -122.421412952453}, "transactions": [], "location": {"address1": "1290 Sutter St", "address2": "", "address3": "The Regency Ballroom", "city": "San Francisco", "zip_code": "94109", "country": "US", "state": "CA", "display_address": ["1290 Sutter St", "The Regency Ballroom", "San Francisco, CA 94109"]}, "phone": "", "display_phone": "", "distance": 2933.4215881879995}, {"id": "finefoods-at-home-san-francisco", "name": "FineFoods at Home", "image_url": "https://s3-media1.fl.yelpcdn.com/bphoto/q0Pdol0V7CgJ81Uk__asvw/o.jpg", "is_closed": false, "url": "https://www.yelp.com/biz/finefoods-at-home-san-francisco?adjust_creative=0T9f6kHMnzQCXJKBQD97qw&utm_campaign=yelp_api_v3&utm_medium=api_v3_business_search&utm_source=0T9f6kHMnzQCXJKBQD97qw", "review_count": 8, "categories": [{"alias": "catering", "title": "Caterers"}, {"alias": "cookingclasses", "title": "Cooking Classes"}], "rating": 5.0, "coordinates": {"latitude": 37.7742691040039, "longitude": -122.444671630859}, "transactions": [], "price": "$$", "location": {"address1": "1700 Hayes St", "address2": null, "address3": "", "city": "San Francisco", "zip_code": "94117", "country": "US", "state": "CA", "display_address": ["1700 Hayes St", "San Francisco, CA 94117"]}, "phone": "+14159027703", "display_phone": "(415) 902-7703", "distance": 2210.51217568}, {"id": "dna-lounge-san-francisco", "name": "DNA Lounge", "image_url": "https://s3-media1.fl.yelpcdn.com/bphoto/_yLORzFqlll-0WXqwAUQ1Q/o.jpg", "is_closed": false, "url": "https://www.yelp.com/biz/dna-lounge-san-francisco?adjust_creative=0T9f6kHMnzQCXJKBQD97qw&utm_campaign=yelp_api_v3&utm_medium=api_v3_business_search&utm_source=0T9f6kHMnzQCXJKBQD97qw", "review_count": 702, "categories": [{"alias": "danceclubs", "title": "Dance Clubs"}, {"alias": "venues", "title": "Venues & Event Spaces"}, {"alias": "musicvenues", "title": "Music Venues"}], "rating": 3.5, "coordinates": {"latitude": 37.77098, "longitude": -122.41271}, "transactions": [], "price": "$$", "location": {"address1": "375 11th St", "address2": "", "address3": "", "city": "San Francisco", "zip_code": "94103", "country": "US", "state": "CA", "display_address": ["375 11th St", "San Francisco, CA 94103"]}, "phone": "+14156261409", "display_phone": "(415) 626-1409", "distance": 1547.5049085424}, {"id": "sips-n-sews-san-francisco", "name": "Sips N Sews", "image_url": "https://s3-media1.fl.yelpcdn.com/bphoto/eQDR0GNPHENmz_33XCXoXQ/o.jpg", "is_closed": false, "url": "https://www.yelp.com/biz/sips-n-sews-san-francisco?adjust_creative=0T9f6kHMnzQCXJKBQD97qw&utm_campaign=yelp_api_v3&utm_medium=api_v3_business_search&utm_source=0T9f6kHMnzQCXJKBQD97qw", "review_count": 16, "categories": [{"alias": "sewingalterations", "title": "Sewing & Alterations"}, {"alias": "specialtyschools", "title": "Specialty Schools"}], "rating": 4.5, "coordinates": {"latitude": 37.787606, "longitude": -122.4195878}, "transactions": [], "location": {"address1": "1167 Sutter St", "address2": null, "address3": "", "city": "San Francisco", "zip_code": "94109", "country": "US", "state": "CA", "display_address": ["1167 Sutter St", "San Francisco, CA 94109"]}, "phone": "+14158142036", "display_phone": "(415) 814-2036", "distance": 2947.6747078979997}, {"id": "buzzworks-san-francisco", "name": "BuzzWorks", "image_url": "https://s3-media1.fl.yelpcdn.com/bphoto/pAkNQgjE_Y7SAUKA5kwVaQ/o.jpg", "is_closed": false, "url": "https://www.yelp.com/biz/buzzworks-san-francisco?adjust_creative=0T9f6kHMnzQCXJKBQD97qw&utm_campaign=yelp_api_v3&utm_medium=api_v3_business_search&utm_source=0T9f6kHMnzQCXJKBQD97qw", "review_count": 64, "categories": [{"alias": "sportsbars", "title": "Sports Bars"}, {"alias": "beerbar", "title": "Beer Bar"}, {"alias": "venues", "title": "Venues & Event Spaces"}], "rating": 4.5, "coordinates": {"latitude": 37.7713179, "longitude": -122.4129022}, "transactions": [], "price": "$$", "location": {"address1": "365 11th St", "address2": "", "address3": "", "city": "San Francisco", "zip_code": "94103", "country": "US", "state": "CA", "display_address": ["365 11th St", "San Francisco, CA 94103"]}, "phone": "+14155581533", "display_phone": "(415) 558-1533", "distance": 1548.797594804}, {"id": "intercontinental-san-francisco-san-francisco", "name": "InterContinental San Francisco", "image_url": "https://s3-media4.fl.yelpcdn.com/bphoto/67VRiilnFWvWf8ojQmM3IA/o.jpg", "is_closed": false, "url": "https://www.yelp.com/biz/intercontinental-san-francisco-san-francisco?adjust_creative=0T9f6kHMnzQCXJKBQD97qw&utm_campaign=yelp_api_v3&utm_medium=api_v3_business_search&utm_source=0T9f6kHMnzQCXJKBQD97qw", "review_count": 659, "categories": [{"alias": "hotels", "title": "Hotels"}, {"alias": "venues", "title": "Venues & Event Spaces"}], "rating": 4.0, "coordinates": {"latitude": 37.7816711247802, "longitude": -122.404625415802}, "transactions": [], "price": "$$$", "location": {"address1": "888 Howard St", "address2": "", "address3": "", "city": "San Francisco", "zip_code": "94103", "country": "US", "state": "CA", "display_address": ["888 Howard St", "San Francisco, CA 94103"]}, "phone": "+14156166500", "display_phone": "(415) 616-6500", "distance": 2892.316147776}], "total": 26, "region": {"center": {"latitude": 37.761498, "longitude": -122.425402}}}