{"businesses": [{"id": "49-square-catering-san-francisco", "name": "49 Square Catering", "image_url": "https://s3-media3.fl.yelpcdn.com/bphoto/VhSBwZLGgY5ekNfg_xY77Q/o.jpg", "is_closed": false, "url": "https://www.yelp.com/biz/49-square-catering-san-francisco?adjust_creative=0T9f6kHMnzQCXJKBQD97qw&utm_campaign=yelp_api_v3&utm_medium=api_v3_business_search&utm_source=0T9f6kHMnzQCXJKBQD97qw", "review_count": 18, "categories": [{"alias": "catering", "title": "Caterers"}], "rating": 5.0, "coordinates": {"latitude": 37.7504653930664, "longitude": -122.394950866699}, "transactions": [], "location": {"address1": "1760M Cesar Chavez St", "address2": null, "address3": "", "city": "San Francisco", "zip_code": "94124", "country": "US", "state": "CA", "display_address": ["1760M Cesar Chavez St", "San Francisco, CA 94124"]}, "phone": "+14158345348", "display_phone": "(415) 834-5348", "distance": 3828.1167803159997}, {"id": "chef-pepes-saucy-lunchbox-el-granada", "name": "Chef Pepe's Saucy Lunchbox", "image_url": "https://s3-media4.fl.yelpcdn.com/bphoto/O9_jBP_KubgRCVU2PcBNzw/o.jpg", "is_closed": false, "url": "https://www.yelp.com/biz/chef-pepes-saucy-lunchbox-el-granada?adjust_creative=0T9f6kHMnzQCXJKBQD97qw&utm_campaign=yelp_api_v3&utm_medium=api_v3_business_search&utm_source=0T9f6kHMnzQCXJKBQD97qw", "review_count": 1, "categories": [{"alias": "fooddeliveryservices", "title": "Food Delivery Services"}], "rating": 5.0, "coordinates": {"latitude": 37.502094, "longitude": -122.46968}, "transactions": [], "location": {"address1": "20 Avenue Portola", "address2": null, "address3": "", "city": "El Granada", "zip_code": "94018", "country": "US", "state": "CA", "display_address": ["20 Avenue Portola", "El Granada, CA 94018"]}, "phone": "+14156909867", "display_phone": "(415) 690-9867", "distance": 28932.43932286}, {"id": "grand-hyatt-san-francisco-san-francisco", "name": "Grand Hyatt San Francisco", "image_url": "https://s3-media1.fl.yelpcdn.com/bphoto/nS51gDLDZ_ssg-FIG-ORug/o.jpg", "is_closed": false, "url": "https://www.yelp.com/biz/grand-hyatt-san-francisco-san-francisco?adjust_creative=0T9f6kHMnzQCXJKBQD97qw&utm_campaign=yelp_api_v3&utm_medium=api_v3_business_search&utm_source=0T9f6kHMnzQCXJKBQD97qw", "review_count": 568, "categories": [{"alias": "hotels", "title": "Hotels"}, {"alias": "venues", "title": "Venues & Event Spaces"}], "rating": 4.0, "coordinates": {"latitude": 37.7887472977753, "longitude": -122.407129131949}, "transactions": [], "price": "$$$", "location": {"address1": "345 Stockton St", "address2": "", "address3": "", "city": "San Francisco", "zip_code": "94108", "country": "US", "state": "CA", "display_address": ["345 Stockton St", "San Francisco, CA 94108"]}, "phone": "+14153981234", "display_phone": "(415) 398-1234", "distance": 4028.498117726}, {"id": "jw-marriott-san-francisco-union-square-san-francisco-2", "name": "JW Marriott San Francisco Union Square", "image_url": "https://s3-media2.fl.yelpcdn.com/bphoto/-PApvUD61yRGXokcK5tqcw/o.jpg", "is_closed": false, "url": "https://www.yelp.com/biz/jw-marriott-san-francisco-union-square-san-francisco-2?adjust_creative=0T9f6kHMnzQCXJKBQD97qw&utm_campaign=yelp_api_v3&utm_medium=api_v3_business_search&utm_source=0T9f6kHMnzQCXJKBQD97qw", "review_count": 310, "categories": [{"alias": "hotels", "title": "Hotels"}, {"alias": "venues", "title": "Venues & Event Spaces"}], "rating": 4.0, "coordinates": {"latitude": 37.7883464, "longitude": -122.4102494}, "transactions": [], "price": "$$$", "location": {"address1": "515 Mason St", "address2": null, "address3": "", "city": "San Francisco", "zip_code": "94102", "country": "US", "state": "CA", "display_address": ["515 Mason St", "San Francisco, CA 94102"]}, "phone": "+14157718600", "display_phone": "(415) 771-8600", "distance": 3808.7837788959996}, {"id": "the-westin-st-francis-san-francisco-on-union-square-san-francisco", "name": "The Westin St. Francis San Francisco on Union Square", "image_url": "https://s3-media1.fl.yelpcdn.com/bphoto/7R7EH8zbMSJp_7cma4T5Tg/o.jpg", "is_closed": false, "url": "https://www.yelp.com/biz/the-westin-st-francis-san-francisco-on-union-square-san-francisco?adjust_creative=0T9f6kHMnzQCXJKBQD97qw&utm_campaign=yelp_api_v3&utm_medium=api_v3_business_search&utm_source=0T9f6kHMnzQCXJKBQD97qw", "review_count": 1159, "categories": [{"alias": "hotels", "title": "Hotels"}], "rating": 3.5, "coordinates": {"latitude": 37.7877520297158, "longitude": -122.408389763786}, "transactions": [], "price": "$$$", "location": {"address1": "335 Powell St", "address2": "", "address3": "", "city": "San Francisco", "zip_code": "94102", "country": "US", "state": "CA", "display_address": ["335 Powell St", "San Francisco, CA 94102"]}, "phone": "+14153977000", "display_phone": "(415) 397-7000", "distance": 3872.6639552519996}, {"id": "parc-55-san-francisco-a-hilton-hotel-san-francisco", "name": "Parc 55 San Francisco - A Hilton Hotel", "image_url": "https://s3-media1.fl.yelpcdn.com/bphoto/7n4UB1Ufa5Ok93UC_v18ag/o.jpg", "is_closed": false, "url": "https://www.yelp.com/biz/parc-55-san-francisco-a-hilton-hotel-san-francisco?adjust_creative=0T9f6kHMnzQCXJKBQD97qw&utm_campaign=yelp_api_v3&utm_medium=api_v3_business_search&utm_source=0T9f6kHMnzQCXJKBQD97qw", "review_count": 1056, "categories": [{"alias": "hotels", "title": "Hotels"}], "rating": 3.5, "coordinates": {"latitude": 37.7848777770996, "longitude": -122.408966064453}, "transactions": [], "price": "$$$", "location": {"address1": "55 Cyril Magnin St", "address2": null, "address3": "", "city": "San Francisco", "zip_code": "94102", "country": "US", "state": "CA", "display_address": ["55 Cyril Magnin St", "San Francisco, CA 94102"]}, "phone": "+14153928000", "display_phone": "(415) 392-8000", "distance": 3594.3100948419997}, {"id": "hilton-san-francisco-union-square-san-francisco-5", "name": "Hilton San Francisco Union Square", "image_url": "https://s3-media3.fl.yelpcdn.com/bphoto/l2_eJbNzfuXmpJYtyHbArg/o.jpg", "is_closed": false, "url": "https://www.yelp.com/biz/hilton-san-francisco-union-square-san-francisco-5?adjust_creative=0T9f6kHMnzQCXJKBQD97qw&utm_campaign=yelp_api_v3&utm_medium=api_v3_business_search&utm_source=0T9f6kHMnzQCXJKBQD97qw", "review_count": 963, "categories": [{"alias": "hotels", "title": "Hotels"}], "rating": 3.0, "coordinates": {"latitude": 37.7859815335822, "longitude": -122.410844838759}, "transactions": [], "price": "$$$", "location": {"address1": "333 O'Farrell St", "address2": "", "address3": "", "city": "San Francisco", "zip_code": "94102", "country": "US", "state": "CA", "display_address": ["333 O'Farrell St", "San Francisco, CA 94102"]}, "phone": "+14157711400", "display_phone": "(415) 771-1400", "distance": 3583.6639888739996}], "total": 7, "region": {"center": {"latitude": 37.67218317466579, "longitude": -122.43644714355469}}}