{"businesses": [{"id": "academy-of-art-university-san-francisco-43", "name": "Academy of Art University", "image_url": "https://s3-media1.fl.yelpcdn.com/bphoto/fhKF_GluPuQdGgKHo9oZdw/o.jpg", "is_closed": false, "url": "https://www.yelp.com/biz/academy-of-art-university-san-francisco-43?adjust_creative=0T9f6kHMnzQCXJKBQD97qw&utm_campaign=yelp_api_v3&utm_medium=api_v3_business_search&utm_source=0T9f6kHMnzQCXJKBQD97qw", "review_count": 183, "categories": [{"alias": "collegeuniv", "title": "Colleges & Universities"}], "rating": 2.5, "coordinates": {"latitude": 37.7878939, "longitude": -122.4005542}, "transactions": [], "location": {"address1": "79 New Montgomery St", "address2": "", "address3": "", "city": "San Francisco", "zip_code": "94105", "country": "US", "state": "CA", "display_address": ["79 New Montgomery St", "San Francisco, CA 94105"]}, "phone": "+14152742200", "display_phone": "(415) 274-2200", "distance": 1145.453538624}, {"id": "academy-of-art-university-san-francisco-9", "name": "Academy Of Art University", "image_url": "https://s3-media2.fl.yelpcdn.com/bphoto/96MCQKv-2fY8VvjURn_V3w/o.jpg", "is_closed": false, "url": "https://www.yelp.com/biz/academy-of-art-university-san-francisco-9?adjust_creative=0T9f6kHMnzQCXJKBQD97qw&utm_campaign=yelp_api_v3&utm_medium=api_v3_business_search&utm_source=0T9f6kHMnzQCXJKBQD97qw", "review_count": 2, "categories": [{"alias": "collegeuniv", "title": "Colleges & Universities"}], "rating": 4.0, "coordinates": {"latitude": 37.7862541776957, "longitude": -122.399421930313}, "transactions": [], "location": {"address1": "180 New Montgomery", "address2": "", "address3": "", "city": "San Francisco", "zip_code": "94105", "country": "US", "state": "CA", "display_address": ["180 New Montgomery", "San Francisco, CA 94105"]}, "phone": "+18005442787", "display_phone": "(800) 544-2787", "distance": 1296.7685134439998}, {"id": "academy-of-art-university-san-francisco-10", "name": "Academy Of Art University", "image_url": "https://s3-media4.fl.yelpcdn.com/bphoto/tRJlMe4zBLA34XX_OyYBlg/o.jpg", "is_closed": false, "url": "https://www.yelp.com/biz/academy-of-art-university-san-francisco-10?adjust_creative=0T9f6kHMnzQCXJKBQD97qw&utm_campaign=yelp_api_v3&utm_medium=api_v3_business_search&utm_source=0T9f6kHMnzQCXJKBQD97qw", "review_count": 4, "categories": [{"alias": "artschools", "title": "Art Schools"}], "rating": 2.5, "coordinates": {"latitude": 37.7824551612139, "longitude": -122.419114038348}, "transactions": [], "location": {"address1": "625 Polk St", "address2": "", "address3": "", "city": "San Francisco", "zip_code": "94109", "country": "US", "state": "CA", "display_address": ["625 Polk St", "San Francisco, CA 94109"]}, "phone": "+18005442787", "display_phone": "(800) 544-2787", "distance": 1043.615469028}, {"id": "academy-of-art-university-san-francisco-8", "name": "Academy Of Art University", "image_url": "https://s3-media2.fl.yelpcdn.com/bphoto/qgQziDc3lmZa_HotEb2Hrw/o.jpg", "is_closed": false, "url": "https://www.yelp.com/biz/academy-of-art-university-san-francisco-8?adjust_creative=0T9f6kHMnzQCXJKBQD97qw&utm_campaign=yelp_api_v3&utm_medium=api_v3_business_search&utm_source=0T9f6kHMnzQCXJKBQD97qw", "review_count": 1, "categories": [{"alias": "collegeuniv", "title": "Colleges & Universities"}], "rating": 1.0, "coordinates": {"latitude": 37.7831950389301, "longitude": -122.392078970096}, "transactions": [], "location": {"address1": "60 Federal St", "address2": "", "address3": "", "city": "San Francisco", "zip_code": "94107", "country": "US", "state": "CA", "display_address": ["60 Federal St", "San Francisco, CA 94107"]}, "phone": "+18005442787", "display_phone": "(800) 544-2787", "distance": 2023.12304009}, {"id": "academy-of-art-university-galleries-san-francisco", "name": "Academy of Art University Galleries", "image_url": "https://s3-media2.fl.yelpcdn.com/bphoto/2kwimcpVE-gbvdveF07Q_A/o.jpg", "is_closed": false, "url": "https://www.yelp.com/biz/academy-of-art-university-galleries-san-francisco?adjust_creative=0T9f6kHMnzQCXJKBQD97qw&utm_campaign=yelp_api_v3&utm_medium=api_v3_business_search&utm_source=0T9f6kHMnzQCXJKBQD97qw", "review_count": 3, "categories": [{"alias": "galleries", "title": "Art Galleries"}], "rating": 4.5, "coordinates": {"latitude": 37.8072616960452, "longitude": -122.41963507478}, "transactions": [], "price": "$", "location": {"address1": "2801 Leavenworth Ave", "address2": "Ste 104", "address3": "", "city": "San Francisco", "zip_code": "94133", "country": "US", "state": "CA", "display_address": ["2801 Leavenworth Ave", "Ste 104", "San Francisco, CA 94133"]}, "phone": "+14156186236", "display_phone": "(415) 618-6236", "distance": 1946.3422333599997}, {"id": "san-francisco-art-institute-san-francisco", "name": "San Francisco Art Institute", "image_url": "https://s3-media4.fl.yelpcdn.com/bphoto/PKo6dWZwIw4OfH99E_D5JQ/o.jpg", "is_closed": false, "url": "https://www.yelp.com/biz/san-francisco-art-institute-san-francisco?adjust_creative=0T9f6kHMnzQCXJKBQD97qw&utm_campaign=yelp_api_v3&utm_medium=api_v3_business_search&utm_source=0T9f6kHMnzQCXJKBQD97qw", "review_count": 68, "categories": [{"alias": "collegeuniv", "title": "Colleges & Universities"}, {"alias": "artschools", "title": "Art Schools"}, {"alias": "galleries", "title": "Art Galleries"}], "rating": 4.0, "coordinates": {"latitude": 37.8037376403809, "longitude": -122.417190551758}, "transactions": [], "price": "$$$$", "location": {"address1": "800 Chestnut St", "address2": "", "address3": "", "city": "San Francisco", "zip_code": "94133", "country": "US", "state": "CA", "display_address": ["800 Chestnut St", "San Francisco, CA 94133"]}, "phone": "+14157717020", "display_phone": "(415) 771-7020", "distance": 1508.483627804}, {"id": "fashion-institute-of-design-and-merchandising-san-francisco-3", "name": "Fashion Institute Of Design & Merchandising", "image_url": "https://s3-media2.fl.yelpcdn.com/bphoto/scg6GCXJnuZe1kWCl7E7pw/o.jpg", "is_closed": false, "url": "https://www.yelp.com/biz/fashion-institute-of-design-and-merchandising-san-francisco-3?adjust_creative=0T9f6kHMnzQCXJKBQD97qw&utm_campaign=yelp_api_v3&utm_medium=api_v3_business_search&utm_source=0T9f6kHMnzQCXJKBQD97qw", "review_count": 37, "categories": [{"alias": "collegeuniv", "title": "Colleges & Universities"}], "rating": 3.0, "coordinates": {"latitude": 37.786996, "longitude": -122.406492}, "transactions": [], "location": {"address1": "55 Stockton St", "address2": "", "address3": "", "city": "San Francisco", "zip_code": "94108", "country": "US", "state": "CA", "display_address": ["55 Stockton St", "San Francisco, CA 94108"]}, "phone": "+14156755200", "display_phone": "(415) 675-5200", "distance": 704.631574859}, {"id": "new-montgomery-street-gallery-san-francisco", "name": "New Montgomery Street Gallery", "image_url": "https://s3-media1.fl.yelpcdn.com/bphoto/OQFHc0wUSsW4BWmZO2QMtg/o.jpg", "is_closed": false, "url": "https://www.yelp.com/biz/new-montgomery-street-gallery-san-francisco?adjust_creative=0T9f6kHMnzQCXJKBQD97qw&utm_campaign=yelp_api_v3&utm_medium=api_v3_business_search&utm_source=0T9f6kHMnzQCXJKBQD97qw", "review_count": 1, "categories": [{"alias": "galleries", "title": "Art Galleries"}], "rating": 3.0, "coordinates": {"latitude": 37.7878845, "longitude": -122.4007731}, "transactions": [], "location": {"address1": "79 New Montgomery St", "address2": "", "address3": "", "city": "San Francisco", "zip_code": "94105", "country": "US", "state": "CA", "display_address": ["79 New Montgomery St", "San Francisco, CA 94105"]}, "phone": "+14156186115", "display_phone": "(415) 618-6115", "distance": 1139.0155348879998}, {"id": "the-art-institute-of-california-san-francisco-san-francisco-2", "name": "The Art Institute of California - San Francisco", "image_url": "https://s3-media1.fl.yelpcdn.com/bphoto/zC20c49z9bpEO5mnQ3_UKA/o.jpg", "is_closed": false, "url": "https://www.yelp.com/biz/the-art-institute-of-california-san-francisco-san-francisco-2?adjust_creative=0T9f6kHMnzQCXJKBQD97qw&utm_campaign=yelp_api_v3&utm_medium=api_v3_business_search&utm_source=0T9f6kHMnzQCXJKBQD97qw", "review_count": 36, "categories": [{"alias": "artschools", "title": "Art Schools"}, {"alias": "cookingschools", "title": "Cooking Schools"}], "rating": 2.5, "coordinates": {"latitude": 37.780517897427, "longitude": -122.41328895092}, "transactions": [], "location": {"address1": "10 United Nations Plz", "address2": "", "address3": "", "city": "San Francisco", "zip_code": "94102", "country": "US", "state": "CA", "display_address": ["10 United Nations Plz", "San Francisco, CA 94102"]}, "phone": "+18884933261", "display_phone": "(888) 493-3261", "distance": 1112.6752096136}, {"id": "kiril-hristov-studio-san-francisco", "name": "Kiril Hristov Studio", "image_url": "", "is_closed": false, "url": "https://www.yelp.com/biz/kiril-hristov-studio-san-francisco?adjust_creative=0T9f6kHMnzQCXJKBQD97qw&utm_campaign=yelp_api_v3&utm_medium=api_v3_business_search&utm_source=0T9f6kHMnzQCXJKBQD97qw", "review_count": 3, "categories": [{"alias": "artclasses", "title": "Art Classes"}], "rating": 5.0, "coordinates": {"latitude": 37.76739, "longitude": -122.4072}, "transactions": [], "location": {"address1": "151 Potrero Ave", "address2": null, "address3": "", "city": "San Francisco", "zip_code": "94103", "country": "US", "state": "CA", "display_address": ["151 Potrero Ave", "San Francisco, CA 94103"]}, "phone": "+19177707123", "display_phone": "(917) 770-7123", "distance": 2585.3598094139998}, {"id": "smaart-gallery-and-studio-san-francisco", "name": "SMAart Gallery & Studio", "image_url": "https://s3-media1.fl.yelpcdn.com/bphoto/7Skb08snOTXUgIxGZIiMhA/o.jpg", "is_closed": false, "url": "https://www.yelp.com/biz/smaart-gallery-and-studio-san-francisco?adjust_creative=0T9f6kHMnzQCXJKBQD97qw&utm_campaign=yelp_api_v3&utm_medium=api_v3_business_search&utm_source=0T9f6kHMnzQCXJKBQD97qw", "review_count": 7, "categories": [{"alias": "galleries", "title": "Art Galleries"}, {"alias": "artschools", "title": "Art Schools"}, {"alias": "artclasses", "title": "Art Classes"}], "rating": 5.0, "coordinates": {"latitude": 37.787834, "longitude": -122.417557}, "transactions": [], "price": "$$", "location": {"address1": "1045 Sutter St", "address2": null, "address3": "", "city": "San Francisco", "zip_code": "94109", "country": "US", "state": "CA", "display_address": ["1045 Sutter St", "San Francisco, CA 94109"]}, "phone": "+14159627877", "display_phone": "(415) 962-7877", "distance": 488.94625090579996}, {"id": "san-francisco-school-of-digital-filmmaking-san-francisco-4", "name": "San Francisco School of Digital Filmmaking", "image_url": "https://s3-media2.fl.yelpcdn.com/bphoto/r7oaUd-1Q5zw3czprUyJCA/o.jpg", "is_closed": false, "url": "https://www.yelp.com/biz/san-francisco-school-of-digital-filmmaking-san-francisco-4?adjust_creative=0T9f6kHMnzQCXJKBQD97qw&utm_campaign=yelp_api_v3&utm_medium=api_v3_business_search&utm_source=0T9f6kHMnzQCXJKBQD97qw", "review_count": 36, "categories": [{"alias": "specialtyschools", "title": "Specialty Schools"}, {"alias": "videofilmproductions", "title": "Video/Film Production"}], "rating": 4.0, "coordinates": {"latitude": 37.7916533, "longitude": -122.4012434}, "transactions": [], "location": {"address1": "155 Sansome St", "address2": "Fl 2", "address3": "", "city": "San Francisco", "zip_code": "94104", "country": "US", "state": "CA", "display_address": ["155 Sansome St", "Fl 2", "San Francisco, CA 94104"]}, "phone": "+14158247000", "display_phone": "(415) 824-7000", "distance": 1054.0119663619998}, {"id": "yi-yan-art-academy-san-francisco", "name": "Yi Yan Art Academy", "image_url": "https://s3-media1.fl.yelpcdn.com/bphoto/t4QIZX8dUBvQhe_uV6yhdQ/o.jpg", "is_closed": false, "url": "https://www.yelp.com/biz/yi-yan-art-academy-san-francisco?adjust_creative=0T9f6kHMnzQCXJKBQD97qw&utm_campaign=yelp_api_v3&utm_medium=api_v3_business_search&utm_source=0T9f6kHMnzQCXJKBQD97qw", "review_count": 42, "categories": [{"alias": "artschools", "title": "Art Schools"}], "rating": 5.0, "coordinates": {"latitude": 37.7622833, "longitude": -122.4151764}, "transactions": [], "location": {"address1": "2192 Folsom St", "address2": null, "address3": "", "city": "San Francisco", "zip_code": "94110", "country": "US", "state": "CA", "display_address": ["2192 Folsom St", "San Francisco, CA 94110"]}, "phone": "+14159673729", "display_phone": "(415) 967-3729", "distance": 3133.9562957}, {"id": "general-assembly-san-francisco-san-francisco-2", "name": "General Assembly San Francisco", "image_url": "https://s3-media3.fl.yelpcdn.com/bphoto/B8-DQ3W5vF2qpUsig2rOQw/o.jpg", "is_closed": false, "url": "https://www.yelp.com/biz/general-assembly-san-francisco-san-francisco-2?adjust_creative=0T9f6kHMnzQCXJKBQD97qw&utm_campaign=yelp_api_v3&utm_medium=api_v3_business_search&utm_source=0T9f6kHMnzQCXJKBQD97qw", "review_count": 80, "categories": [{"alias": "vocation", "title": "Vocational & Technical School"}, {"alias": "adultedu", "title": "Adult Education"}, {"alias": "educationservices", "title": "Educational Services"}], "rating": 4.5, "coordinates": {"latitude": 37.79093, "longitude": -122.40164}, "transactions": [], "location": {"address1": "225 Bush St", "address2": "5th Fl", "address3": "", "city": "San Francisco", "zip_code": "94104", "country": "US", "state": "CA", "display_address": ["225 Bush St", "5th Fl", "San Francisco, CA 94104"]}, "phone": "+14155926885", "display_phone": "(415) 592-6885", "distance": 1012.4199098142}, {"id": "california-college-of-the-arts-san-francisco", "name": "California College of the Arts", "image_url": "https://s3-media3.fl.yelpcdn.com/bphoto/6JJze27q8eAaHT6_vMdGbA/o.jpg", "is_closed": false, "url": "https://www.yelp.com/biz/california-college-of-the-arts-san-francisco?adjust_creative=0T9f6kHMnzQCXJKBQD97qw&utm_campaign=yelp_api_v3&utm_medium=api_v3_business_search&utm_source=0T9f6kHMnzQCXJKBQD97qw", "review_count": 36, "categories": [{"alias": "collegeuniv", "title": "Colleges & Universities"}], "rating": 3.5, "coordinates": {"latitude": 37.767475, "longitude": -122.399477}, "transactions": [], "location": {"address1": "1111 8th St", "address2": "", "address3": "", "city": "San Francisco", "zip_code": "94107", "country": "US", "state": "CA", "display_address": ["1111 8th St", "San Francisco, CA 94107"]}, "phone": "+14157039500", "display_phone": "(415) 703-9500", "distance": 2830.8374285679997}, {"id": "san-francisco-main-library-san-francisco", "name": "San Francisco Main Library", "image_url": "https://s3-media2.fl.yelpcdn.com/bphoto/Jdkeq4ZzF_fKJEHnkehKjQ/o.jpg", "is_closed": false, "url": "https://www.yelp.com/biz/san-francisco-main-library-san-francisco?adjust_creative=0T9f6kHMnzQCXJKBQD97qw&utm_campaign=yelp_api_v3&utm_medium=api_v3_business_search&utm_source=0T9f6kHMnzQCXJKBQD97qw", "review_count": 375, "categories": [{"alias": "libraries", "title": "Libraries"}, {"alias": "tutoring", "title": "Tutoring Centers"}, {"alias": "adultedu", "title": "Adult Education"}], "rating": 4.0, "coordinates": {"latitude": 37.7788648, "longitude": -122.4157819}, "transactions": [], "location": {"address1": "100 Larkin St", "address2": "", "address3": "", "city": "San Francisco", "zip_code": "94102", "country": "US", "state": "CA", "display_address": ["100 Larkin St", "San Francisco, CA 94102"]}, "phone": "+14155574400", "display_phone": "(415) 557-4400", "distance": 1316.635815744}, {"id": "le-cordon-bleu-san-francisco", "name": "Le Cordon Bleu", "image_url": "https://s3-media1.fl.yelpcdn.com/bphoto/Xr32i8E-guLpYKhyQRtScA/o.jpg", "is_closed": false, "url": "https://www.yelp.com/biz/le-cordon-bleu-san-francisco?adjust_creative=0T9f6kHMnzQCXJKBQD97qw&utm_campaign=yelp_api_v3&utm_medium=api_v3_business_search&utm_source=0T9f6kHMnzQCXJKBQD97qw", "review_count": 91, "categories": [{"alias": "cookingschools", "title": "Cooking Schools"}, {"alias": "collegeuniv", "title": "Colleges & Universities"}], "rating": 2.5, "coordinates": {"latitude": 37.7656842, "longitude": -122.4029991}, "transactions": [], "location": {"address1": "350 Rhode Island St", "address2": "", "address3": "", "city": "San Francisco", "zip_code": "94103", "country": "US", "state": "CA", "display_address": ["350 Rhode Island St", "San Francisco, CA 94103"]}, "phone": "+14157713500", "display_phone": "(415) 771-3500", "distance": 2902.420228032}, {"id": "bay-area-acting-studio-san-jose-2", "name": "Bay Area Acting Studio", "image_url": "https://s3-media4.fl.yelpcdn.com/bphoto/iTNNNJUmQO2S5pw7uM9wCw/o.jpg", "is_closed": false, "url": "https://www.yelp.com/biz/bay-area-acting-studio-san-jose-2?adjust_creative=0T9f6kHMnzQCXJKBQD97qw&utm_campaign=yelp_api_v3&utm_medium=api_v3_business_search&utm_source=0T9f6kHMnzQCXJKBQD97qw", "review_count": 32, "categories": [{"alias": "specialtyschools", "title": "Specialty Schools"}], "rating": 4.5, "coordinates": {"latitude": 37.2613868713379, "longitude": -121.926124572754}, "transactions": [], "location": {"address1": "1930 Camden Ave", "address2": "", "address3": "", "city": "San Jose", "zip_code": "95124", "country": "US", "state": "CA", "display_address": ["1930 Camden Ave", "San Jose, CA 95124"]}, "phone": "+14153228464", "display_phone": "(415) 322-8464", "distance": 72841.1263166}], "total": 18, "region": {"center": {"latitude": 37.790523, "longitude": -122.413158}}}