{"businesses": [{"id": "aroma-buena-catering-san-francisco", "name": "Aroma Buena Catering", "image_url": "https://s3-media1.fl.yelpcdn.com/bphoto/N0cQp8KG6QkhG0p36WTiYQ/o.jpg", "is_closed": false, "url": "https://www.yelp.com/biz/aroma-buena-catering-san-francisco?adjust_creative=0T9f6kHMnzQCXJKBQD97qw&utm_campaign=yelp_api_v3&utm_medium=api_v3_business_search&utm_source=0T9f6kHMnzQCXJKBQD97qw", "review_count": 27, "categories": [{"alias": "catering", "title": "Caterers"}], "rating": 5.0, "coordinates": {"latitude": 37.73869, "longitude": -122.46867}, "transactions": [], "location": {"address1": "236 W Portal Ave", "address2": "Ste 460", "address3": "", "city": "San Francisco", "zip_code": "94127", "country": "US", "state": "CA", "display_address": ["236 W Portal Ave", "Ste 460", "San Francisco, CA 94127"]}, "phone": "+14153052856", "display_phone": "(415) 305-2856", "distance": 3760.8256078299996}, {"id": "argonaut-hotel-san-francisco-4", "name": "Argonaut Hotel", "image_url": "https://s3-media1.fl.yelpcdn.com/bphoto/W8J6rEoQb1Vz-nVfHW-HcQ/o.jpg", "is_closed": false, "url": "https://www.yelp.com/biz/argonaut-hotel-san-francisco-4?adjust_creative=0T9f6kHMnzQCXJKBQD97qw&utm_campaign=yelp_api_v3&utm_medium=api_v3_business_search&utm_source=0T9f6kHMnzQCXJKBQD97qw", "review_count": 472, "categories": [{"alias": "hotels", "title": "Hotels"}, {"alias": "venues", "title": "Venues & Event Spaces"}], "rating": 4.0, "coordinates": {"latitude": 37.8075058942468, "longitude": -122.420507050817}, "transactions": [], "price": "$$$", "location": {"address1": "495 Jefferson St", "address2": null, "address3": "", "city": "San Francisco", "zip_code": "94109", "country": "US", "state": "CA", "display_address": ["495 Jefferson St", "San Francisco, CA 94109"]}, "phone": "+14155630800", "display_phone": "(415) 563-0800", "distance": 5368.49028489}, {"id": "press-club-san-francisco", "name": "Press Club", "image_url": "https://s3-media2.fl.yelpcdn.com/bphoto/swIEgvIs8bHhyULpVYgTWw/o.jpg", "is_closed": false, "url": "https://www.yelp.com/biz/press-club-san-francisco?adjust_creative=0T9f6kHMnzQCXJKBQD97qw&utm_campaign=yelp_api_v3&utm_medium=api_v3_business_search&utm_source=0T9f6kHMnzQCXJKBQD97qw", "review_count": 1039, "categories": [{"alias": "wine_bars", "title": "Wine Bars"}, {"alias": "venues", "title": "Venues & Event Spaces"}, {"alias": "lounges", "title": "Lounges"}], "rating": 4.0, "coordinates": {"latitude": 37.7859531718409, "longitude": -122.404646873474}, "transactions": [], "price": "$$$", "location": {"address1": "20 Yerba Buena Ln", "address2": "", "address3": "", "city": "San Francisco", "zip_code": "94103", "country": "US", "state": "CA", "display_address": ["20 Yerba Buena Ln", "San Francisco, CA 94103"]}, "phone": "+14157445000", "display_phone": "(415) 744-5000", "distance": 3946.3022037639994}, {"id": "thirstybear-brewery-san-francisco", "name": "ThirstyBear Brewery", "image_url": "https://s3-media3.fl.yelpcdn.com/bphoto/YotHpkRqjlv-TStDMuadtQ/o.jpg", "is_closed": false, "url": "https://www.yelp.com/biz/thirstybear-brewery-san-francisco?adjust_creative=0T9f6kHMnzQCXJKBQD97qw&utm_campaign=yelp_api_v3&utm_medium=api_v3_business_search&utm_source=0T9f6kHMnzQCXJKBQD97qw", "review_count": 1701, "categories": [{"alias": "spanish", "title": "Spanish"}, {"alias": "breweries", "title": "Breweries"}, {"alias": "venues", "title": "Venues & Event Spaces"}], "rating": 3.5, "coordinates": {"latitude": 37.78539, "longitude": -122.39953}, "transactions": [], "price": "$$", "location": {"address1": "661 Howard St", "address2": "", "address3": "", "city": "San Francisco", "zip_code": "94105", "country": "US", "state": "CA", "display_address": ["661 Howard St", "San Francisco, CA 94105"]}, "phone": "+14159740905", "display_phone": "(415) 974-0905", "distance": 4238.380837562}], "total": 4, "region": {"center": {"latitude": 37.76089938976322, "longitude": -122.43644714355469}}}