{"businesses": [{"id": "valero-a-and-p-service-center-oakland", "name": "Valero A&P Service Center", "image_url": "https://s3-media2.fl.yelpcdn.com/bphoto/2WxRaJYiFGHI8hWkTJho6Q/o.jpg", "is_closed": false, "url": "https://www.yelp.com/biz/valero-a-and-p-service-center-oakland?adjust_creative=0T9f6kHMnzQCXJKBQD97qw&utm_campaign=yelp_api_v3&utm_medium=api_v3_business_search&utm_source=0T9f6kHMnzQCXJKBQD97qw", "review_count": 21, "categories": [{"alias": "servicestations", "title": "Gas Stations"}, {"alias": "autorepair", "title": "Auto Repair"}], "rating": 4.5, "coordinates": {"latitude": 37.8255043029785, "longitude": -122.261260986328}, "transactions": [], "location": {"address1": "398 W MacArthur Blvd", "address2": "", "address3": "", "city": "Oakland", "zip_code": "94609", "country": "US", "state": "CA", "display_address": ["398 W MacArthur Blvd", "Oakland, CA 94609"]}, "phone": "+15106580611", "display_phone": "(510) 658-0611", "distance": 16747.43094798}, {"id": "flying-a-gas-station-orinda", "name": "Flying A Gas Station", "image_url": "https://s3-media4.fl.yelpcdn.com/bphoto/LiqEXc3BOSeFiAcNBzrxTA/o.jpg", "is_closed": false, "url": "https://www.yelp.com/biz/flying-a-gas-station-orinda?adjust_creative=0T9f6kHMnzQCXJKBQD97qw&utm_campaign=yelp_api_v3&utm_medium=api_v3_business_search&utm_source=0T9f6kHMnzQCXJKBQD97qw", "review_count": 32, "categories": [{"alias": "servicestations", "title": "Gas Stations"}], "rating": 4.5, "coordinates": {"latitude": 37.87975, "longitude": -122.18179}, "transactions": [], "location": {"address1": "22 Bryant Way", "address2": "", "address3": "", "city": "Orinda", "zip_code": "94563", "country": "US", "state": "CA", "display_address": ["22 Bryant Way", "Orinda, CA 94563"]}, "phone": "+19253944583", "display_phone": "(925) 394-4583", "distance": 25966.50456052}, {"id": "dublin-valero-car-wash-dublin-2", "name": "Dublin Valero Car Wash", "image_url": "https://s3-media4.fl.yelpcdn.com/bphoto/14-W8MuJhvqXfHzMbRtN0Q/o.jpg", "is_closed": false, "url": "https://www.yelp.com/biz/dublin-valero-car-wash-dublin-2?adjust_creative=0T9f6kHMnzQCXJKBQD97qw&utm_campaign=yelp_api_v3&utm_medium=api_v3_business_search&utm_source=0T9f6kHMnzQCXJKBQD97qw", "review_count": 52, "categories": [{"alias": "servicestations", "title": "Gas Stations"}, {"alias": "carwash", "title": "Car Wash"}, {"alias": "convenience", "title": "Convenience Stores"}], "rating": 4.5, "coordinates": {"latitude": 37.7056789650019, "longitude": -121.935614506524}, "transactions": [], "price": "$$", "location": {"address1": "7840 Amador Valley Blvd", "address2": null, "address3": "", "city": "Dublin", "zip_code": "94568", "country": "US", "state": "CA", "display_address": ["7840 Amador Valley Blvd", "Dublin, CA 94568"]}, "phone": "+19258297218", "display_phone": "(925) 829-7218", "distance": 41081.1071912}, {"id": "valero-santa-clara-3", "name": "Valero", "image_url": "https://s3-media3.fl.yelpcdn.com/bphoto/72Qa3NLtnfKt376jwwGP4Q/o.jpg", "is_closed": false, "url": "https://www.yelp.com/biz/valero-santa-clara-3?adjust_creative=0T9f6kHMnzQCXJKBQD97qw&utm_campaign=yelp_api_v3&utm_medium=api_v3_business_search&utm_source=0T9f6kHMnzQCXJKBQD97qw", "review_count": 26, "categories": [{"alias": "servicestations", "title": "Gas Stations"}], "rating": 2.0, "coordinates": {"latitude": 37.3526275720872, "longitude": -121.987135521672}, "transactions": [], "location": {"address1": "3305 El Camino Real", "address2": "", "address3": "", "city": "Santa Clara", "zip_code": "95051", "country": "US", "state": "CA", "display_address": ["3305 El Camino Real", "Santa Clara, CA 95051"]}, "phone": "+14082467931", "display_phone": "(408) 246-7931", "distance": 55174.269770579995}], "total": 4, "region": {"center": {"latitude": 37.6161865360436, "longitude": -122.18330093073197}}}