{"businesses": [{"id": "avedanos-holly-park-market-san-francisco-2", "name": "Avedano's Holly Park Market", "image_url": "https://s3-media1.fl.yelpcdn.com/bphoto/YOBxNTwFzeq7c4oO4dIMFg/o.jpg", "is_closed": false, "url": "https://www.yelp.com/biz/avedanos-holly-park-market-san-francisco-2?adjust_creative=0T9f6kHMnzQCXJKBQD97qw&utm_campaign=yelp_api_v3&utm_medium=api_v3_business_search&utm_source=0T9f6kHMnzQCXJKBQD97qw", "review_count": 150, "categories": [{"alias": "meats", "title": "Meat Shops"}, {"alias": "butcher", "title": "Butcher"}, {"alias": "sandwiches", "title": "Sandwiches"}], "rating": 4.5, "coordinates": {"latitude": 37.7396430969238, "longitude": -122.418869018555}, "transactions": [], "price": "$$$", "location": {"address1": "235 Cortland Ave", "address2": "", "address3": "", "city": "San Francisco", "zip_code": "94110", "country": "US", "state": "CA", "display_address": ["235 Cortland Ave", "San Francisco, CA 94110"]}, "phone": "+14152856328", "display_phone": "(415) 285-6328", "distance": 16.24379604168}, {"id": "avedanos-udder-room-san-francisco", "name": "Avedano's Udder Room", "image_url": "", "is_closed": false, "url": "https://www.yelp.com/biz/avedanos-udder-room-san-francisco?adjust_creative=0T9f6kHMnzQCXJKBQD97qw&utm_campaign=yelp_api_v3&utm_medium=api_v3_business_search&utm_source=0T9f6kHMnzQCXJKBQD97qw", "review_count": 1, "categories": [{"alias": "venues", "title": "Venues & Event Spaces"}], "rating": 4.0, "coordinates": {"latitude": 37.73964, "longitude": -122.41887}, "transactions": [], "location": {"address1": "235 Cortland Ave", "address2": "", "address3": "", "city": "San Francisco", "zip_code": "94110", "country": "US", "state": "CA", "display_address": ["235 Cortland Ave", "San Francisco, CA 94110"]}, "phone": "+14152856328", "display_phone": "(415) 285-6328", "distance": 16.24379604168}, {"id": "paulies-pickling-san-francisco", "name": "Paulie's Pickling", "image_url": "https://s3-media3.fl.yelpcdn.com/bphoto/mw03Vp0iPy7-RoZNjWp7jw/o.jpg", "is_closed": false, "url": "https://www.yelp.com/biz/paulies-pickling-san-francisco?adjust_creative=0T9f6kHMnzQCXJKBQD97qw&utm_campaign=yelp_api_v3&utm_medium=api_v3_business_search&utm_source=0T9f6kHMnzQCXJKBQD97qw", "review_count": 143, "categories": [{"alias": "gourmet", "title": "Specialty Food"}, {"alias": "delis", "title": "Delis"}, {"alias": "sandwiches", "title": "Sandwiches"}], "rating": 4.5, "coordinates": {"latitude": 37.7394, "longitude": -122.41799}, "transactions": ["pickup"], "price": "$", "location": {"address1": "331 Cortland Ave", "address2": "", "address3": "", "city": "San Francisco", "zip_code": "94110", "country": "US", "state": "CA", "display_address": ["331 Cortland Ave", "San Francisco, CA 94110"]}, "phone": "+14152850800", "display_phone": "(415) 285-0800", "distance": 84.6964581738}, {"id": "fatted-calf-san-francisco", "name": "Fatted Calf", "image_url": "https://s3-media4.fl.yelpcdn.com/bphoto/qhCealZxLCLLYAcGXlBlVA/o.jpg", "is_closed": false, "url": "https://www.yelp.com/biz/fatted-calf-san-francisco?adjust_creative=0T9f6kHMnzQCXJKBQD97qw&utm_campaign=yelp_api_v3&utm_medium=api_v3_business_search&utm_source=0T9f6kHMnzQCXJKBQD97qw", "review_count": 249, "categories": [{"alias": "meats", "title": "Meat Shops"}], "rating": 4.0, "coordinates": {"latitude": 37.77616, "longitude": -122.42319}, "transactions": [], "price": "$$", "location": {"address1": "320 Fell St", "address2": "", "address3": "", "city": "San Francisco", "zip_code": "94102", "country": "US", "state": "CA", "display_address": ["320 Fell St", "San Francisco, CA 94102"]}, "phone": "+14154005614", "display_phone": "(415) 400-5614", "distance": 4083.2625095199996}, {"id": "canyon-market-san-francisco", "name": "Canyon Market", "image_url": "https://s3-media3.fl.yelpcdn.com/bphoto/0NiE43FZS5KkKm2K2lLkjw/o.jpg", "is_closed": false, "url": "https://www.yelp.com/biz/canyon-market-san-francisco?adjust_creative=0T9f6kHMnzQCXJKBQD97qw&utm_campaign=yelp_api_v3&utm_medium=api_v3_business_search&utm_source=0T9f6kHMnzQCXJKBQD97qw", "review_count": 411, "categories": [{"alias": "grocery", "title": "Grocery"}, {"alias": "sandwiches", "title": "Sandwiches"}], "rating": 4.0, "coordinates": {"latitude": 37.73398, "longitude": -122.43363}, "transactions": [], "price": "$$$", "location": {"address1": "2815 Diamond St", "address2": null, "address3": "", "city": "San Francisco", "zip_code": "94131", "country": "US", "state": "CA", "display_address": ["2815 Diamond St", "San Francisco, CA 94131"]}, "phone": "+14155869999", "display_phone": "(415) 586-9999", "distance": 1426.724649652}, {"id": "good-life-grocery-san-francisco", "name": "Good Life Grocery", "image_url": "https://s3-media3.fl.yelpcdn.com/bphoto/bGmdh4QzPrH18-6dfRLt2w/o.jpg", "is_closed": false, "url": "https://www.yelp.com/biz/good-life-grocery-san-francisco?adjust_creative=0T9f6kHMnzQCXJKBQD97qw&utm_campaign=yelp_api_v3&utm_medium=api_v3_business_search&utm_source=0T9f6kHMnzQCXJKBQD97qw", "review_count": 168, "categories": [{"alias": "grocery", "title": "Grocery"}, {"alias": "healthmarkets", "title": "Health Markets"}], "rating": 3.5, "coordinates": {"latitude": 37.7388916015625, "longitude": -122.416717529297}, "transactions": [], "price": "$$", "location": {"address1": "448 Cortland Ave", "address2": "", "address3": "", "city": "San Francisco", "zip_code": "94110", "country": "US", "state": "CA", "display_address": ["448 Cortland Ave", "San Francisco, CA 94110"]}, "phone": "+14156483221", "display_phone": "(415) 648-3221", "distance": 206.739517882}, {"id": "safeway-san-francisco-34", "name": "Safeway", "image_url": "https://s3-media3.fl.yelpcdn.com/bphoto/XGAFR3sPLWfTiyD8_f07_A/o.jpg", "is_closed": false, "url": "https://www.yelp.com/biz/safeway-san-francisco-34?adjust_creative=0T9f6kHMnzQCXJKBQD97qw&utm_campaign=yelp_api_v3&utm_medium=api_v3_business_search&utm_source=0T9f6kHMnzQCXJKBQD97qw", "review_count": 274, "categories": [{"alias": "grocery", "title": "Grocery"}], "rating": 1.5, "coordinates": {"latitude": 37.7431730251847, "longitude": -122.422355559463}, "transactions": [], "price": "$$", "location": {"address1": "3350 Mission St", "address2": "", "address3": null, "city": "San Francisco", "zip_code": "94110", "country": "US", "state": "CA", "display_address": ["3350 Mission St", "San Francisco, CA 94110"]}, "phone": "+14158262866", "display_phone": "(415) 826-2866", "distance": 509.0799150692}, {"id": "rainbow-grocery-san-francisco-2", "name": "Rainbow Grocery", "image_url": "https://s3-media1.fl.yelpcdn.com/bphoto/CkvpVqj-HWy6gJLzkB5Hcg/o.jpg", "is_closed": false, "url": "https://www.yelp.com/biz/rainbow-grocery-san-francisco-2?adjust_creative=0T9f6kHMnzQCXJKBQD97qw&utm_campaign=yelp_api_v3&utm_medium=api_v3_business_search&utm_source=0T9f6kHMnzQCXJKBQD97qw", "review_count": 1449, "categories": [{"alias": "grocery", "title": "Grocery"}, {"alias": "organic_stores", "title": "Organic Stores"}, {"alias": "beer_and_wine", "title": "Beer, Wine & Spirits"}], "rating": 4.0, "coordinates": {"latitude": 37.7693382238534, "longitude": -122.415459284656}, "transactions": [], "price": "$$", "location": {"address1": "1745 Folsom St", "address2": "", "address3": "", "city": "San Francisco", "zip_code": "94103", "country": "US", "state": "CA", "display_address": ["1745 Folsom St", "San Francisco, CA 94103"]}, "phone": "+14158630620", "display_phone": "(415) 863-0620", "distance": 3335.46336644}], "total": 8, "region": {"center": {"latitude": 37.739466, "longitude": -122.41895}}}