{"businesses": [{"id": "back-a-yard-caribbean-american-grill-menlo-park", "name": "Back A Yard Caribbean American Grill", "image_url": "https://s3-media1.fl.yelpcdn.com/bphoto/2LBoWOcTS1FarLf8j3Q2og/o.jpg", "is_closed": false, "url": "https://www.yelp.com/biz/back-a-yard-caribbean-american-grill-menlo-park?adjust_creative=0T9f6kHMnzQCXJKBQD97qw&utm_campaign=yelp_api_v3&utm_medium=api_v3_business_search&utm_source=0T9f6kHMnzQCXJKBQD97qw", "review_count": 1702, "categories": [{"alias": "caribbean", "title": "Caribbean"}], "rating": 4.5, "coordinates": {"latitude": 37.4729, "longitude": -122.154948}, "transactions": [], "price": "$$", "location": {"address1": "1189 Willow Rd", "address2": null, "address3": "", "city": "Menlo Park", "zip_code": "94025", "country": "US", "state": "CA", "display_address": ["1189 Willow Rd", "Menlo Park, CA 94025"]}, "phone": "+16503234244", "display_phone": "(650) 323-4244", "distance": 40500.38328956}, {"id": "backyard-and-beach-san-francisco-3", "name": "Backyard and Beach", "image_url": "https://s3-media1.fl.yelpcdn.com/bphoto/oufUK7bmUvl1k0q_4T_hvA/o.jpg", "is_closed": false, "url": "https://www.yelp.com/biz/backyard-and-beach-san-francisco-3?adjust_creative=0T9f6kHMnzQCXJKBQD97qw&utm_campaign=yelp_api_v3&utm_medium=api_v3_business_search&utm_source=0T9f6kHMnzQCXJKBQD97qw", "review_count": 5, "categories": [{"alias": "pet_sitting", "title": "Pet Boarding/Pet Sitting"}], "rating": 5.0, "coordinates": {"latitude": 37.755459, "longitude": -122.494068}, "transactions": [], "location": {"address1": "Outer Sunset", "address2": null, "address3": "", "city": "San Francisco", "zip_code": "94122", "country": "US", "state": "CA", "display_address": ["Outer Sunset", "San Francisco, CA 94122"]}, "phone": "+14155628547", "display_phone": "(415) 562-8547", "distance": 5101.16442683}, {"id": "backyard-brew-palo-alto", "name": "Backyard Brew", "image_url": "https://s3-media3.fl.yelpcdn.com/bphoto/0n40G6IJXfTaTTGZdEOEDA/o.jpg", "is_closed": false, "url": "https://www.yelp.com/biz/backyard-brew-palo-alto?adjust_creative=0T9f6kHMnzQCXJKBQD97qw&utm_campaign=yelp_api_v3&utm_medium=api_v3_business_search&utm_source=0T9f6kHMnzQCXJKBQD97qw", "review_count": 30, "categories": [{"alias": "coffee", "title": "Coffee & Tea"}], "rating": 5.0, "coordinates": {"latitude": 37.426025, "longitude": -122.145386}, "transactions": [], "price": "$", "location": {"address1": "444 S California Ave", "address2": null, "address3": null, "city": "Palo Alto", "zip_code": "94306", "country": "US", "state": "CA", "display_address": ["444 S California Ave", "Palo Alto, CA 94306"]}, "phone": "+16507047785", "display_phone": "(650) 704-7785", "distance": 45212.355391499994}, {"id": "back-a-yard-san-jose", "name": "Back A Yard", "image_url": "https://s3-media1.fl.yelpcdn.com/bphoto/qQs0hvR5tMGVOlZ1tB3O6A/o.jpg", "is_closed": false, "url": "https://www.yelp.com/biz/back-a-yard-san-jose?adjust_creative=0T9f6kHMnzQCXJKBQD97qw&utm_campaign=yelp_api_v3&utm_medium=api_v3_business_search&utm_source=0T9f6kHMnzQCXJKBQD97qw", "review_count": 1437, "categories": [{"alias": "caribbean", "title": "Caribbean"}], "rating": 4.0, "coordinates": {"latitude": 37.3367309570312, "longitude": -121.892601013184}, "transactions": [], "price": "$$", "location": {"address1": "80 N Market St", "address2": "", "address3": "", "city": "San Jose", "zip_code": "95113", "country": "US", "state": "CA", "display_address": ["80 N Market St", "San Jose, CA 95113"]}, "phone": "+14082948626", "display_phone": "(408) 294-8626", "distance": 67254.40550436}, {"id": "marin-backyard-mill-valley", "name": "Marin Backyard", "image_url": "https://s3-media4.fl.yelpcdn.com/bphoto/UDdoDN1Ik1eLRXoewhVDZw/o.jpg", "is_closed": true, "url": "https://www.yelp.com/biz/marin-backyard-mill-valley?adjust_creative=0T9f6kHMnzQCXJKBQD97qw&utm_campaign=yelp_api_v3&utm_medium=api_v3_business_search&utm_source=0T9f6kHMnzQCXJKBQD97qw", "review_count": 2, "categories": [{"alias": "playgrounds", "title": "Playgrounds"}], "rating": 5.0, "coordinates": {"latitude": 37.8935317993164, "longitude": -122.515747070312}, "transactions": [], "location": {"address1": "690 Redwood Hwy Frontage Rd", "address2": null, "address3": null, "city": "Mill Valley", "zip_code": "94941", "country": "US", "state": "CA", "display_address": ["690 Redwood Hwy Frontage Rd", "Mill Valley, CA 94941"]}, "phone": "+14153837529", "display_phone": "(415) 383-7529", "distance": 16313.43862084}, {"id": "backyard-bayou-union-city-2", "name": "Backyard Bayou", "image_url": "https://s3-media1.fl.yelpcdn.com/bphoto/fenf-2a3SBX_qv0X3a9oWA/o.jpg", "is_closed": false, "url": "https://www.yelp.com/biz/backyard-bayou-union-city-2?adjust_creative=0T9f6kHMnzQCXJKBQD97qw&utm_campaign=yelp_api_v3&utm_medium=api_v3_business_search&utm_source=0T9f6kHMnzQCXJKBQD97qw", "review_count": 556, "categories": [{"alias": "cajun", "title": "Cajun/Creole"}, {"alias": "southern", "title": "Southern"}, {"alias": "seafood", "title": "Seafood"}], "rating": 3.5, "coordinates": {"latitude": 37.600805, "longitude": -122.069847}, "transactions": ["delivery", "pickup"], "price": "$$", "location": {"address1": "32280 Dyer St", "address2": "", "address3": "", "city": "Union City", "zip_code": "94587", "country": "US", "state": "CA", "display_address": ["32280 Dyer St", "Union City, CA 94587"]}, "phone": "+15106750095", "display_phone": "(510) 675-0095", "distance": 36847.27644062}, {"id": "back-yard-coffee-company-redwood-city-2", "name": "Back Yard Coffee Company", "image_url": "https://s3-media4.fl.yelpcdn.com/bphoto/A-AKf2DlczAYzaes87MUHg/o.jpg", "is_closed": false, "url": "https://www.yelp.com/biz/back-yard-coffee-company-redwood-city-2?adjust_creative=0T9f6kHMnzQCXJKBQD97qw&utm_campaign=yelp_api_v3&utm_medium=api_v3_business_search&utm_source=0T9f6kHMnzQCXJKBQD97qw", "review_count": 362, "categories": [{"alias": "coffee", "title": "Coffee & Tea"}, {"alias": "pubs", "title": "Pubs"}], "rating": 4.0, "coordinates": {"latitude": 37.487629, "longitude": -122.235281}, "transactions": [], "price": "$", "location": {"address1": "965 Brewster Ave", "address2": "", "address3": "", "city": "Redwood City", "zip_code": "94063", "country": "US", "state": "CA", "display_address": ["965 Brewster Ave", "Redwood City, CA 94063"]}, "phone": "+16503653500", "display_phone": "(650) 365-3500", "distance": 35173.7269933}, {"id": "backyard-warehouse-richmond", "name": "Backyard Warehouse", "image_url": "https://s3-media1.fl.yelpcdn.com/bphoto/AT-KmlN6iaRpwjrpaNDKkg/o.jpg", "is_closed": false, "url": "https://www.yelp.com/biz/backyard-warehouse-richmond?adjust_creative=0T9f6kHMnzQCXJKBQD97qw&utm_campaign=yelp_api_v3&utm_medium=api_v3_business_search&utm_source=0T9f6kHMnzQCXJKBQD97qw", "review_count": 1, "categories": [{"alias": "furniture", "title": "Furniture Stores"}, {"alias": "playgrounds", "title": "Playgrounds"}], "rating": 3.0, "coordinates": {"latitude": 37.9586192965508, "longitude": -122.360505759716}, "transactions": [], "price": "$", "location": {"address1": "798 Market Ave", "address2": "Bldg 794", "address3": "", "city": "Richmond", "zip_code": "94801", "country": "US", "state": "CA", "display_address": ["798 Market Ave", "Bldg 794", "Richmond, CA 94801"]}, "phone": "+14157860639", "display_phone": "(415) 786-0639", "distance": 23009.07033206}, {"id": "benjis-backyard-redwood-city", "name": "Benji's Backyard", "image_url": "https://s3-media2.fl.yelpcdn.com/bphoto/SersVPlrEpEkZuvpCytdeg/o.jpg", "is_closed": false, "url": "https://www.yelp.com/biz/benjis-backyard-redwood-city?adjust_creative=0T9f6kHMnzQCXJKBQD97qw&utm_campaign=yelp_api_v3&utm_medium=api_v3_business_search&utm_source=0T9f6kHMnzQCXJKBQD97qw", "review_count": 6, "categories": [{"alias": "dogwalkers", "title": "Dog Walkers"}, {"alias": "pet_sitting", "title": "Pet Boarding/Pet Sitting"}], "rating": 5.0, "coordinates": {"latitude": 37.468445, "longitude": -122.241119}, "transactions": [], "location": {"address1": "941 Taft St", "address2": null, "address3": "", "city": "Redwood City", "zip_code": "94061", "country": "US", "state": "CA", "display_address": ["941 Taft St", "Redwood City, CA 94061"]}, "phone": "+16507136516", "display_phone": "(650) 713-6516", "distance": 36790.035435499994}, {"id": "back-a-yard-san-jose-3", "name": "Back A Yard", "image_url": "https://s3-media2.fl.yelpcdn.com/bphoto/P-5f7AFvDpg6scZUswmN7w/o.jpg", "is_closed": false, "url": "https://www.yelp.com/biz/back-a-yard-san-jose-3?adjust_creative=0T9f6kHMnzQCXJKBQD97qw&utm_campaign=yelp_api_v3&utm_medium=api_v3_business_search&utm_source=0T9f6kHMnzQCXJKBQD97qw", "review_count": 6, "categories": [{"alias": "caribbean", "title": "Caribbean"}, {"alias": "bbq", "title": "Barbeque"}, {"alias": "sandwiches", "title": "Sandwiches"}], "rating": 4.5, "coordinates": {"latitude": 37.2999767103452, "longitude": -121.824032499435}, "transactions": [], "location": {"address1": "1011 Capitol Expy", "address2": "", "address3": null, "city": "San Jose", "zip_code": "95121", "country": "US", "state": "CA", "display_address": ["1011 Capitol Expy", "San Jose, CA 95121"]}, "phone": "", "display_phone": "", "distance": 74451.6411348}, {"id": "backyard-bayou-at-the-vineyard-livermore-3", "name": "Backyard Bayou At The Vineyard", "image_url": "https://s3-media2.fl.yelpcdn.com/bphoto/v_RXuMgdgNdqDazm-RiD2A/o.jpg", "is_closed": false, "url": "https://www.yelp.com/biz/backyard-bayou-at-the-vineyard-livermore-3?adjust_creative=0T9f6kHMnzQCXJKBQD97qw&utm_campaign=yelp_api_v3&utm_medium=api_v3_business_search&utm_source=0T9f6kHMnzQCXJKBQD97qw", "review_count": 325, "categories": [{"alias": "cajun", "title": "Cajun/Creole"}, {"alias": "asianfusion", "title": "Asian Fusion"}, {"alias": "bars", "title": "Bars"}], "rating": 3.5, "coordinates": {"latitude": 37.68311, "longitude": -121.76648}, "transactions": ["pickup"], "price": "$$", "location": {"address1": "2491 1st St", "address2": "", "address3": "", "city": "Livermore", "zip_code": "94550", "country": "US", "state": "CA", "display_address": ["2491 1st St", "Livermore, CA 94550"]}, "phone": "+19255792858", "display_phone": "(925) 579-2858", "distance": 59560.30224232}, {"id": "backyard-concepts-sunnyvale", "name": "Backyard Concepts", "image_url": "https://s3-media3.fl.yelpcdn.com/bphoto/nBy4Q6QLGAFI2EMJTNAsnw/o.jpg", "is_closed": false, "url": "https://www.yelp.com/biz/backyard-concepts-sunnyvale?adjust_creative=0T9f6kHMnzQCXJKBQD97qw&utm_campaign=yelp_api_v3&utm_medium=api_v3_business_search&utm_source=0T9f6kHMnzQCXJKBQD97qw", "review_count": 3, "categories": [{"alias": "landscaping", "title": "Landscaping"}], "rating": 1.0, "coordinates": {"latitude": 37.3550444841385, "longitude": -122.017052918673}, "transactions": [], "location": {"address1": "850 E El Camino Real", "address2": "", "address3": "", "city": "Sunnyvale", "zip_code": "94086", "country": "US", "state": "CA", "display_address": ["850 E El Camino Real", "Sunnyvale, CA 94086"]}, "phone": "+14087393035", "display_phone": "(408) 739-3035", "distance": 58333.907914}, {"id": "backyard-barbell-san-jose", "name": "Backyard Barbell", "image_url": "https://s3-media2.fl.yelpcdn.com/bphoto/9zOnDpxYjVH8lbgSiJHMRg/o.jpg", "is_closed": false, "url": "https://www.yelp.com/biz/backyard-barbell-san-jose?adjust_creative=0T9f6kHMnzQCXJKBQD97qw&utm_campaign=yelp_api_v3&utm_medium=api_v3_business_search&utm_source=0T9f6kHMnzQCXJKBQD97qw", "review_count": 23, "categories": [{"alias": "gyms", "title": "Gyms"}, {"alias": "healthtrainers", "title": "Trainers"}], "rating": 5.0, "coordinates": {"latitude": 37.3725052, "longitude": -121.908432}, "transactions": [], "location": {"address1": "1630 Remuda Ln", "address2": null, "address3": "", "city": "San Jose", "zip_code": "95112", "country": "US", "state": "CA", "display_address": ["1630 Remuda Ln", "San Jose, CA 95112"]}, "phone": "+14085005929", "display_phone": "(408) 500-5929", "distance": 63438.4768996}, {"id": "roys-backyard-bbq-and-grilling-service-livermore", "name": "Roy's Backyard BBQ & Grilling Service", "image_url": "https://s3-media1.fl.yelpcdn.com/bphoto/vkr-V4eKOvlLEz8McdmU0Q/o.jpg", "is_closed": false, "url": "https://www.yelp.com/biz/roys-backyard-bbq-and-grilling-service-livermore?adjust_creative=0T9f6kHMnzQCXJKBQD97qw&utm_campaign=yelp_api_v3&utm_medium=api_v3_business_search&utm_source=0T9f6kHMnzQCXJKBQD97qw", "review_count": 1, "categories": [{"alias": "catering", "title": "Caterers"}, {"alias": "wedding_planning", "title": "Wedding Planning"}], "rating": 5.0, "coordinates": {"latitude": 37.6798, "longitude": -121.76455}, "transactions": [], "location": {"address1": "474 S Livermore Ave", "address2": "", "address3": "", "city": "Livermore", "zip_code": "94550", "country": "US", "state": "CA", "display_address": ["474 S Livermore Ave", "Livermore, CA 94550"]}, "phone": "+19258951490", "display_phone": "(925) 895-1490", "distance": 59783.89589522}, {"id": "zenscape-san-francisco-2", "name": "Zenscape", "image_url": "https://s3-media4.fl.yelpcdn.com/bphoto/DJmxhiGFe32xMzXhgizSsQ/o.jpg", "is_closed": false, "url": "https://www.yelp.com/biz/zenscape-san-francisco-2?adjust_creative=0T9f6kHMnzQCXJKBQD97qw&utm_campaign=yelp_api_v3&utm_medium=api_v3_business_search&utm_source=0T9f6kHMnzQCXJKBQD97qw", "review_count": 22, "categories": [{"alias": "landscaping", "title": "Landscaping"}], "rating": 4.5, "coordinates": {"latitude": 37.7748938, "longitude": -122.4385421}, "transactions": [], "location": {"address1": "1341 Hayes St", "address2": null, "address3": "", "city": "San Francisco", "zip_code": "94117", "country": "US", "state": "CA", "display_address": ["1341 Hayes St", "San Francisco, CA 94117"]}, "phone": "+14157940664", "display_phone": "(415) 794-0664", "distance": 1567.1849480399999}, {"id": "dirty-boots-ecological-gardens-san-francisco", "name": "Dirty Boots Ecological Gardens", "image_url": "https://s3-media2.fl.yelpcdn.com/bphoto/UaSJvNNaZQTjFFs4xqOJNw/o.jpg", "is_closed": false, "url": "https://www.yelp.com/biz/dirty-boots-ecological-gardens-san-francisco?adjust_creative=0T9f6kHMnzQCXJKBQD97qw&utm_campaign=yelp_api_v3&utm_medium=api_v3_business_search&utm_source=0T9f6kHMnzQCXJKBQD97qw", "review_count": 23, "categories": [{"alias": "landscaping", "title": "Landscaping"}, {"alias": "landscapearchitects", "title": "Landscape Architects"}], "rating": 5.0, "coordinates": {"latitude": 37.7485824, "longitude": -122.4184108}, "transactions": [], "location": {"address1": "", "address2": null, "address3": "", "city": "San Francisco", "zip_code": "94110", "country": "US", "state": "CA", "display_address": ["San Francisco, CA 94110"]}, "phone": "", "display_phone": "", "distance": 2095.273453772}, {"id": "liaison-landscapes-san-francisco-3", "name": "Liaison Landscapes", "image_url": "https://s3-media4.fl.yelpcdn.com/bphoto/sFVIjlXX7hIowgqFOoGUtQ/o.jpg", "is_closed": false, "url": "https://www.yelp.com/biz/liaison-landscapes-san-francisco-3?adjust_creative=0T9f6kHMnzQCXJKBQD97qw&utm_campaign=yelp_api_v3&utm_medium=api_v3_business_search&utm_source=0T9f6kHMnzQCXJKBQD97qw", "review_count": 35, "categories": [{"alias": "landscaping", "title": "Landscaping"}, {"alias": "landscapearchitects", "title": "Landscape Architects"}], "rating": 5.0, "coordinates": {"latitude": 37.7928294, "longitude": -122.3978806}, "transactions": [], "location": {"address1": "101 California St", "address2": "Ste 2710", "address3": "", "city": "San Francisco", "zip_code": "94111", "country": "US", "state": "CA", "display_address": ["101 California St", "Ste 2710", "San Francisco, CA 94111"]}, "phone": "+14158053404", "display_phone": "(415) 805-3404", "distance": 4908.571007548}, {"id": "shambhala-landscapes-san-francisco-2", "name": "Shambhala Landscapes", "image_url": "https://s3-media1.fl.yelpcdn.com/bphoto/uY1THnyH9cxW8EmQZ2sqBQ/o.jpg", "is_closed": false, "url": "https://www.yelp.com/biz/shambhala-landscapes-san-francisco-2?adjust_creative=0T9f6kHMnzQCXJKBQD97qw&utm_campaign=yelp_api_v3&utm_medium=api_v3_business_search&utm_source=0T9f6kHMnzQCXJKBQD97qw", "review_count": 31, "categories": [{"alias": "landscaping", "title": "Landscaping"}], "rating": 5.0, "coordinates": {"latitude": 37.7330436676108, "longitude": -122.452252534906}, "transactions": [], "location": {"address1": "", "address2": "", "address3": "", "city": "San Francisco", "zip_code": "94122", "country": "US", "state": "CA", "display_address": ["San Francisco, CA 94122"]}, "phone": "+14155153436", "display_phone": "(415) 515-3436", "distance": 3394.8882459399993}, {"id": "gentle-giants-gardening-san-francisco-5", "name": "Gentle Giant's Gardening", "image_url": "https://s3-media2.fl.yelpcdn.com/bphoto/DdMoW23A6EBTP_M1FxCXbw/o.jpg", "is_closed": false, "url": "https://www.yelp.com/biz/gentle-giants-gardening-san-francisco-5?adjust_creative=0T9f6kHMnzQCXJKBQD97qw&utm_campaign=yelp_api_v3&utm_medium=api_v3_business_search&utm_source=0T9f6kHMnzQCXJKBQD97qw", "review_count": 51, "categories": [{"alias": "landscaping", "title": "Landscaping"}, {"alias": "gardeners", "title": "Gardeners"}, {"alias": "irrigation", "title": "Irrigation"}], "rating": 4.5, "coordinates": {"latitude": 37.7614364624023, "longitude": -122.43278503418}, "transactions": [], "location": {"address1": "", "address2": null, "address3": "", "city": "San Francisco", "zip_code": "94114", "country": "US", "state": "CA", "display_address": ["San Francisco, CA 94114"]}, "phone": "+14156096799", "display_phone": "(415) 609-6799", "distance": 628.8268489323999}, {"id": "affordable-fencing-and-gardening-san-francisco-2", "name": "Affordable Fencing and Gardening", "image_url": "https://s3-media1.fl.yelpcdn.com/bphoto/YqjHYX9GlCu0r1lEEzC6Rw/o.jpg", "is_closed": false, "url": "https://www.yelp.com/biz/affordable-fencing-and-gardening-san-francisco-2?adjust_creative=0T9f6kHMnzQCXJKBQD97qw&utm_campaign=yelp_api_v3&utm_medium=api_v3_business_search&utm_source=0T9f6kHMnzQCXJKBQD97qw", "review_count": 16, "categories": [{"alias": "gardeners", "title": "Gardeners"}, {"alias": "fencesgates", "title": "Fences & Gates"}, {"alias": "landscaping", "title": "Landscaping"}], "rating": 4.5, "coordinates": {"latitude": 37.7705896465384, "longitude": -122.439136728644}, "transactions": [], "location": {"address1": "", "address2": "", "address3": "", "city": "San Francisco", "zip_code": "94102", "country": "US", "state": "CA", "display_address": ["San Francisco, CA 94102"]}, "phone": "+14152355543", "display_phone": "(415) 235-5543", "distance": 1103.105365864}], "total": 8849, "region": {"center": {"latitude": 37.6292887051726, "longitude": -122.15164586210938}}}