{"businesses": [{"id": "bryans-grocery-san-francisco", "name": "Bryan's Grocery", "image_url": "https://s3-media1.fl.yelpcdn.com/bphoto/LmwA5m9cgNkTI2BLpnG6iA/o.jpg", "is_closed": false, "url": "https://www.yelp.com/biz/bryans-grocery-san-francisco?adjust_creative=0T9f6kHMnzQCXJKBQD97qw&utm_campaign=yelp_api_v3&utm_medium=api_v3_business_search&utm_source=0T9f6kHMnzQCXJKBQD97qw", "review_count": 183, "categories": [{"alias": "grocery", "title": "Grocery"}, {"alias": "meats", "title": "Meat Shops"}], "rating": 4.0, "coordinates": {"latitude": 37.78653, "longitude": -122.45085}, "transactions": [], "price": "$$$", "location": {"address1": "3445 California St", "address2": "", "address3": "", "city": "San Francisco", "zip_code": "94118", "country": "US", "state": "CA", "display_address": ["3445 California St", "San Francisco, CA 94118"]}, "phone": "+14157520179", "display_phone": "(415) 752-0179", "distance": 25.591375453219996}, {"id": "bryan-roberts-salon-and-color-bar-san-francisco-3", "name": "Bryan Roberts Salon & Color Bar", "image_url": "https://s3-media2.fl.yelpcdn.com/bphoto/3kpT3n0eQWH8hrOeR4zREg/o.jpg", "is_closed": false, "url": "https://www.yelp.com/biz/bryan-roberts-salon-and-color-bar-san-francisco-3?adjust_creative=0T9f6kHMnzQCXJKBQD97qw&utm_campaign=yelp_api_v3&utm_medium=api_v3_business_search&utm_source=0T9f6kHMnzQCXJKBQD97qw", "review_count": 228, "categories": [{"alias": "hair", "title": "Hair Salons"}], "rating": 4.5, "coordinates": {"latitude": 37.7599087, "longitude": -122.4347909}, "transactions": [], "price": "$$", "location": {"address1": "561 Castro St", "address2": null, "address3": "", "city": "San Francisco", "zip_code": "94114", "country": "US", "state": "CA", "display_address": ["561 Castro St", "San Francisco, CA 94114"]}, "phone": "+14156267700", "display_phone": "(415) 626-7700", "distance": 3297.34132052}, {"id": "bryan-newman-ma-lmft-san-francisco-4", "name": "Bryan Newman, MA, LMFT", "image_url": "https://s3-media3.fl.yelpcdn.com/bphoto/YXJKH0Mj95HOmLvmJHfmiw/o.jpg", "is_closed": false, "url": "https://www.yelp.com/biz/bryan-newman-ma-lmft-san-francisco-4?adjust_creative=0T9f6kHMnzQCXJKBQD97qw&utm_campaign=yelp_api_v3&utm_medium=api_v3_business_search&utm_source=0T9f6kHMnzQCXJKBQD97qw", "review_count": 7, "categories": [{"alias": "c_and_mh", "title": "Counseling & Mental Health"}], "rating": 5.0, "coordinates": {"latitude": 37.7532567, "longitude": -122.4280496}, "transactions": [], "location": {"address1": "3819 23rd St", "address2": "", "address3": "", "city": "San Francisco", "zip_code": "94114", "country": "US", "state": "CA", "display_address": ["3819 23rd St", "San Francisco, CA 94114"]}, "phone": "+14155227406", "display_phone": "(415) 522-7406", "distance": 4225.49276004}, {"id": "bryan-marcelino-photography-bay-area-california-3", "name": "Bryan Marcelino Photography", "image_url": "https://s3-media1.fl.yelpcdn.com/bphoto/kb5IUhYo1F_4Otp3nE1mzQ/o.jpg", "is_closed": true, "url": "https://www.yelp.com/biz/bryan-marcelino-photography-bay-area-california-3?adjust_creative=0T9f6kHMnzQCXJKBQD97qw&utm_campaign=yelp_api_v3&utm_medium=api_v3_business_search&utm_source=0T9f6kHMnzQCXJKBQD97qw", "review_count": 6, "categories": [{"alias": "sessionphotography", "title": "Session Photography"}], "rating": 5.0, "coordinates": {"latitude": 37.95697, "longitude": -122.51204}, "transactions": [], "location": {"address1": "", "address2": null, "address3": "", "city": "Bay Area California", "zip_code": "94102", "country": "US", "state": "CA", "display_address": ["Bay Area California, CA 94102"]}, "phone": "+14156628410", "display_phone": "(415) 662-8410", "distance": 2752.4305447019997}, {"id": "bryan-harrelson-san-francisco-4", "name": "Bryan Harrelson", "image_url": "https://s3-media3.fl.yelpcdn.com/bphoto/UBQZvQs-yBAlxO7UpmhyIA/o.jpg", "is_closed": false, "url": "https://www.yelp.com/biz/bryan-harrelson-san-francisco-4?adjust_creative=0T9f6kHMnzQCXJKBQD97qw&utm_campaign=yelp_api_v3&utm_medium=api_v3_business_search&utm_source=0T9f6kHMnzQCXJKBQD97qw", "review_count": 43, "categories": [{"alias": "massage", "title": "Massage"}, {"alias": "yoga", "title": "Yoga"}], "rating": 5.0, "coordinates": {"latitude": 37.7649265, "longitude": -122.4190859}, "transactions": [], "price": "$$", "location": {"address1": "2973 16th St", "address2": "Fl 4", "address3": "", "city": "San Francisco", "zip_code": "94103", "country": "US", "state": "CA", "display_address": ["2973 16th St", "Fl 4", "San Francisco, CA 94103"]}, "phone": "+19193600557", "display_phone": "(919) 360-0557", "distance": 3697.2320549279993}, {"id": "amber-bryan-lac-san-francisco", "name": "Amber Bryan, LAc", "image_url": "https://s3-media1.fl.yelpcdn.com/bphoto/x01N3eGjGCHfqwKnBlhBOg/o.jpg", "is_closed": false, "url": "https://www.yelp.com/biz/amber-bryan-lac-san-francisco?adjust_creative=0T9f6kHMnzQCXJKBQD97qw&utm_campaign=yelp_api_v3&utm_medium=api_v3_business_search&utm_source=0T9f6kHMnzQCXJKBQD97qw", "review_count": 15, "categories": [{"alias": "acupuncture", "title": "Acupuncture"}, {"alias": "tcm", "title": "Traditional Chinese Medicine"}], "rating": 5.0, "coordinates": {"latitude": 37.7865601, "longitude": -122.4335165}, "transactions": [], "location": {"address1": "2146 Sutter St", "address2": "Ste B", "address3": "", "city": "San Francisco", "zip_code": "94115", "country": "US", "state": "CA", "display_address": ["2146 Sutter St", "Ste B", "San Francisco, CA 94115"]}, "phone": "+14157178285", "display_phone": "(415) 717-8285", "distance": 1525.3512169043997}, {"id": "cal-mart-supermarket-san-francisco-2", "name": "Cal-Mart Supermarket", "image_url": "https://s3-media4.fl.yelpcdn.com/bphoto/ebKFiNNBWJdAhJP0eBnRjg/o.jpg", "is_closed": false, "url": "https://www.yelp.com/biz/cal-mart-supermarket-san-francisco-2?adjust_creative=0T9f6kHMnzQCXJKBQD97qw&utm_campaign=yelp_api_v3&utm_medium=api_v3_business_search&utm_source=0T9f6kHMnzQCXJKBQD97qw", "review_count": 212, "categories": [{"alias": "grocery", "title": "Grocery"}], "rating": 3.5, "coordinates": {"latitude": 37.78608, "longitude": -122.45275}, "transactions": [], "price": "$$$", "location": {"address1": "3585 California St", "address2": "", "address3": "", "city": "San Francisco", "zip_code": "94118", "country": "US", "state": "CA", "display_address": ["3585 California St", "San Francisco, CA 94118"]}, "phone": "+14157513516", "display_phone": "(415) 751-3516", "distance": 180.16570151370001}, {"id": "antonellis-meat-fish-and-poultry-san-francisco-2", "name": "Antonelli's Meat Fish & Poultry", "image_url": "https://s3-media4.fl.yelpcdn.com/bphoto/5S4Bou_BxWI8gKVjj9TBKw/o.jpg", "is_closed": false, "url": "https://www.yelp.com/biz/antonellis-meat-fish-and-poultry-san-francisco-2?adjust_creative=0T9f6kHMnzQCXJKBQD97qw&utm_campaign=yelp_api_v3&utm_medium=api_v3_business_search&utm_source=0T9f6kHMnzQCXJKBQD97qw", "review_count": 61, "categories": [{"alias": "seafoodmarkets", "title": "Seafood Markets"}, {"alias": "meats", "title": "Meat Shops"}], "rating": 4.0, "coordinates": {"latitude": 37.7861918, "longitude": -122.4528223}, "transactions": [], "price": "$$$", "location": {"address1": "3585 California St", "address2": "", "address3": "Cal-Mart Supermarket", "city": "San Francisco", "zip_code": "94118", "country": "US", "state": "CA", "display_address": ["3585 California St", "Cal-Mart Supermarket", "San Francisco, CA 94118"]}, "phone": "+14157527413", "display_phone": "(415) 752-7413", "distance": 180.16570151370001}, {"id": "marina-meats-san-francisco", "name": "Marina Meats", "image_url": "https://s3-media2.fl.yelpcdn.com/bphoto/rOygINrzwxwTmTVfDvd3hg/o.jpg", "is_closed": false, "url": "https://www.yelp.com/biz/marina-meats-san-francisco?adjust_creative=0T9f6kHMnzQCXJKBQD97qw&utm_campaign=yelp_api_v3&utm_medium=api_v3_business_search&utm_source=0T9f6kHMnzQCXJKBQD97qw", "review_count": 87, "categories": [{"alias": "meats", "title": "Meat Shops"}], "rating": 4.0, "coordinates": {"latitude": 37.7999639511108, "longitude": -122.442606166005}, "transactions": [], "price": "$$", "location": {"address1": "2395 Chestnut St", "address2": "", "address3": "", "city": "San Francisco", "zip_code": "94123", "country": "US", "state": "CA", "display_address": ["2395 Chestnut St", "San Francisco, CA 94123"]}, "phone": "+14156736700", "display_phone": "(415) 673-6700", "distance": 1638.17615412}, {"id": "mollie-stones-san-francisco-3", "name": "Mollie Stone's", "image_url": "https://s3-media1.fl.yelpcdn.com/bphoto/ei-1vDjypq5PWIQVg1Ws7A/o.jpg", "is_closed": false, "url": "https://www.yelp.com/biz/mollie-stones-san-francisco-3?adjust_creative=0T9f6kHMnzQCXJKBQD97qw&utm_campaign=yelp_api_v3&utm_medium=api_v3_business_search&utm_source=0T9f6kHMnzQCXJKBQD97qw", "review_count": 315, "categories": [{"alias": "grocery", "title": "Grocery"}, {"alias": "catering", "title": "Caterers"}], "rating": 3.0, "coordinates": {"latitude": 37.788459777832, "longitude": -122.43473815918}, "transactions": [], "price": "$$$", "location": {"address1": "2435 California St", "address2": "", "address3": "", "city": "San Francisco", "zip_code": "94115", "country": "US", "state": "CA", "display_address": ["2435 California St", "San Francisco, CA 94115"]}, "phone": "+14155674902", "display_phone": "(415) 567-4902", "distance": 1448.6909497404}, {"id": "beautifull-san-francisco", "name": "Beautifull", "image_url": "https://s3-media3.fl.yelpcdn.com/bphoto/HsZiE6fJ55KqeyHyIbHifQ/o.jpg", "is_closed": false, "url": "https://www.yelp.com/biz/beautifull-san-francisco?adjust_creative=0T9f6kHMnzQCXJKBQD97qw&utm_campaign=yelp_api_v3&utm_medium=api_v3_business_search&utm_source=0T9f6kHMnzQCXJKBQD97qw", "review_count": 383, "categories": [{"alias": "newamerican", "title": "American (New)"}, {"alias": "asianfusion", "title": "Asian Fusion"}], "rating": 3.0, "coordinates": {"latitude": 37.786487, "longitude": -122.450248}, "transactions": ["delivery", "pickup"], "price": "$$", "location": {"address1": "3401 California St", "address2": "", "address3": "", "city": "San Francisco", "zip_code": "94118", "country": "US", "state": "CA", "display_address": ["3401 California St", "San Francisco, CA 94118"]}, "phone": "+14157289080", "display_phone": "(415) 728-9080", "distance": 59.8889890159}, {"id": "falletti-foods-san-francisco", "name": "Falletti Foods", "image_url": "https://s3-media3.fl.yelpcdn.com/bphoto/5CZmo_7d0M_hoa58TKFYLg/o.jpg", "is_closed": false, "url": "https://www.yelp.com/biz/falletti-foods-san-francisco?adjust_creative=0T9f6kHMnzQCXJKBQD97qw&utm_campaign=yelp_api_v3&utm_medium=api_v3_business_search&utm_source=0T9f6kHMnzQCXJKBQD97qw", "review_count": 313, "categories": [{"alias": "meats", "title": "Meat Shops"}, {"alias": "grocery", "title": "Grocery"}, {"alias": "beer_and_wine", "title": "Beer, Wine & Spirits"}], "rating": 3.5, "coordinates": {"latitude": 37.7732249688899, "longitude": -122.438891153471}, "transactions": [], "price": "$$$", "location": {"address1": "308 Broderick St", "address2": null, "address3": "", "city": "San Francisco", "zip_code": "94117", "country": "US", "state": "CA", "display_address": ["308 Broderick St", "San Francisco, CA 94117"]}, "phone": "+14156264400", "display_phone": "(415) 626-4400", "distance": 1831.779273318}, {"id": "marina-supermarket-san-francisco", "name": "Marina Supermarket", "image_url": "https://s3-media2.fl.yelpcdn.com/bphoto/W363FqKwStnf4Oyb6wFgcA/o.jpg", "is_closed": false, "url": "https://www.yelp.com/biz/marina-supermarket-san-francisco?adjust_creative=0T9f6kHMnzQCXJKBQD97qw&utm_campaign=yelp_api_v3&utm_medium=api_v3_business_search&utm_source=0T9f6kHMnzQCXJKBQD97qw", "review_count": 102, "categories": [{"alias": "grocery", "title": "Grocery"}, {"alias": "delis", "title": "Delis"}, {"alias": "cheese", "title": "Cheese Shops"}], "rating": 4.0, "coordinates": {"latitude": 37.800046310035, "longitude": -122.44151908535}, "transactions": [], "price": "$$", "location": {"address1": "2323 Chestnut St", "address2": "", "address3": "", "city": "San Francisco", "zip_code": "94123", "country": "US", "state": "CA", "display_address": ["2323 Chestnut St", "San Francisco, CA 94123"]}, "phone": "+14153467470", "display_phone": "(415) 346-7470", "distance": 1696.19044711}, {"id": "whole-foods-market-san-francisco-22", "name": "Whole Foods Market", "image_url": "https://s3-media4.fl.yelpcdn.com/bphoto/igV_nwx9f-w8hQlLz1XrbQ/o.jpg", "is_closed": false, "url": "https://www.yelp.com/biz/whole-foods-market-san-francisco-22?adjust_creative=0T9f6kHMnzQCXJKBQD97qw&utm_campaign=yelp_api_v3&utm_medium=api_v3_business_search&utm_source=0T9f6kHMnzQCXJKBQD97qw", "review_count": 703, "categories": [{"alias": "grocery", "title": "Grocery"}, {"alias": "healthmarkets", "title": "Health Markets"}, {"alias": "organic_stores", "title": "Organic Stores"}], "rating": 3.5, "coordinates": {"latitude": 37.78992, "longitude": -122.42338}, "transactions": [], "price": "$$$", "location": {"address1": "1765 California St", "address2": "", "address3": "", "city": "San Francisco", "zip_code": "94109", "country": "US", "state": "CA", "display_address": ["1765 California St", "San Francisco, CA 94109"]}, "phone": "+14156740500", "display_phone": "(415) 674-0500", "distance": 2456.50542737}, {"id": "guerra-quality-meats-san-francisco", "name": "Guerra Quality Meats", "image_url": "https://s3-media2.fl.yelpcdn.com/bphoto/RMT881fhvyxhfK4aG-OqVg/o.jpg", "is_closed": false, "url": "https://www.yelp.com/biz/guerra-quality-meats-san-francisco?adjust_creative=0T9f6kHMnzQCXJKBQD97qw&utm_campaign=yelp_api_v3&utm_medium=api_v3_business_search&utm_source=0T9f6kHMnzQCXJKBQD97qw", "review_count": 353, "categories": [{"alias": "meats", "title": "Meat Shops"}, {"alias": "delis", "title": "Delis"}, {"alias": "grocery", "title": "Grocery"}], "rating": 4.5, "coordinates": {"latitude": 37.74349, "longitude": -122.4712}, "transactions": [], "price": "$$", "location": {"address1": "490 Taraval St", "address2": "", "address3": "", "city": "San Francisco", "zip_code": "94116", "country": "US", "state": "CA", "display_address": ["490 Taraval St", "San Francisco, CA 94116"]}, "phone": "+14155640585", "display_phone": "(415) 564-0585", "distance": 5129.2260056079995}, {"id": "andronicos-community-markets-san-francisco", "name": "Andronico's Community Markets", "image_url": "https://s3-media3.fl.yelpcdn.com/bphoto/5trVuq9JsD61WpsipRP9Jw/o.jpg", "is_closed": false, "url": "https://www.yelp.com/biz/andronicos-community-markets-san-francisco?adjust_creative=0T9f6kHMnzQCXJKBQD97qw&utm_campaign=yelp_api_v3&utm_medium=api_v3_business_search&utm_source=0T9f6kHMnzQCXJKBQD97qw", "review_count": 485, "categories": [{"alias": "grocery", "title": "Grocery"}, {"alias": "beer_and_wine", "title": "Beer, Wine & Spirits"}, {"alias": "gourmet", "title": "Specialty Food"}], "rating": 3.5, "coordinates": {"latitude": 37.76435, "longitude": -122.47117}, "transactions": [], "price": "$$$", "location": {"address1": "1200 Irving St", "address2": "", "address3": "", "city": "San Francisco", "zip_code": "94122", "country": "US", "state": "CA", "display_address": ["1200 Irving St", "San Francisco, CA 94122"]}, "phone": "+14156613220", "display_phone": "(415) 661-3220", "distance": 3076.232005778}, {"id": "living-greens-san-francisco-4", "name": "Living Greens", "image_url": "https://s3-media3.fl.yelpcdn.com/bphoto/ufDXg6_d_XZfJ4uUDT39Qw/o.jpg", "is_closed": false, "url": "https://www.yelp.com/biz/living-greens-san-francisco-4?adjust_creative=0T9f6kHMnzQCXJKBQD97qw&utm_campaign=yelp_api_v3&utm_medium=api_v3_business_search&utm_source=0T9f6kHMnzQCXJKBQD97qw", "review_count": 36, "categories": [{"alias": "juicebars", "title": "Juice Bars & Smoothies"}], "rating": 4.5, "coordinates": {"latitude": 37.7902558, "longitude": -122.4026383}, "transactions": ["pickup"], "price": "$$$", "location": {"address1": "28 Trinity St", "address2": "", "address3": "", "city": "San Francisco", "zip_code": "94104", "country": "US", "state": "CA", "display_address": ["28 Trinity St", "San Francisco, CA 94104"]}, "phone": "+14158024535", "display_phone": "(415) 802-4535", "distance": 4256.866199604}, {"id": "nopa-san-francisco", "name": "Nopa", "image_url": "https://s3-media3.fl.yelpcdn.com/bphoto/M8lkaDkG8GChJ1qvXhtLNw/o.jpg", "is_closed": false, "url": "https://www.yelp.com/biz/nopa-san-francisco?adjust_creative=0T9f6kHMnzQCXJKBQD97qw&utm_campaign=yelp_api_v3&utm_medium=api_v3_business_search&utm_source=0T9f6kHMnzQCXJKBQD97qw", "review_count": 4467, "categories": [{"alias": "newamerican", "title": "American (New)"}, {"alias": "modern_european", "title": "Modern European"}], "rating": 4.0, "coordinates": {"latitude": 37.774905, "longitude": -122.437506}, "transactions": [], "price": "$$$", "location": {"address1": "560 Divisadero St", "address2": null, "address3": "", "city": "San Francisco", "zip_code": "94117", "country": "US", "state": "CA", "display_address": ["560 Divisadero St", "San Francisco, CA 94117"]}, "phone": "+14158648643", "display_phone": "(415) 864-8643", "distance": 1760.7159688059996}, {"id": "sun-fat-seafood-company-san-francisco", "name": "Sun Fat Seafood Company", "image_url": "https://s3-media4.fl.yelpcdn.com/bphoto/2PfWly-dRhHEf9jX6nZbFA/o.jpg", "is_closed": false, "url": "https://www.yelp.com/biz/sun-fat-seafood-company-san-francisco?adjust_creative=0T9f6kHMnzQCXJKBQD97qw&utm_campaign=yelp_api_v3&utm_medium=api_v3_business_search&utm_source=0T9f6kHMnzQCXJKBQD97qw", "review_count": 294, "categories": [{"alias": "seafoodmarkets", "title": "Seafood Markets"}], "rating": 4.5, "coordinates": {"latitude": 37.7541160583496, "longitude": -122.418266296387}, "transactions": [], "price": "$", "location": {"address1": "2687 Mission St", "address2": "", "address3": "", "city": "San Francisco", "zip_code": "94110", "country": "US", "state": "CA", "display_address": ["2687 Mission St", "San Francisco, CA 94110"]}, "phone": "+14152829339", "display_phone": "(415) 282-9339", "distance": 4619.845433639999}, {"id": "golden-natural-foods-san-francisco", "name": "Golden Natural Foods", "image_url": "https://s3-media2.fl.yelpcdn.com/bphoto/skQK8ffutfWZxtRHIp7ESQ/o.jpg", "is_closed": false, "url": "https://www.yelp.com/biz/golden-natural-foods-san-francisco?adjust_creative=0T9f6kHMnzQCXJKBQD97qw&utm_campaign=yelp_api_v3&utm_medium=api_v3_business_search&utm_source=0T9f6kHMnzQCXJKBQD97qw", "review_count": 134, "categories": [{"alias": "meats", "title": "Meat Shops"}, {"alias": "grocery", "title": "Grocery"}, {"alias": "healthmarkets", "title": "Health Markets"}], "rating": 4.0, "coordinates": {"latitude": 37.76885, "longitude": -122.42944}, "transactions": [], "price": "$$", "location": {"address1": "130 Church St", "address2": "", "address3": "", "city": "San Francisco", "zip_code": "94114", "country": "US", "state": "CA", "display_address": ["130 Church St", "San Francisco, CA 94114"]}, "phone": "+14158642107", "display_phone": "(415) 864-2107", "distance": 2745.1220489599996}], "total": 124, "region": {"center": {"latitude": 37.783498105865725, "longitude": -122.44121682746999}}}