{"businesses": [{"id": "burger-king-san-francisco-4", "name": "Burger King", "image_url": "https://s3-media2.fl.yelpcdn.com/bphoto/O_u7N4izA2JWWZ7Ut4zf2w/o.jpg", "is_closed": false, "url": "https://www.yelp.com/biz/burger-king-san-francisco-4?adjust_creative=0T9f6kHMnzQCXJKBQD97qw&utm_campaign=yelp_api_v3&utm_medium=api_v3_business_search&utm_source=0T9f6kHMnzQCXJKBQD97qw", "review_count": 103, "categories": [{"alias": "hotdogs", "title": "Fast Food"}, {"alias": "burgers", "title": "Burgers"}], "rating": 2.5, "coordinates": {"latitude": 37.78503, "longitude": -122.40815}, "transactions": [], "price": "$", "location": {"address1": "35 Powell St", "address2": "", "address3": "", "city": "San Francisco", "zip_code": "94102", "country": "US", "state": "CA", "display_address": ["35 Powell St", "San Francisco, CA 94102"]}, "phone": "+14153976340", "display_phone": "(415) 397-6340", "distance": 51.80263809697999}, {"id": "burger-king-san-francisco-9", "name": "Burger King", "image_url": "https://s3-media4.fl.yelpcdn.com/bphoto/_V1LbkGn4jSRleVElK761A/o.jpg", "is_closed": false, "url": "https://www.yelp.com/biz/burger-king-san-francisco-9?adjust_creative=0T9f6kHMnzQCXJKBQD97qw&utm_campaign=yelp_api_v3&utm_medium=api_v3_business_search&utm_source=0T9f6kHMnzQCXJKBQD97qw", "review_count": 84, "categories": [{"alias": "hotdogs", "title": "Fast Food"}, {"alias": "burgers", "title": "Burgers"}], "rating": 2.0, "coordinates": {"latitude": 37.78315, "longitude": -122.42128}, "transactions": [], "price": "$", "location": {"address1": "819 Van Ness Ave", "address2": "", "address3": "", "city": "San Francisco", "zip_code": "94109", "country": "US", "state": "CA", "display_address": ["819 Van Ness Ave", "San Francisco, CA 94109"]}, "phone": "+14157754211", "display_phone": "(415) 775-4211", "distance": 1209.4249645579998}, {"id": "burger-king-san-francisco-8", "name": "Burger King", "image_url": "https://s3-media2.fl.yelpcdn.com/bphoto/4BEUVJSKsPKRh7QiNo5tpw/o.jpg", "is_closed": false, "url": "https://www.yelp.com/biz/burger-king-san-francisco-8?adjust_creative=0T9f6kHMnzQCXJKBQD97qw&utm_campaign=yelp_api_v3&utm_medium=api_v3_business_search&utm_source=0T9f6kHMnzQCXJKBQD97qw", "review_count": 54, "categories": [{"alias": "hotdogs", "title": "Fast Food"}, {"alias": "burgers", "title": "Burgers"}], "rating": 2.0, "coordinates": {"latitude": 37.77558, "longitude": -122.41302}, "transactions": [], "price": "$", "location": {"address1": "1298 Howard St", "address2": "", "address3": "", "city": "San Francisco", "zip_code": "94103", "country": "US", "state": "CA", "display_address": ["1298 Howard St", "San Francisco, CA 94103"]}, "phone": "+14154871375", "display_phone": "(415) 487-1375", "distance": 1174.673520334}, {"id": "burger-king-san-francisco", "name": "Burger King", "image_url": "https://s3-media1.fl.yelpcdn.com/bphoto/OnHcu2j9pUVZvZxA_6OFEQ/o.jpg", "is_closed": false, "url": "https://www.yelp.com/biz/burger-king-san-francisco?adjust_creative=0T9f6kHMnzQCXJKBQD97qw&utm_campaign=yelp_api_v3&utm_medium=api_v3_business_search&utm_source=0T9f6kHMnzQCXJKBQD97qw", "review_count": 77, "categories": [{"alias": "hotdogs", "title": "Fast Food"}, {"alias": "burgers", "title": "Burgers"}], "rating": 1.5, "coordinates": {"latitude": 37.7786445617676, "longitude": -122.41527557373}, "transactions": [], "price": "$", "location": {"address1": "1200 Market St", "address2": "", "address3": "", "city": "San Francisco", "zip_code": "94102", "country": "US", "state": "CA", "display_address": ["1200 Market St", "San Francisco, CA 94102"]}, "phone": "+14152551900", "display_phone": "(415) 255-1900", "distance": 973.6580224969999}, {"id": "burger-king-san-francisco-10", "name": "Burger King", "image_url": "https://s3-media1.fl.yelpcdn.com/bphoto/SK_iNCOSeCGHQ4orAMwXjQ/o.jpg", "is_closed": false, "url": "https://www.yelp.com/biz/burger-king-san-francisco-10?adjust_creative=0T9f6kHMnzQCXJKBQD97qw&utm_campaign=yelp_api_v3&utm_medium=api_v3_business_search&utm_source=0T9f6kHMnzQCXJKBQD97qw", "review_count": 41, "categories": [{"alias": "burgers", "title": "Burgers"}], "rating": 2.0, "coordinates": {"latitude": 37.7852536101312, "longitude": -122.433264165153}, "transactions": [], "price": "$", "location": {"address1": "1701 Fillmore St", "address2": "", "address3": "", "city": "San Francisco", "zip_code": "94115", "country": "US", "state": "CA", "display_address": ["1701 Fillmore St", "San Francisco, CA 94115"]}, "phone": "+14154412510", "display_phone": "(415) 441-2510", "distance": 2239.4130252679997}, {"id": "burger-king-san-francisco-6", "name": "Burger King", "image_url": "https://s3-media3.fl.yelpcdn.com/bphoto/RF_FYpKySNKBUphLJu-WUQ/o.jpg", "is_closed": false, "url": "https://www.yelp.com/biz/burger-king-san-francisco-6?adjust_creative=0T9f6kHMnzQCXJKBQD97qw&utm_campaign=yelp_api_v3&utm_medium=api_v3_business_search&utm_source=0T9f6kHMnzQCXJKBQD97qw", "review_count": 61, "categories": [{"alias": "burgers", "title": "Burgers"}], "rating": 2.5, "coordinates": {"latitude": 37.78146, "longitude": -122.46126}, "transactions": [], "price": "$", "location": {"address1": "3900 Geary Blvd", "address2": "", "address3": "", "city": "San Francisco", "zip_code": "94118", "country": "US", "state": "CA", "display_address": ["3900 Geary Blvd", "San Francisco, CA 94118"]}, "phone": "+14153865077", "display_phone": "(415) 386-5077", "distance": 4718.9630749}, {"id": "burger-king-san-francisco-12", "name": "Burger King", "image_url": "https://s3-media3.fl.yelpcdn.com/bphoto/Mb8kemRod1ySacyIscTJeg/o.jpg", "is_closed": false, "url": "https://www.yelp.com/biz/burger-king-san-francisco-12?adjust_creative=0T9f6kHMnzQCXJKBQD97qw&utm_campaign=yelp_api_v3&utm_medium=api_v3_business_search&utm_source=0T9f6kHMnzQCXJKBQD97qw", "review_count": 31, "categories": [{"alias": "hotdogs", "title": "Fast Food"}, {"alias": "burgers", "title": "Burgers"}], "rating": 1.5, "coordinates": {"latitude": 37.7651348905767, "longitude": -122.419169584332}, "transactions": [], "price": "$", "location": {"address1": "2978 16th St", "address2": "", "address3": "", "city": "San Francisco", "zip_code": "94103", "country": "US", "state": "CA", "display_address": ["2978 16th St", "San Francisco, CA 94103"]}, "phone": "+14158635066", "display_phone": "(415) 863-5066", "distance": 2434.366219792}, {"id": "burger-king-san-francisco-7", "name": "Burger King", "image_url": "https://s3-media2.fl.yelpcdn.com/bphoto/rTwTVGxhIC-rF6Scr0kD6A/o.jpg", "is_closed": false, "url": "https://www.yelp.com/biz/burger-king-san-francisco-7?adjust_creative=0T9f6kHMnzQCXJKBQD97qw&utm_campaign=yelp_api_v3&utm_medium=api_v3_business_search&utm_source=0T9f6kHMnzQCXJKBQD97qw", "review_count": 38, "categories": [{"alias": "burgers", "title": "Burgers"}, {"alias": "hotdogs", "title": "Fast Food"}], "rating": 2.5, "coordinates": {"latitude": 37.744161085347, "longitude": -122.40403247868}, "transactions": [], "price": "$", "location": {"address1": "245 Bayshore Blvd", "address2": "", "address3": "", "city": "San Francisco", "zip_code": "94124", "country": "US", "state": "CA", "display_address": ["245 Bayshore Blvd", "San Francisco, CA 94124"]}, "phone": "+14158216288", "display_phone": "(415) 821-6288", "distance": 4563.75993464}, {"id": "burger-king-san-francisco-2", "name": "Burger King", "image_url": "https://s3-media2.fl.yelpcdn.com/bphoto/nmw491e3_NqacsfnGe7CRw/o.jpg", "is_closed": false, "url": "https://www.yelp.com/biz/burger-king-san-francisco-2?adjust_creative=0T9f6kHMnzQCXJKBQD97qw&utm_campaign=yelp_api_v3&utm_medium=api_v3_business_search&utm_source=0T9f6kHMnzQCXJKBQD97qw", "review_count": 24, "categories": [{"alias": "hotdogs", "title": "Fast Food"}, {"alias": "burgers", "title": "Burgers"}], "rating": 2.0, "coordinates": {"latitude": 37.7458763122559, "longitude": -122.420387268066}, "transactions": [], "price": "$", "location": {"address1": "1690 Valencia St", "address2": "", "address3": "", "city": "San Francisco", "zip_code": "94110", "country": "US", "state": "CA", "display_address": ["1690 Valencia St", "San Francisco, CA 94110"]}, "phone": "+14156419885", "display_phone": "(415) 641-9885", "distance": 4499.4687328479995}, {"id": "burger-king-san-francisco-25", "name": "Burger King", "image_url": "", "is_closed": false, "url": "https://www.yelp.com/biz/burger-king-san-francisco-25?adjust_creative=0T9f6kHMnzQCXJKBQD97qw&utm_campaign=yelp_api_v3&utm_medium=api_v3_business_search&utm_source=0T9f6kHMnzQCXJKBQD97qw", "review_count": 1, "categories": [{"alias": "hotdogs", "title": "Fast Food"}], "rating": 2.0, "coordinates": {"latitude": 37.7771186828613, "longitude": -122.419639587402}, "transactions": [], "location": {"address1": "Domestic Terminals Departures Level", "address2": "", "address3": "Terminal 3, Gate 70", "city": "San Francisco", "zip_code": "", "country": "US", "state": "CA", "display_address": ["Domestic Terminals Departures Level", "Terminal 3, Gate 70", "San Francisco, CA"]}, "phone": "", "display_phone": "", "distance": 1524.27672496}, {"id": "burger-king-san-francisco-5", "name": "Burger King", "image_url": "https://s3-media2.fl.yelpcdn.com/bphoto/HPAzm4UmV3gnYBtKSBlxzQ/o.jpg", "is_closed": false, "url": "https://www.yelp.com/biz/burger-king-san-francisco-5?adjust_creative=0T9f6kHMnzQCXJKBQD97qw&utm_campaign=yelp_api_v3&utm_medium=api_v3_business_search&utm_source=0T9f6kHMnzQCXJKBQD97qw", "review_count": 24, "categories": [{"alias": "burgers", "title": "Burgers"}, {"alias": "hotdogs", "title": "Fast Food"}], "rating": 2.0, "coordinates": {"latitude": 37.721696126029, "longitude": -122.43734753634}, "transactions": [], "price": "$", "location": {"address1": "4780 Mission St", "address2": "", "address3": "", "city": "San Francisco", "zip_code": "94112", "country": "US", "state": "CA", "display_address": ["4780 Mission St", "San Francisco, CA 94112"]}, "phone": "+14154695518", "display_phone": "(415) 469-5518", "distance": 7513.654888001999}, {"id": "mcdonalds-san-francisco-61", "name": "McDonald's", "image_url": "https://s3-media1.fl.yelpcdn.com/bphoto/ZP4weXSx4n5XE0cgjo0jrw/o.jpg", "is_closed": false, "url": "https://www.yelp.com/biz/mcdonalds-san-francisco-61?adjust_creative=0T9f6kHMnzQCXJKBQD97qw&utm_campaign=yelp_api_v3&utm_medium=api_v3_business_search&utm_source=0T9f6kHMnzQCXJKBQD97qw", "review_count": 98, "categories": [{"alias": "hotdogs", "title": "Fast Food"}, {"alias": "burgers", "title": "Burgers"}], "rating": 4.0, "coordinates": {"latitude": 37.7892226640774, "longitude": -122.407831530094}, "transactions": [], "price": "$", "location": {"address1": "441 Sutter St", "address2": "", "address3": "", "city": "San Francisco", "zip_code": "94108", "country": "US", "state": "CA", "display_address": ["441 Sutter St", "San Francisco, CA 94108"]}, "phone": "+14153621082", "display_phone": "(415) 362-1082", "distance": 458.9744660148}, {"id": "box-kitchen-san-francisco", "name": "Box Kitchen", "image_url": "https://s3-media4.fl.yelpcdn.com/bphoto/oebEFX_KJm5rNzGqeyJobg/o.jpg", "is_closed": false, "url": "https://www.yelp.com/biz/box-kitchen-san-francisco?adjust_creative=0T9f6kHMnzQCXJKBQD97qw&utm_campaign=yelp_api_v3&utm_medium=api_v3_business_search&utm_source=0T9f6kHMnzQCXJKBQD97qw", "review_count": 480, "categories": [{"alias": "burgers", "title": "Burgers"}, {"alias": "divebars", "title": "Dive Bars"}, {"alias": "waffles", "title": "Waffles"}], "rating": 4.5, "coordinates": {"latitude": 37.7811510761365, "longitude": -122.40636505138}, "transactions": [], "price": "$", "location": {"address1": "431 Natoma St", "address2": null, "address3": "", "city": "San Francisco", "zip_code": "94103", "country": "US", "state": "CA", "display_address": ["431 Natoma St", "San Francisco, CA 94103"]}, "phone": "+14155807170", "display_phone": "(415) 580-7170", "distance": 455.98162469700003}, {"id": "super-duper-burgers-san-francisco-6", "name": "Super Duper Burgers", "image_url": "https://s3-media2.fl.yelpcdn.com/bphoto/i2NyydIljAIfeeZ8MjZJaQ/o.jpg", "is_closed": false, "url": "https://www.yelp.com/biz/super-duper-burgers-san-francisco-6?adjust_creative=0T9f6kHMnzQCXJKBQD97qw&utm_campaign=yelp_api_v3&utm_medium=api_v3_business_search&utm_source=0T9f6kHMnzQCXJKBQD97qw", "review_count": 1033, "categories": [{"alias": "burgers", "title": "Burgers"}], "rating": 4.0, "coordinates": {"latitude": 37.7853266304187, "longitude": -122.403684605543}, "transactions": [], "price": "$$", "location": {"address1": "783 Mission St", "address2": "", "address3": "", "city": "San Francisco", "zip_code": "94103", "country": "US", "state": "CA", "display_address": ["783 Mission St", "San Francisco, CA 94103"]}, "phone": "+14158821750", "display_phone": "(415) 882-1750", "distance": 366.50619920639997}, {"id": "super-duper-burgers-san-francisco-3", "name": "Super Duper Burgers", "image_url": "https://s3-media2.fl.yelpcdn.com/bphoto/7MWvnd7maQLOC5jM3EGyiA/o.jpg", "is_closed": false, "url": "https://www.yelp.com/biz/super-duper-burgers-san-francisco-3?adjust_creative=0T9f6kHMnzQCXJKBQD97qw&utm_campaign=yelp_api_v3&utm_medium=api_v3_business_search&utm_source=0T9f6kHMnzQCXJKBQD97qw", "review_count": 2207, "categories": [{"alias": "burgers", "title": "Burgers"}], "rating": 4.0, "coordinates": {"latitude": 37.7868189045762, "longitude": -122.40416383317}, "transactions": [], "price": "$$", "location": {"address1": "721 Market St", "address2": "", "address3": "", "city": "San Francisco", "zip_code": "94103", "country": "US", "state": "CA", "display_address": ["721 Market St", "San Francisco, CA 94103"]}, "phone": "+14155383437", "display_phone": "(415) 538-3437", "distance": 371.15117287479995}, {"id": "carls-jr-san-francisco-3", "name": "Carl's Jr.", "image_url": "https://s3-media3.fl.yelpcdn.com/bphoto/o6owLELZ0IbkFgXrxFheLA/o.jpg", "is_closed": false, "url": "https://www.yelp.com/biz/carls-jr-san-francisco-3?adjust_creative=0T9f6kHMnzQCXJKBQD97qw&utm_campaign=yelp_api_v3&utm_medium=api_v3_business_search&utm_source=0T9f6kHMnzQCXJKBQD97qw", "review_count": 98, "categories": [{"alias": "burgers", "title": "Burgers"}, {"alias": "hotdogs", "title": "Fast Food"}], "rating": 2.0, "coordinates": {"latitude": 37.7837225049734, "longitude": -122.408570945263}, "transactions": [], "price": "$", "location": {"address1": "1 Hallidie Plz", "address2": "", "address3": "", "city": "San Francisco", "zip_code": "94102", "country": "US", "state": "CA", "display_address": ["1 Hallidie Plz", "San Francisco, CA 94102"]}, "phone": "+14153915799", "display_phone": "(415) 391-5799", "distance": 133.9056335954}, {"id": "pearls-deluxe-burgers-san-francisco-3", "name": "Pearl's Deluxe Burgers", "image_url": "https://s3-media2.fl.yelpcdn.com/bphoto/trZHr6Bai20GX9g2S_KLEg/o.jpg", "is_closed": false, "url": "https://www.yelp.com/biz/pearls-deluxe-burgers-san-francisco-3?adjust_creative=0T9f6kHMnzQCXJKBQD97qw&utm_campaign=yelp_api_v3&utm_medium=api_v3_business_search&utm_source=0T9f6kHMnzQCXJKBQD97qw", "review_count": 1881, "categories": [{"alias": "burgers", "title": "Burgers"}], "rating": 4.0, "coordinates": {"latitude": 37.787823, "longitude": -122.413699}, "transactions": [], "price": "$$", "location": {"address1": "708 Post St", "address2": null, "address3": "", "city": "San Francisco", "zip_code": "94109", "country": "US", "state": "CA", "display_address": ["708 Post St", "San Francisco, CA 94109"]}, "phone": "+14154096120", "display_phone": "(415) 409-6120", "distance": 601.6349574904}, {"id": "jack-in-the-box-san-francisco", "name": "Jack In The Box", "image_url": "https://s3-media4.fl.yelpcdn.com/bphoto/RZfhqPHuxCu40gD_xAz8ag/o.jpg", "is_closed": false, "url": "https://www.yelp.com/biz/jack-in-the-box-san-francisco?adjust_creative=0T9f6kHMnzQCXJKBQD97qw&utm_campaign=yelp_api_v3&utm_medium=api_v3_business_search&utm_source=0T9f6kHMnzQCXJKBQD97qw", "review_count": 169, "categories": [{"alias": "hotdogs", "title": "Fast Food"}, {"alias": "burgers", "title": "Burgers"}], "rating": 3.0, "coordinates": {"latitude": 37.78729, "longitude": -122.41014}, "transactions": [], "price": "$", "location": {"address1": "400 Geary St", "address2": "", "address3": "", "city": "San Francisco", "zip_code": "94102", "country": "US", "state": "CA", "display_address": ["400 Geary St", "San Francisco, CA 94102"]}, "phone": "+14156730868", "display_phone": "(415) 673-0868", "distance": 317.869755704}, {"id": "saigon-sandwich-san-francisco", "name": "Saigon Sandwich", "image_url": "https://s3-media3.fl.yelpcdn.com/bphoto/VoGzzO3uph70MlXatSoghg/o.jpg", "is_closed": false, "url": "https://www.yelp.com/biz/saigon-sandwich-san-francisco?adjust_creative=0T9f6kHMnzQCXJKBQD97qw&utm_campaign=yelp_api_v3&utm_medium=api_v3_business_search&utm_source=0T9f6kHMnzQCXJKBQD97qw", "review_count": 2827, "categories": [{"alias": "vietnamese", "title": "Vietnamese"}, {"alias": "sandwiches", "title": "Sandwiches"}], "rating": 4.5, "coordinates": {"latitude": 37.7831519576568, "longitude": -122.417318022037}, "transactions": [], "price": "$", "location": {"address1": "560 Larkin St", "address2": "", "address3": "", "city": "San Francisco", "zip_code": "94102", "country": "US", "state": "CA", "display_address": ["560 Larkin St", "San Francisco, CA 94102"]}, "phone": "+14154745698", "display_phone": "(415) 474-5698", "distance": 865.4526152843999}, {"id": "tommys-joynt-san-francisco", "name": "Tommy's Joynt", "image_url": "https://s3-media3.fl.yelpcdn.com/bphoto/bBfpfz5TH4qRjklsJY-XyQ/o.jpg", "is_closed": false, "url": "https://www.yelp.com/biz/tommys-joynt-san-francisco?adjust_creative=0T9f6kHMnzQCXJKBQD97qw&utm_campaign=yelp_api_v3&utm_medium=api_v3_business_search&utm_source=0T9f6kHMnzQCXJKBQD97qw", "review_count": 2454, "categories": [{"alias": "tradamerican", "title": "American (Traditional)"}, {"alias": "sandwiches", "title": "Sandwiches"}, {"alias": "bars", "title": "Bars"}], "rating": 4.0, "coordinates": {"latitude": 37.7854957580566, "longitude": -122.421806335449}, "transactions": ["pickup"], "price": "$", "location": {"address1": "1101 Geary Blvd", "address2": "", "address3": "", "city": "San Francisco", "zip_code": "94109", "country": "US", "state": "CA", "display_address": ["1101 Geary Blvd", "San Francisco, CA 94109"]}, "phone": "+14157754216", "display_phone": "(415) 775-4216", "distance": 1233.1112306779999}], "total": 1332, "region": {"center": {"latitude": 37.77181096792784, "longitude": -122.42006897253003}}}