{"businesses": [{"id": "gracepoint-berkeley-berkeley", "name": "Gracepoint Berkeley", "image_url": "https://s3-media2.fl.yelpcdn.com/bphoto/SHaw9AGkF3FPh3BBs7K8IQ/o.jpg", "is_closed": false, "url": "https://www.yelp.com/biz/gracepoint-berkeley-berkeley?adjust_creative=0T9f6kHMnzQCXJKBQD97qw&utm_campaign=yelp_api_v3&utm_medium=api_v3_business_search&utm_source=0T9f6kHMnzQCXJKBQD97qw", "review_count": 41, "categories": [{"alias": "churches", "title": "Churches"}], "rating": 3.5, "coordinates": {"latitude": 37.8597439, "longitude": -122.2590133}, "transactions": [], "location": {"address1": "2797 Telegraph Ave", "address2": "", "address3": "Willard Auditorium", "city": "Berkeley", "zip_code": "94705", "country": "US", "state": "CA", "display_address": ["2797 Telegraph Ave", "Willard Auditorium", "Berkeley, CA 94705"]}, "phone": "+15105222467", "display_phone": "(510) 522-2467", "distance": 17876.16569708}, {"id": "the-movement-church-oakland", "name": "The Movement Church", "image_url": "https://s3-media1.fl.yelpcdn.com/bphoto/CLnVF_eWGQCZPOPKeMz0Iw/o.jpg", "is_closed": false, "url": "https://www.yelp.com/biz/the-movement-church-oakland?adjust_creative=0T9f6kHMnzQCXJKBQD97qw&utm_campaign=yelp_api_v3&utm_medium=api_v3_business_search&utm_source=0T9f6kHMnzQCXJKBQD97qw", "review_count": 29, "categories": [{"alias": "churches", "title": "Churches"}], "rating": 5.0, "coordinates": {"latitude": 37.7462596, "longitude": -122.1659788}, "transactions": [], "location": {"address1": "1800 98th Ave", "address2": "", "address3": "", "city": "Oakland", "zip_code": "94603", "country": "US", "state": "CA", "display_address": ["1800 98th Ave", "Oakland, CA 94603"]}, "phone": "+15108426845", "display_phone": "(510) 842-6845", "distance": 23886.398814379998}, {"id": "abundant-life-christian-fellowship-mountain-view-2", "name": "Abundant Life Christian Fellowship", "image_url": "https://s3-media2.fl.yelpcdn.com/bphoto/30gjNEoDe3n6HsvcUYSKSA/o.jpg", "is_closed": false, "url": "https://www.yelp.com/biz/abundant-life-christian-fellowship-mountain-view-2?adjust_creative=0T9f6kHMnzQCXJKBQD97qw&utm_campaign=yelp_api_v3&utm_medium=api_v3_business_search&utm_source=0T9f6kHMnzQCXJKBQD97qw", "review_count": 68, "categories": [{"alias": "churches", "title": "Churches"}], "rating": 4.0, "coordinates": {"latitude": 37.4198189649, "longitude": -122.098167735}, "transactions": [], "location": {"address1": "2440 Leghorn St", "address2": "", "address3": "", "city": "Mountain View", "zip_code": "94043", "country": "US", "state": "CA", "display_address": ["2440 Leghorn St", "Mountain View, CA 94043"]}, "phone": "+16506251500", "display_phone": "(650) 625-1500", "distance": 49671.118765859996}], "total": 3, "region": {"center": {"latitude": 37.63969783245, "longitude": -122.28088154496997}}}