{"businesses": [{"id": "mb-wedding-design-and-events-san-francisco", "name": "MB Wedding Design and Events", "image_url": "https://s3-media1.fl.yelpcdn.com/bphoto/GkwMe0VQVvsStskdsHsrsw/o.jpg", "is_closed": false, "url": "https://www.yelp.com/biz/mb-wedding-design-and-events-san-francisco?adjust_creative=0T9f6kHMnzQCXJKBQD97qw&utm_campaign=yelp_api_v3&utm_medium=api_v3_business_search&utm_source=0T9f6kHMnzQCXJKBQD97qw", "review_count": 13, "categories": [{"alias": "wedding_planning", "title": "Wedding Planning"}, {"alias": "eventplanning", "title": "Party & Event Planning"}], "rating": 4.5, "coordinates": {"latitude": 37.7648391723633, "longitude": -122.394752502441}, "transactions": [], "location": {"address1": "", "address2": "", "address3": "", "city": "San Francisco", "zip_code": "94107", "country": "US", "state": "CA", "display_address": ["San Francisco, CA 94107"]}, "phone": "+14157061677", "display_phone": "(415) 706-1677", "distance": 3329.4988305319994}, {"id": "action-rentals-san-francisco", "name": "Action Rentals", "image_url": "https://s3-media3.fl.yelpcdn.com/bphoto/Do1hSfPvYekVh6P8wxjpGQ/o.jpg", "is_closed": false, "url": "https://www.yelp.com/biz/action-rentals-san-francisco?adjust_creative=0T9f6kHMnzQCXJKBQD97qw&utm_campaign=yelp_api_v3&utm_medium=api_v3_business_search&utm_source=0T9f6kHMnzQCXJKBQD97qw", "review_count": 88, "categories": [{"alias": "buildingsupplies", "title": "Building Supplies"}, {"alias": "partyequipmentrentals", "title": "Party Equipment Rentals"}], "rating": 4.5, "coordinates": {"latitude": 37.7716314, "longitude": -122.4145163}, "transactions": [], "location": {"address1": "1530 Folsom St", "address2": "", "address3": "", "city": "San Francisco", "zip_code": "94103", "country": "US", "state": "CA", "display_address": ["1530 Folsom St", "San Francisco, CA 94103"]}, "phone": "+14158261830", "display_phone": "(415) 826-1830", "distance": 2255.771805434}, {"id": "quest-diagnostics-san-francisco", "name": "Quest Diagnostics", "image_url": "https://s3-media2.fl.yelpcdn.com/bphoto/ThiUor4fEKP2HzLQtdxNVg/o.jpg", "is_closed": false, "url": "https://www.yelp.com/biz/quest-diagnostics-san-francisco?adjust_creative=0T9f6kHMnzQCXJKBQD97qw&utm_campaign=yelp_api_v3&utm_medium=api_v3_business_search&utm_source=0T9f6kHMnzQCXJKBQD97qw", "review_count": 33, "categories": [{"alias": "diagnosticservices", "title": "Diagnostic Services"}], "rating": 3.5, "coordinates": {"latitude": 37.7661, "longitude": -122.43308}, "transactions": [], "location": {"address1": "2198 15th St", "address2": "", "address3": "", "city": "San Francisco", "zip_code": "94114", "country": "US", "state": "CA", "display_address": ["2198 15th St", "San Francisco, CA 94114"]}, "phone": "+14154318723", "display_phone": "(415) 431-8723", "distance": 649.98989524}, {"id": "cinnamon-tree-oakland-4", "name": "Cinnamon Tree", "image_url": "https://s3-media3.fl.yelpcdn.com/bphoto/DDdSSMEAlsoOZ2GX2pi-TA/o.jpg", "is_closed": false, "url": "https://www.yelp.com/biz/cinnamon-tree-oakland-4?adjust_creative=0T9f6kHMnzQCXJKBQD97qw&utm_campaign=yelp_api_v3&utm_medium=api_v3_business_search&utm_source=0T9f6kHMnzQCXJKBQD97qw", "review_count": 76, "categories": [{"alias": "dimsum", "title": "Dim Sum"}, {"alias": "cantonese", "title": "Cantonese"}], "rating": 3.0, "coordinates": {"latitude": 37.7991313098422, "longitude": -122.272685837718}, "transactions": [], "price": "$$", "location": {"address1": "708 Franklin St", "address2": "", "address3": "", "city": "Oakland", "zip_code": "94607", "country": "US", "state": "CA", "display_address": ["708 Franklin St", "Oakland, CA 94607"]}, "phone": "+15102518800", "display_phone": "(510) 251-8800", "distance": 15007.15343624}, {"id": "hornblower-cruises-and-events-san-francisco", "name": "Hornblower Cruises & Events", "image_url": "https://s3-media1.fl.yelpcdn.com/bphoto/Yz4HhdPWn4TQfsjnhr9pQQ/o.jpg", "is_closed": false, "url": "https://www.yelp.com/biz/hornblower-cruises-and-events-san-francisco?adjust_creative=0T9f6kHMnzQCXJKBQD97qw&utm_campaign=yelp_api_v3&utm_medium=api_v3_business_search&utm_source=0T9f6kHMnzQCXJKBQD97qw", "review_count": 517, "categories": [{"alias": "boatcharters", "title": "Boat Charters"}, {"alias": "eventplanning", "title": "Party & Event Planning"}, {"alias": "tours", "title": "Tours"}], "rating": 4.0, "coordinates": {"latitude": 37.7983245118328, "longitude": -122.394580073016}, "transactions": [], "location": {"address1": "Pier 3 Hornblower Lndg", "address2": "", "address3": "", "city": "San Francisco", "zip_code": "94111", "country": "US", "state": "CA", "display_address": ["Pier 3 Hornblower Lndg", "San Francisco, CA 94111"]}, "phone": "+14157122556", "display_phone": "(415) 712-2556", "distance": 5555.126571228}], "total": 5, "region": {"center": {"latitude": 37.76089938976322, "longitude": -122.40572158096838}}}