{"businesses": [{"id": "a-taste-of-chicago-san-francisco", "name": "A Taste of Chicago", "image_url": "https://s3-media2.fl.yelpcdn.com/bphoto/mq8k3Bo9rksvXYqVbXUdKQ/o.jpg", "is_closed": false, "url": "https://www.yelp.com/biz/a-taste-of-chicago-san-francisco?adjust_creative=0T9f6kHMnzQCXJKBQD97qw&utm_campaign=yelp_api_v3&utm_medium=api_v3_business_search&utm_source=0T9f6kHMnzQCXJKBQD97qw", "review_count": 4, "categories": [{"alias": "foodstands", "title": "Food Stands"}], "rating": 4.5, "coordinates": {"latitude": 37.8164825, "longitude": -122.371521}, "transactions": [], "location": {"address1": "1-17 Treasure Island Rd", "address2": "", "address3": "", "city": "San Francisco", "zip_code": "94130", "country": "US", "state": "CA", "display_address": ["1-17 Treasure Island Rd", "San Francisco, CA 94130"]}, "phone": "+15106912940", "display_phone": "(510) 691-2940", "distance": 8367.413459484}, {"id": "patxis-pizza-san-francisco-3", "name": "Patxi's Pizza", "image_url": "https://s3-media4.fl.yelpcdn.com/bphoto/-OnQhHIedZG2p75Wu29xJw/o.jpg", "is_closed": false, "url": "https://www.yelp.com/biz/patxis-pizza-san-francisco-3?adjust_creative=0T9f6kHMnzQCXJKBQD97qw&utm_campaign=yelp_api_v3&utm_medium=api_v3_business_search&utm_source=0T9f6kHMnzQCXJKBQD97qw", "review_count": 776, "categories": [{"alias": "pizza", "title": "Pizza"}, {"alias": "salad", "title": "Salad"}, {"alias": "italian", "title": "Italian"}], "rating": 3.5, "coordinates": {"latitude": 37.8002166748047, "longitude": -122.435806274414}, "transactions": ["delivery", "pickup"], "price": "$$", "location": {"address1": "3318 Fillmore St", "address2": "", "address3": "", "city": "San Francisco", "zip_code": "94123", "country": "US", "state": "CA", "display_address": ["3318 Fillmore St", "San Francisco, CA 94123"]}, "phone": "+14153453995", "display_phone": "(415) 345-3995", "distance": 4371.855473812}, {"id": "little-star-pizza-san-francisco", "name": "Little Star Pizza", "image_url": "https://s3-media2.fl.yelpcdn.com/bphoto/C-lgf5TcabWh0YvlTAGGTw/o.jpg", "is_closed": false, "url": "https://www.yelp.com/biz/little-star-pizza-san-francisco?adjust_creative=0T9f6kHMnzQCXJKBQD97qw&utm_campaign=yelp_api_v3&utm_medium=api_v3_business_search&utm_source=0T9f6kHMnzQCXJKBQD97qw", "review_count": 2601, "categories": [{"alias": "pizza", "title": "Pizza"}, {"alias": "salad", "title": "Salad"}, {"alias": "chicken_wings", "title": "Chicken Wings"}], "rating": 4.5, "coordinates": {"latitude": 37.77753, "longitude": -122.43798}, "transactions": [], "price": "$$", "location": {"address1": "846 Divisadero St", "address2": "", "address3": "", "city": "San Francisco", "zip_code": "94117", "country": "US", "state": "CA", "display_address": ["846 Divisadero St", "San Francisco, CA 94117"]}, "phone": "+14154411118", "display_phone": "(415) 441-1118", "distance": 1856.5689029419998}, {"id": "patxis-pizza-san-francisco-2", "name": "Patxi's Pizza", "image_url": "https://s3-media2.fl.yelpcdn.com/bphoto/EOEfNgRIFDiLv-UHnWK_eQ/o.jpg", "is_closed": false, "url": "https://www.yelp.com/biz/patxis-pizza-san-francisco-2?adjust_creative=0T9f6kHMnzQCXJKBQD97qw&utm_campaign=yelp_api_v3&utm_medium=api_v3_business_search&utm_source=0T9f6kHMnzQCXJKBQD97qw", "review_count": 1980, "categories": [{"alias": "pizza", "title": "Pizza"}, {"alias": "salad", "title": "Salad"}, {"alias": "italian", "title": "Italian"}], "rating": 3.5, "coordinates": {"latitude": 37.77649, "longitude": -122.425}, "transactions": ["delivery", "pickup"], "price": "$$", "location": {"address1": "511 Hayes St", "address2": "", "address3": "", "city": "San Francisco", "zip_code": "94102", "country": "US", "state": "CA", "display_address": ["511 Hayes St", "San Francisco, CA 94102"]}, "phone": "+14155589991", "display_phone": "(415) 558-9991", "distance": 2007.125717688}, {"id": "little-star-pizza-san-francisco-2", "name": "Little Star Pizza", "image_url": "https://s3-media1.fl.yelpcdn.com/bphoto/5ijxMs8NmErAIAY2B10yTw/o.jpg", "is_closed": false, "url": "https://www.yelp.com/biz/little-star-pizza-san-francisco-2?adjust_creative=0T9f6kHMnzQCXJKBQD97qw&utm_campaign=yelp_api_v3&utm_medium=api_v3_business_search&utm_source=0T9f6kHMnzQCXJKBQD97qw", "review_count": 1837, "categories": [{"alias": "pizza", "title": "Pizza"}, {"alias": "desserts", "title": "Desserts"}, {"alias": "salad", "title": "Salad"}], "rating": 4.0, "coordinates": {"latitude": 37.7662598870271, "longitude": -122.422120973633}, "transactions": ["pickup"], "price": "$$", "location": {"address1": "400 Valencia St", "address2": null, "address3": "", "city": "San Francisco", "zip_code": "94103", "country": "US", "state": "CA", "display_address": ["400 Valencia St", "San Francisco, CA 94103"]}, "phone": "+14155517827", "display_phone": "(415) 551-7827", "distance": 1393.377998314}, {"id": "capos-chicago-pizza-san-francisco", "name": "Capo's Chicago Pizza", "image_url": "https://s3-media4.fl.yelpcdn.com/bphoto/4lGVbYoPTqHWiO_Mv430UQ/o.jpg", "is_closed": false, "url": "https://www.yelp.com/biz/capos-chicago-pizza-san-francisco?adjust_creative=0T9f6kHMnzQCXJKBQD97qw&utm_campaign=yelp_api_v3&utm_medium=api_v3_business_search&utm_source=0T9f6kHMnzQCXJKBQD97qw", "review_count": 555, "categories": [{"alias": "italian", "title": "Italian"}, {"alias": "pizza", "title": "Pizza"}, {"alias": "whiskeybars", "title": "Whiskey Bars"}], "rating": 4.0, "coordinates": {"latitude": 37.7985156, "longitude": -122.4084149}, "transactions": ["pickup"], "price": "$$", "location": {"address1": "641 Vallejo St", "address2": "", "address3": "", "city": "San Francisco", "zip_code": "94133", "country": "US", "state": "CA", "display_address": ["641 Vallejo St", "San Francisco, CA 94133"]}, "phone": "+14159868998", "display_phone": "(415) 986-8998", "distance": 4854.308890767999}, {"id": "grinders-pizzeria-san-francisco-4", "name": "Grinders Pizzeria", "image_url": "https://s3-media2.fl.yelpcdn.com/bphoto/2S-eXWhOP9LFslK8LldP6w/o.jpg", "is_closed": false, "url": "https://www.yelp.com/biz/grinders-pizzeria-san-francisco-4?adjust_creative=0T9f6kHMnzQCXJKBQD97qw&utm_campaign=yelp_api_v3&utm_medium=api_v3_business_search&utm_source=0T9f6kHMnzQCXJKBQD97qw", "review_count": 184, "categories": [{"alias": "pizza", "title": "Pizza"}, {"alias": "sandwiches", "title": "Sandwiches"}, {"alias": "salad", "title": "Salad"}], "rating": 4.0, "coordinates": {"latitude": 37.7774206922303, "longitude": -122.463814810797}, "transactions": ["delivery", "pickup"], "price": "$$", "location": {"address1": "448 Balboa St", "address2": null, "address3": "", "city": "San Francisco", "zip_code": "94118", "country": "US", "state": "CA", "display_address": ["448 Balboa St", "San Francisco, CA 94118"]}, "phone": "+14159336700", "display_phone": "(415) 933-6700", "distance": 3026.748824128}, {"id": "whats-up-dog-san-francisco-13", "name": "What's Up Dog", "image_url": "https://s3-media1.fl.yelpcdn.com/bphoto/wHPObnoHBAG9uI9zcvORgw/o.jpg", "is_closed": false, "url": "https://www.yelp.com/biz/whats-up-dog-san-francisco-13?adjust_creative=0T9f6kHMnzQCXJKBQD97qw&utm_campaign=yelp_api_v3&utm_medium=api_v3_business_search&utm_source=0T9f6kHMnzQCXJKBQD97qw", "review_count": 107, "categories": [{"alias": "hotdog", "title": "Hot Dogs"}], "rating": 4.0, "coordinates": {"latitude": 37.7838451119537, "longitude": -122.398797019547}, "transactions": [], "price": "$", "location": {"address1": "699 Folsom St", "address2": "", "address3": "", "city": "San Francisco", "zip_code": "94107", "country": "US", "state": "CA", "display_address": ["699 Folsom St", "San Francisco, CA 94107"]}, "phone": "+14153489888", "display_phone": "(415) 348-9888", "distance": 4183.927370255999}, {"id": "mortons-the-steakhouse-san-francisco", "name": "Morton's The Steakhouse", "image_url": "https://s3-media2.fl.yelpcdn.com/bphoto/rsp0slZgLS6VsgLyZYl_rA/o.jpg", "is_closed": false, "url": "https://www.yelp.com/biz/mortons-the-steakhouse-san-francisco?adjust_creative=0T9f6kHMnzQCXJKBQD97qw&utm_campaign=yelp_api_v3&utm_medium=api_v3_business_search&utm_source=0T9f6kHMnzQCXJKBQD97qw", "review_count": 990, "categories": [{"alias": "steak", "title": "Steakhouses"}], "rating": 3.5, "coordinates": {"latitude": 37.7884113504782, "longitude": -122.409004122019}, "transactions": [], "price": "$$$$", "location": {"address1": "400 Post St Lower Level", "address2": "", "address3": "", "city": "San Francisco", "zip_code": "94102", "country": "US", "state": "CA", "display_address": ["400 Post St Lower Level", "San Francisco, CA 94102"]}, "phone": "+14159865830", "display_phone": "(415) 986-5830", "distance": 3895.65048034}, {"id": "jiffy-dog-san-francisco-7", "name": "Jiffy Dog", "image_url": "https://s3-media2.fl.yelpcdn.com/bphoto/WedbkvHqsn4NVgpiwDlDxA/o.jpg", "is_closed": false, "url": "https://www.yelp.com/biz/jiffy-dog-san-francisco-7?adjust_creative=0T9f6kHMnzQCXJKBQD97qw&utm_campaign=yelp_api_v3&utm_medium=api_v3_business_search&utm_source=0T9f6kHMnzQCXJKBQD97qw", "review_count": 42, "categories": [{"alias": "foodstands", "title": "Food Stands"}, {"alias": "hotdog", "title": "Hot Dogs"}, {"alias": "breakfast_brunch", "title": "Breakfast & Brunch"}], "rating": 3.5, "coordinates": {"latitude": 37.76573, "longitude": -122.40202}, "transactions": ["pickup"], "price": "$", "location": {"address1": "300 De Haro St", "address2": "", "address3": "", "city": "San Francisco", "zip_code": "94103", "country": "US", "state": "CA", "display_address": ["300 De Haro St", "San Francisco, CA 94103"]}, "phone": "+14154314311", "display_phone": "(415) 431-4311", "distance": 3073.223666516}, {"id": "tonys-pizza-napoletana-san-francisco", "name": "Tony's Pizza Napoletana", "image_url": "https://s3-media2.fl.yelpcdn.com/bphoto/d8tM3JkgYW0roXBygLoSKg/o.jpg", "is_closed": false, "url": "https://www.yelp.com/biz/tonys-pizza-napoletana-san-francisco?adjust_creative=0T9f6kHMnzQCXJKBQD97qw&utm_campaign=yelp_api_v3&utm_medium=api_v3_business_search&utm_source=0T9f6kHMnzQCXJKBQD97qw", "review_count": 3481, "categories": [{"alias": "pizza", "title": "Pizza"}, {"alias": "italian", "title": "Italian"}, {"alias": "cocktailbars", "title": "Cocktail Bars"}], "rating": 4.0, "coordinates": {"latitude": 37.80032, "longitude": -122.40894}, "transactions": [], "price": "$$", "location": {"address1": "1570 Stockton St", "address2": "", "address3": "", "city": "San Francisco", "zip_code": "94133", "country": "US", "state": "CA", "display_address": ["1570 Stockton St", "San Francisco, CA 94133"]}, "phone": "+14158359888", "display_phone": "(415) 835-9888", "distance": 5004.826598552}, {"id": "escape-from-new-york-pizza-san-francisco-3", "name": "Escape From New York Pizza", "image_url": "https://s3-media2.fl.yelpcdn.com/bphoto/ZHziQtdBkRuuV3zncw63Ng/o.jpg", "is_closed": false, "url": "https://www.yelp.com/biz/escape-from-new-york-pizza-san-francisco-3?adjust_creative=0T9f6kHMnzQCXJKBQD97qw&utm_campaign=yelp_api_v3&utm_medium=api_v3_business_search&utm_source=0T9f6kHMnzQCXJKBQD97qw", "review_count": 947, "categories": [{"alias": "pizza", "title": "Pizza"}, {"alias": "gluten_free", "title": "Gluten-Free"}, {"alias": "chicken_wings", "title": "Chicken Wings"}], "rating": 4.0, "coordinates": {"latitude": 37.7694456, "longitude": -122.4512722}, "transactions": ["pickup"], "price": "$", "location": {"address1": "1737 Haight St", "address2": "", "address3": "", "city": "San Francisco", "zip_code": "94117", "country": "US", "state": "CA", "display_address": ["1737 Haight St", "San Francisco, CA 94117"]}, "phone": "+14156685577", "display_phone": "(415) 668-5577", "distance": 1612.9344608899999}, {"id": "phat-philly-san-francisco", "name": "Phat Philly", "image_url": "https://s3-media2.fl.yelpcdn.com/bphoto/YH2IpkJwCoceIcKcuHcjKg/o.jpg", "is_closed": false, "url": "https://www.yelp.com/biz/phat-philly-san-francisco?adjust_creative=0T9f6kHMnzQCXJKBQD97qw&utm_campaign=yelp_api_v3&utm_medium=api_v3_business_search&utm_source=0T9f6kHMnzQCXJKBQD97qw", "review_count": 930, "categories": [{"alias": "sandwiches", "title": "Sandwiches"}, {"alias": "cheesesteaks", "title": "Cheesesteaks"}, {"alias": "chicken_wings", "title": "Chicken Wings"}], "rating": 4.0, "coordinates": {"latitude": 37.75224, "longitude": -122.42037}, "transactions": ["delivery", "pickup"], "price": "$", "location": {"address1": "3388 24th St", "address2": "", "address3": "", "city": "San Francisco", "zip_code": "94110", "country": "US", "state": "CA", "display_address": ["3388 24th St", "San Francisco, CA 94110"]}, "phone": "+14155507428", "display_phone": "(415) 550-7428", "distance": 1715.6871184079998}, {"id": "dapper-dog-san-francisco-5", "name": "Dapper Dog", "image_url": "https://s3-media2.fl.yelpcdn.com/bphoto/RzexlkQ03dWKX6vk8dPnyw/o.jpg", "is_closed": false, "url": "https://www.yelp.com/biz/dapper-dog-san-francisco-5?adjust_creative=0T9f6kHMnzQCXJKBQD97qw&utm_campaign=yelp_api_v3&utm_medium=api_v3_business_search&utm_source=0T9f6kHMnzQCXJKBQD97qw", "review_count": 115, "categories": [{"alias": "hotdog", "title": "Hot Dogs"}], "rating": 4.0, "coordinates": {"latitude": 37.7622353285551, "longitude": -122.435066476464}, "transactions": ["pickup"], "price": "$", "location": {"address1": "417 Castro St", "address2": "", "address3": "", "city": "San Francisco", "zip_code": "94114", "country": "US", "state": "CA", "display_address": ["417 Castro St", "San Francisco, CA 94114"]}, "phone": "+14155536332", "display_phone": "(415) 553-6332", "distance": 185.698282519}, {"id": "deja-vu-pizza-and-pasta-san-francisco", "name": "Deja Vu Pizza and Pasta", "image_url": "https://s3-media3.fl.yelpcdn.com/bphoto/MrWE7LizekrrUDPGacW_Qg/o.jpg", "is_closed": false, "url": "https://www.yelp.com/biz/deja-vu-pizza-and-pasta-san-francisco?adjust_creative=0T9f6kHMnzQCXJKBQD97qw&utm_campaign=yelp_api_v3&utm_medium=api_v3_business_search&utm_source=0T9f6kHMnzQCXJKBQD97qw", "review_count": 347, "categories": [{"alias": "pizza", "title": "Pizza"}], "rating": 3.5, "coordinates": {"latitude": 37.7646, "longitude": -122.42471}, "transactions": ["delivery", "pickup"], "price": "$", "location": {"address1": "3227 16th St", "address2": "", "address3": "", "city": "San Francisco", "zip_code": "94103", "country": "US", "state": "CA", "display_address": ["3227 16th St", "San Francisco, CA 94103"]}, "phone": "+14152551600", "display_phone": "(415) 255-1600", "distance": 1099.9088947559999}, {"id": "chicos-pizza-san-francisco", "name": "Chico's Pizza", "image_url": "https://s3-media4.fl.yelpcdn.com/bphoto/0SwzSinGVAeFTGQj_w8T6w/o.jpg", "is_closed": false, "url": "https://www.yelp.com/biz/chicos-pizza-san-francisco?adjust_creative=0T9f6kHMnzQCXJKBQD97qw&utm_campaign=yelp_api_v3&utm_medium=api_v3_business_search&utm_source=0T9f6kHMnzQCXJKBQD97qw", "review_count": 278, "categories": [{"alias": "pizza", "title": "Pizza"}], "rating": 3.5, "coordinates": {"latitude": 37.7807693, "longitude": -122.4081793}, "transactions": ["delivery", "pickup"], "price": "$", "location": {"address1": "131 6th St", "address2": "", "address3": "", "city": "San Francisco", "zip_code": "94103", "country": "US", "state": "CA", "display_address": ["131 6th St", "San Francisco, CA 94103"]}, "phone": "+14152551111", "display_phone": "(415) 255-1111", "distance": 3326.21770814}, {"id": "deli-board-san-francisco", "name": "Deli Board", "image_url": "https://s3-media4.fl.yelpcdn.com/bphoto/wA6jJVj5-by8NzVCCuBlmQ/o.jpg", "is_closed": false, "url": "https://www.yelp.com/biz/deli-board-san-francisco?adjust_creative=0T9f6kHMnzQCXJKBQD97qw&utm_campaign=yelp_api_v3&utm_medium=api_v3_business_search&utm_source=0T9f6kHMnzQCXJKBQD97qw", "review_count": 1030, "categories": [{"alias": "delis", "title": "Delis"}, {"alias": "sandwiches", "title": "Sandwiches"}], "rating": 4.5, "coordinates": {"latitude": 37.7823734501973, "longitude": -122.428298722749}, "transactions": [], "price": "$$", "location": {"address1": "1058 Folsom St", "address2": "", "address3": "", "city": "San Francisco", "zip_code": "94103", "country": "US", "state": "CA", "display_address": ["1058 Folsom St", "San Francisco, CA 94103"]}, "phone": "+14155527687", "display_phone": "(415) 552-7687", "distance": 2493.181320366}, {"id": "off-the-grid-upper-haight-san-francisco-2", "name": "Off the Grid: Upper Haight", "image_url": "https://s3-media3.fl.yelpcdn.com/bphoto/2Wa6xNFFC9Mm9X7jFnMqEA/o.jpg", "is_closed": false, "url": "https://www.yelp.com/biz/off-the-grid-upper-haight-san-francisco-2?adjust_creative=0T9f6kHMnzQCXJKBQD97qw&utm_campaign=yelp_api_v3&utm_medium=api_v3_business_search&utm_source=0T9f6kHMnzQCXJKBQD97qw", "review_count": 170, "categories": [{"alias": "gourmet", "title": "Specialty Food"}, {"alias": "foodtrucks", "title": "Food Trucks"}], "rating": 4.5, "coordinates": {"latitude": 37.76825, "longitude": -122.45335}, "transactions": [], "price": "$$", "location": {"address1": "Stanyan At Waller", "address2": "", "address3": "", "city": "San Francisco", "zip_code": "94117", "country": "US", "state": "CA", "display_address": ["Stanyan At Waller", "San Francisco, CA 94117"]}, "phone": "+14153395888", "display_phone": "(415) 339-5888", "distance": 1717.846691754}, {"id": "patxis-pizza-san-francisco-5", "name": "Patxi's Pizza", "image_url": "https://s3-media4.fl.yelpcdn.com/bphoto/mMNiGfn95G_Qslsrjxc3mA/o.jpg", "is_closed": false, "url": "https://www.yelp.com/biz/patxis-pizza-san-francisco-5?adjust_creative=0T9f6kHMnzQCXJKBQD97qw&utm_campaign=yelp_api_v3&utm_medium=api_v3_business_search&utm_source=0T9f6kHMnzQCXJKBQD97qw", "review_count": 588, "categories": [{"alias": "pizza", "title": "Pizza"}, {"alias": "italian", "title": "Italian"}, {"alias": "salad", "title": "Salad"}], "rating": 3.5, "coordinates": {"latitude": 37.76426, "longitude": -122.46677}, "transactions": ["delivery", "pickup"], "price": "$$", "location": {"address1": "822 Irving St", "address2": "", "address3": "", "city": "San Francisco", "zip_code": "94122", "country": "US", "state": "CA", "display_address": ["822 Irving St", "San Francisco, CA 94122"]}, "phone": "+14157599000", "display_phone": "(415) 759-9000", "distance": 2693.516630652}, {"id": "bus-stop-pizza-san-francisco", "name": "Bus Stop Pizza", "image_url": "https://s3-media4.fl.yelpcdn.com/bphoto/hnHPAIhhKNVwM6VYhFdl3A/o.jpg", "is_closed": false, "url": "https://www.yelp.com/biz/bus-stop-pizza-san-francisco?adjust_creative=0T9f6kHMnzQCXJKBQD97qw&utm_campaign=yelp_api_v3&utm_medium=api_v3_business_search&utm_source=0T9f6kHMnzQCXJKBQD97qw", "review_count": 107, "categories": [{"alias": "pizza", "title": "Pizza"}], "rating": 3.5, "coordinates": {"latitude": 37.77152, "longitude": -122.43688}, "transactions": [], "price": "$", "location": {"address1": "256 Divisadero St", "address2": "", "address3": "", "city": "San Francisco", "zip_code": "94117", "country": "US", "state": "CA", "display_address": ["256 Divisadero St", "San Francisco, CA 94117"]}, "phone": "+14156265559", "display_phone": "(415) 626-5559", "distance": 1184.0640675142}], "total": 1293, "region": {"center": {"latitude": 37.76089938976322, "longitude": -122.43644714355469}}}