{"businesses": [{"id": "abv-san-francisco-2", "name": "ABV", "image_url": "https://s3-media2.fl.yelpcdn.com/bphoto/QR6UaYDybs6P64De-fEVCg/o.jpg", "is_closed": false, "url": "https://www.yelp.com/biz/abv-san-francisco-2?adjust_creative=0T9f6kHMnzQCXJKBQD97qw&utm_campaign=yelp_api_v3&utm_medium=api_v3_business_search&utm_source=0T9f6kHMnzQCXJKBQD97qw", "review_count": 384, "categories": [{"alias": "cocktailbars", "title": "Cocktail Bars"}, {"alias": "newamerican", "title": "American (New)"}], "rating": 4.5, "coordinates": {"latitude": 37.7650569, "longitude": -122.4236097}, "transactions": [], "price": "$$", "location": {"address1": "3174 16th St", "address2": "", "address3": "", "city": "San Francisco", "zip_code": "94103", "country": "US", "state": "CA", "display_address": ["3174 16th St", "San Francisco, CA 94103"]}, "phone": "+14154004748", "display_phone": "(415) 400-4748", "distance": 1219.750007196}, {"id": "the-monks-kettle-san-francisco", "name": "The Monk's Kettle", "image_url": "https://s3-media1.fl.yelpcdn.com/bphoto/47kA45l9yNMMPg1P_qbCGw/o.jpg", "is_closed": false, "url": "https://www.yelp.com/biz/the-monks-kettle-san-francisco?adjust_creative=0T9f6kHMnzQCXJKBQD97qw&utm_campaign=yelp_api_v3&utm_medium=api_v3_business_search&utm_source=0T9f6kHMnzQCXJKBQD97qw", "review_count": 1991, "categories": [{"alias": "bars", "title": "Bars"}, {"alias": "gastropubs", "title": "Gastropubs"}], "rating": 4.0, "coordinates": {"latitude": 37.7647290879634, "longitude": -122.42297490884}, "transactions": [], "price": "$$", "location": {"address1": "3141 16th St", "address2": "", "address3": "", "city": "San Francisco", "zip_code": "94103", "country": "US", "state": "CA", "display_address": ["3141 16th St", "San Francisco, CA 94103"]}, "phone": "+14158659523", "display_phone": "(415) 865-9523", "distance": 1258.6320478375999}, {"id": "bond-san-francisco-2", "name": "Bond", "image_url": "https://s3-media1.fl.yelpcdn.com/bphoto/SjQGgwH_QacQ2Bn_RmcFHA/o.jpg", "is_closed": false, "url": "https://www.yelp.com/biz/bond-san-francisco-2?adjust_creative=0T9f6kHMnzQCXJKBQD97qw&utm_campaign=yelp_api_v3&utm_medium=api_v3_business_search&utm_source=0T9f6kHMnzQCXJKBQD97qw", "review_count": 141, "categories": [{"alias": "cocktailbars", "title": "Cocktail Bars"}, {"alias": "lounges", "title": "Lounges"}], "rating": 4.0, "coordinates": {"latitude": 37.7648165222907, "longitude": -122.421419674788}, "transactions": [], "price": "$$", "location": {"address1": "3079 16th St", "address2": "", "address3": "", "city": "San Francisco", "zip_code": "94103", "country": "US", "state": "CA", "display_address": ["3079 16th St", "San Francisco, CA 94103"]}, "phone": "+14157354499", "display_phone": "(415) 735-4499", "distance": 1391.1731059535998}, {"id": "uma-casa-san-francisco", "name": "Uma Casa", "image_url": "https://s3-media3.fl.yelpcdn.com/bphoto/ylHaX4QI1a4D48-vllppWg/o.jpg", "is_closed": false, "url": "https://www.yelp.com/biz/uma-casa-san-francisco?adjust_creative=0T9f6kHMnzQCXJKBQD97qw&utm_campaign=yelp_api_v3&utm_medium=api_v3_business_search&utm_source=0T9f6kHMnzQCXJKBQD97qw", "review_count": 92, "categories": [{"alias": "portuguese", "title": "Portuguese"}, {"alias": "cocktailbars", "title": "Cocktail Bars"}], "rating": 4.0, "coordinates": {"latitude": 37.74594, "longitude": -122.42704}, "transactions": [], "price": "$$$", "location": {"address1": "1550 Church St", "address2": "", "address3": null, "city": "San Francisco", "zip_code": "94131", "country": "US", "state": "CA", "display_address": ["1550 Church St", "San Francisco, CA 94131"]}, "phone": "+14158292264", "display_phone": "(415) 829-2264", "distance": 1849.456102944}, {"id": "dalva-san-francisco", "name": "Dalva", "image_url": "https://s3-media2.fl.yelpcdn.com/bphoto/AUMzmr56zMmGkd9rt9775g/o.jpg", "is_closed": false, "url": "https://www.yelp.com/biz/dalva-san-francisco?adjust_creative=0T9f6kHMnzQCXJKBQD97qw&utm_campaign=yelp_api_v3&utm_medium=api_v3_business_search&utm_source=0T9f6kHMnzQCXJKBQD97qw", "review_count": 461, "categories": [{"alias": "cocktailbars", "title": "Cocktail Bars"}, {"alias": "lounges", "title": "Lounges"}], "rating": 4.0, "coordinates": {"latitude": 37.7648303770923, "longitude": -122.422442280378}, "transactions": [], "price": "$$", "location": {"address1": "3121 16th St", "address2": "", "address3": "", "city": "San Francisco", "zip_code": "94110", "country": "US", "state": "CA", "display_address": ["3121 16th St", "San Francisco, CA 94110"]}, "phone": "+14152527740", "display_phone": "(415) 252-7740", "distance": 1302.258776854}, {"id": "overproof-san-francisco", "name": "Overproof", "image_url": "https://s3-media4.fl.yelpcdn.com/bphoto/PdCDA5FPBmj2SB_onBPdDw/o.jpg", "is_closed": false, "url": "https://www.yelp.com/biz/overproof-san-francisco?adjust_creative=0T9f6kHMnzQCXJKBQD97qw&utm_campaign=yelp_api_v3&utm_medium=api_v3_business_search&utm_source=0T9f6kHMnzQCXJKBQD97qw", "review_count": 2, "categories": [{"alias": "cocktailbars", "title": "Cocktail Bars"}, {"alias": "tapasmallplates", "title": "Tapas/Small Plates"}], "rating": 4.5, "coordinates": {"latitude": 37.7649428, "longitude": -122.4235361}, "transactions": [], "location": {"address1": "3174 16th St", "address2": "", "address3": null, "city": "San Francisco", "zip_code": "94103", "country": "US", "state": "CA", "display_address": ["3174 16th St", "San Francisco, CA 94103"]}, "phone": "+14154004748", "display_phone": "(415) 400-4748", "distance": 1222.5332963524}, {"id": "wilson-and-wilson-san-francisco", "name": "Wilson & Wilson", "image_url": "https://s3-media2.fl.yelpcdn.com/bphoto/Z7kxi3lTHrd4Uc-hzrlgTw/o.jpg", "is_closed": false, "url": "https://www.yelp.com/biz/wilson-and-wilson-san-francisco?adjust_creative=0T9f6kHMnzQCXJKBQD97qw&utm_campaign=yelp_api_v3&utm_medium=api_v3_business_search&utm_source=0T9f6kHMnzQCXJKBQD97qw", "review_count": 313, "categories": [{"alias": "lounges", "title": "Lounges"}, {"alias": "speakeasies", "title": "Speakeasies"}], "rating": 4.5, "coordinates": {"latitude": 37.7859776, "longitude": -122.4131408}, "transactions": [], "price": "$$", "location": {"address1": "505 Jones St", "address2": "", "address3": "", "city": "San Francisco", "zip_code": "94102", "country": "US", "state": "CA", "display_address": ["505 Jones St", "San Francisco, CA 94102"]}, "phone": "", "display_phone": "", "distance": 3460.1394190419996}, {"id": "mikkeller-bar-san-francisco", "name": "Mikkeller Bar", "image_url": "https://s3-media4.fl.yelpcdn.com/bphoto/JTFs0SI0QjJrZuCQaiBdrw/o.jpg", "is_closed": false, "url": "https://www.yelp.com/biz/mikkeller-bar-san-francisco?adjust_creative=0T9f6kHMnzQCXJKBQD97qw&utm_campaign=yelp_api_v3&utm_medium=api_v3_business_search&utm_source=0T9f6kHMnzQCXJKBQD97qw", "review_count": 874, "categories": [{"alias": "gastropubs", "title": "Gastropubs"}], "rating": 4.0, "coordinates": {"latitude": 37.783976, "longitude": -122.408981}, "transactions": [], "price": "$$", "location": {"address1": "34 Mason St", "address2": "", "address3": "", "city": "San Francisco", "zip_code": "94102", "country": "US", "state": "CA", "display_address": ["34 Mason St", "San Francisco, CA 94102"]}, "phone": "+14159840279", "display_phone": "(415) 984-0279", "distance": 3523.271413232}, {"id": "the-armory-club-san-francisco-2", "name": "The Armory Club", "image_url": "https://s3-media1.fl.yelpcdn.com/bphoto/7g6vaMJ86efgMaKWX9Ar4w/o.jpg", "is_closed": false, "url": "https://www.yelp.com/biz/the-armory-club-san-francisco-2?adjust_creative=0T9f6kHMnzQCXJKBQD97qw&utm_campaign=yelp_api_v3&utm_medium=api_v3_business_search&utm_source=0T9f6kHMnzQCXJKBQD97qw", "review_count": 233, "categories": [{"alias": "bars", "title": "Bars"}], "rating": 4.0, "coordinates": {"latitude": 37.7683950148148, "longitude": -122.41984505086}, "transactions": [], "price": "$$", "location": {"address1": "1799 Mission St", "address2": "", "address3": "", "city": "San Francisco", "zip_code": "94103", "country": "US", "state": "CA", "display_address": ["1799 Mission St", "San Francisco, CA 94103"]}, "phone": "+14154315300", "display_phone": "(415) 431-5300", "distance": 1680.5864474039997}, {"id": "hog-and-rocks-san-francisco", "name": "Hog & Rocks", "image_url": "https://s3-media4.fl.yelpcdn.com/bphoto/e7Z2mRNoXlNrcwW0Sg_fAA/o.jpg", "is_closed": false, "url": "https://www.yelp.com/biz/hog-and-rocks-san-francisco?adjust_creative=0T9f6kHMnzQCXJKBQD97qw&utm_campaign=yelp_api_v3&utm_medium=api_v3_business_search&utm_source=0T9f6kHMnzQCXJKBQD97qw", "review_count": 1107, "categories": [{"alias": "gastropubs", "title": "Gastropubs"}, {"alias": "breakfast_brunch", "title": "Breakfast & Brunch"}, {"alias": "cocktailbars", "title": "Cocktail Bars"}], "rating": 4.0, "coordinates": {"latitude": 37.7600326538086, "longitude": -122.419845581055}, "transactions": ["pickup"], "price": "$$", "location": {"address1": "3431 19th St", "address2": "", "address3": "", "city": "San Francisco", "zip_code": "94110", "country": "US", "state": "CA", "display_address": ["3431 19th St", "San Francisco, CA 94110"]}, "phone": "+14155508627", "display_phone": "(415) 550-8627", "distance": 1458.2158285304}, {"id": "brasserie-saint-james-san-francisco-2", "name": "Brasserie Saint James", "image_url": "https://s3-media3.fl.yelpcdn.com/bphoto/qeL6A8mtIQF10Gvzl017rw/o.jpg", "is_closed": false, "url": "https://www.yelp.com/biz/brasserie-saint-james-san-francisco-2?adjust_creative=0T9f6kHMnzQCXJKBQD97qw&utm_campaign=yelp_api_v3&utm_medium=api_v3_business_search&utm_source=0T9f6kHMnzQCXJKBQD97qw", "review_count": 143, "categories": [{"alias": "brasseries", "title": "Brasseries"}, {"alias": "modern_european", "title": "Modern European"}, {"alias": "newamerican", "title": "American (New)"}], "rating": 3.5, "coordinates": {"latitude": 37.7609558105469, "longitude": -122.421821594238}, "transactions": [], "price": "$$", "location": {"address1": "742 Valencia St", "address2": null, "address3": "", "city": "San Francisco", "zip_code": "94110", "country": "US", "state": "CA", "display_address": ["742 Valencia St", "San Francisco, CA 94110"]}, "phone": "+14156559868", "display_phone": "(415) 655-9868", "distance": 1281.6754791879998}, {"id": "picnic-on-third-san-francisco", "name": "Picnic on Third", "image_url": "https://s3-media1.fl.yelpcdn.com/bphoto/nE3auV0fVftMTWKM9l_Tlg/o.jpg", "is_closed": false, "url": "https://www.yelp.com/biz/picnic-on-third-san-francisco?adjust_creative=0T9f6kHMnzQCXJKBQD97qw&utm_campaign=yelp_api_v3&utm_medium=api_v3_business_search&utm_source=0T9f6kHMnzQCXJKBQD97qw", "review_count": 184, "categories": [{"alias": "newamerican", "title": "American (New)"}, {"alias": "coffee", "title": "Coffee & Tea"}], "rating": 4.0, "coordinates": {"latitude": 37.7815361, "longitude": -122.3959045}, "transactions": [], "price": "$$", "location": {"address1": "493 3rd St", "address2": null, "address3": "", "city": "San Francisco", "zip_code": "94107", "country": "US", "state": "CA", "display_address": ["493 3rd St", "San Francisco, CA 94107"]}, "phone": "+14155002569", "display_phone": "(415) 500-2569", "distance": 4237.488297598}, {"id": "wesburger-n-more-san-francisco", "name": "WesBurger 'N' More", "image_url": "https://s3-media3.fl.yelpcdn.com/bphoto/dgOgStYABxn67qiAsfteLg/o.jpg", "is_closed": false, "url": "https://www.yelp.com/biz/wesburger-n-more-san-francisco?adjust_creative=0T9f6kHMnzQCXJKBQD97qw&utm_campaign=yelp_api_v3&utm_medium=api_v3_business_search&utm_source=0T9f6kHMnzQCXJKBQD97qw", "review_count": 219, "categories": [{"alias": "burgers", "title": "Burgers"}, {"alias": "tradamerican", "title": "American (Traditional)"}], "rating": 4.0, "coordinates": {"latitude": 37.761198586981, "longitude": -122.419501330688}, "transactions": [], "price": "$$", "location": {"address1": "2240 Mission St", "address2": "", "address3": "", "city": "San Francisco", "zip_code": "94110", "country": "US", "state": "CA", "display_address": ["2240 Mission St", "San Francisco, CA 94110"]}, "phone": "+14157459371", "display_phone": "(415) 745-9371", "distance": 1489.9583541299999}, {"id": "the-crafty-fox-ale-house-san-francisco", "name": "The Crafty Fox Ale House", "image_url": "https://s3-media3.fl.yelpcdn.com/bphoto/16TsfKNc5uxIUD-tkP7vhg/o.jpg", "is_closed": false, "url": "https://www.yelp.com/biz/the-crafty-fox-ale-house-san-francisco?adjust_creative=0T9f6kHMnzQCXJKBQD97qw&utm_campaign=yelp_api_v3&utm_medium=api_v3_business_search&utm_source=0T9f6kHMnzQCXJKBQD97qw", "review_count": 120, "categories": [{"alias": "beerbar", "title": "Beer Bar"}, {"alias": "sandwiches", "title": "Sandwiches"}, {"alias": "burgers", "title": "Burgers"}], "rating": 4.0, "coordinates": {"latitude": 37.769832611084, "longitude": -122.420394897461}, "transactions": [], "price": "$$", "location": {"address1": "1700 Mission St", "address2": "", "address3": "", "city": "San Francisco", "zip_code": "94103", "country": "US", "state": "CA", "display_address": ["1700 Mission St", "San Francisco, CA 94103"]}, "phone": "+14154166602", "display_phone": "(415) 416-6602", "distance": 1724.068722062}, {"id": "cellarmaker-brewing-company-san-francisco", "name": "Cellarmaker Brewing Company", "image_url": "https://s3-media2.fl.yelpcdn.com/bphoto/Qe1mF0KEqenrCMztzwrEGQ/o.jpg", "is_closed": false, "url": "https://www.yelp.com/biz/cellarmaker-brewing-company-san-francisco?adjust_creative=0T9f6kHMnzQCXJKBQD97qw&utm_campaign=yelp_api_v3&utm_medium=api_v3_business_search&utm_source=0T9f6kHMnzQCXJKBQD97qw", "review_count": 320, "categories": [{"alias": "breweries", "title": "Breweries"}], "rating": 4.5, "coordinates": {"latitude": 37.777217, "longitude": -122.410766}, "transactions": [], "price": "$$", "location": {"address1": "1150 Howard St", "address2": "", "address3": "", "city": "San Francisco", "zip_code": "94103", "country": "US", "state": "CA", "display_address": ["1150 Howard St", "San Francisco, CA 94103"]}, "phone": "+14158633940", "display_phone": "(415) 863-3940", "distance": 2896.220245682}, {"id": "the-sycamore-san-francisco", "name": "The Sycamore", "image_url": "https://s3-media2.fl.yelpcdn.com/bphoto/2Ft4tfgD8VH-qcMCqimqhw/o.jpg", "is_closed": false, "url": "https://www.yelp.com/biz/the-sycamore-san-francisco?adjust_creative=0T9f6kHMnzQCXJKBQD97qw&utm_campaign=yelp_api_v3&utm_medium=api_v3_business_search&utm_source=0T9f6kHMnzQCXJKBQD97qw", "review_count": 621, "categories": [{"alias": "gastropubs", "title": "Gastropubs"}, {"alias": "bars", "title": "Bars"}], "rating": 4.0, "coordinates": {"latitude": 37.76278, "longitude": -122.41973}, "transactions": ["pickup"], "price": "$$", "location": {"address1": "2140 Mission St", "address2": "", "address3": "", "city": "San Francisco", "zip_code": "94110", "country": "US", "state": "CA", "display_address": ["2140 Mission St", "San Francisco, CA 94110"]}, "phone": "+14152527704", "display_phone": "(415) 252-7704", "distance": 1478.036202476}, {"id": "myriad-gastropub-san-francisco", "name": "Myriad Gastropub", "image_url": "https://s3-media1.fl.yelpcdn.com/bphoto/eHyxvOabT281O06f00A7LA/o.jpg", "is_closed": false, "url": "https://www.yelp.com/biz/myriad-gastropub-san-francisco?adjust_creative=0T9f6kHMnzQCXJKBQD97qw&utm_campaign=yelp_api_v3&utm_medium=api_v3_business_search&utm_source=0T9f6kHMnzQCXJKBQD97qw", "review_count": 340, "categories": [{"alias": "gastropubs", "title": "Gastropubs"}, {"alias": "venues", "title": "Venues & Event Spaces"}], "rating": 4.5, "coordinates": {"latitude": 37.7572277060474, "longitude": -122.418840453029}, "transactions": [], "price": "$$", "location": {"address1": "2491 Mission St", "address2": "", "address3": "", "city": "San Francisco", "zip_code": "94110", "country": "US", "state": "CA", "display_address": ["2491 Mission St", "San Francisco, CA 94110"]}, "phone": "+14155254335", "display_phone": "(415) 525-4335", "distance": 1600.852179906}, {"id": "bar-san-pancho-san-francisco", "name": "Bar San Pancho", "image_url": "https://s3-media1.fl.yelpcdn.com/bphoto/9yzym27CvPe9Wy1__XYq1w/o.jpg", "is_closed": false, "url": "https://www.yelp.com/biz/bar-san-pancho-san-francisco?adjust_creative=0T9f6kHMnzQCXJKBQD97qw&utm_campaign=yelp_api_v3&utm_medium=api_v3_business_search&utm_source=0T9f6kHMnzQCXJKBQD97qw", "review_count": 42, "categories": [{"alias": "bars", "title": "Bars"}, {"alias": "mexican", "title": "Mexican"}], "rating": 3.5, "coordinates": {"latitude": 37.7650099, "longitude": -122.42391}, "transactions": [], "price": "$$", "location": {"address1": "3198 16th St", "address2": "", "address3": "", "city": "San Francisco", "zip_code": "94103", "country": "US", "state": "CA", "display_address": ["3198 16th St", "San Francisco, CA 94103"]}, "phone": "+14156496077", "display_phone": "(415) 649-6077", "distance": 1184.5057830639998}, {"id": "rove-kitchen-san-francisco", "name": "Rove Kitchen", "image_url": "https://s3-media1.fl.yelpcdn.com/bphoto/COB2_0YdYHyX1264bexFLQ/o.jpg", "is_closed": false, "url": "https://www.yelp.com/biz/rove-kitchen-san-francisco?adjust_creative=0T9f6kHMnzQCXJKBQD97qw&utm_campaign=yelp_api_v3&utm_medium=api_v3_business_search&utm_source=0T9f6kHMnzQCXJKBQD97qw", "review_count": 381, "categories": [{"alias": "burgers", "title": "Burgers"}, {"alias": "tradamerican", "title": "American (Traditional)"}], "rating": 4.5, "coordinates": {"latitude": 37.7877664572471, "longitude": -122.412939658872}, "transactions": [], "price": "$$", "location": {"address1": "678 Post St", "address2": "", "address3": "", "city": "San Francisco", "zip_code": "94109", "country": "US", "state": "CA", "display_address": ["678 Post St", "San Francisco, CA 94109"]}, "phone": "+14155677466", "display_phone": "(415) 567-7466", "distance": 3632.25302122}, {"id": "the-beer-hall-san-francisco", "name": "The Beer Hall", "image_url": "https://s3-media4.fl.yelpcdn.com/bphoto/ZRWcFcJGr-jc8OQXztcwjA/o.jpg", "is_closed": false, "url": "https://www.yelp.com/biz/the-beer-hall-san-francisco?adjust_creative=0T9f6kHMnzQCXJKBQD97qw&utm_campaign=yelp_api_v3&utm_medium=api_v3_business_search&utm_source=0T9f6kHMnzQCXJKBQD97qw", "review_count": 142, "categories": [{"alias": "beerbar", "title": "Beer Bar"}], "rating": 4.5, "coordinates": {"latitude": 37.7767002424281, "longitude": -122.417983369546}, "transactions": [], "price": "$$", "location": {"address1": "1 Polk St", "address2": null, "address3": "", "city": "San Francisco", "zip_code": "94102", "country": "US", "state": "CA", "display_address": ["1 Polk St", "San Francisco, CA 94102"]}, "phone": "+14158007416", "display_phone": "(415) 800-7416", "distance": 2391.76409318}], "total": 117, "region": {"center": {"latitude": 37.76089938976322, "longitude": -122.43644714355469}}}