{"businesses": [{"id": "adelitas-cakes-con-sabores-nicaraguense-san-francisco", "name": "Adelita's Cakes Con Sabores Nicaraguense", "image_url": "https://s3-media3.fl.yelpcdn.com/bphoto/WHfJdwnemFoHx7RrSuiWOA/o.jpg", "is_closed": false, "url": "https://www.yelp.com/biz/adelitas-cakes-con-sabores-nicaraguense-san-francisco?adjust_creative=0T9f6kHMnzQCXJKBQD97qw&utm_campaign=yelp_api_v3&utm_medium=api_v3_business_search&utm_source=0T9f6kHMnzQCXJKBQD97qw", "review_count": 12, "categories": [{"alias": "bakeries", "title": "Bakeries"}], "rating": 3.0, "coordinates": {"latitude": 37.7362747192383, "longitude": -122.424705505371}, "transactions": [], "price": "$", "location": {"address1": "3780 Mission St", "address2": "", "address3": "", "city": "San Francisco", "zip_code": "94110", "country": "US", "state": "CA", "display_address": ["3780 Mission St", "San Francisco, CA 94110"]}, "phone": "+14158244584", "display_phone": "(415) 824-4584", "distance": 19.0893714841}, {"id": "adelitas-cakes-and-fritanga-san-francisco", "name": "Adelita's Cakes & Fritanga", "image_url": "https://s3-media2.fl.yelpcdn.com/bphoto/l-TQrQTKFiSTxvCVdFKWHg/o.jpg", "is_closed": false, "url": "https://www.yelp.com/biz/adelitas-cakes-and-fritanga-san-francisco?adjust_creative=0T9f6kHMnzQCXJKBQD97qw&utm_campaign=yelp_api_v3&utm_medium=api_v3_business_search&utm_source=0T9f6kHMnzQCXJKBQD97qw", "review_count": 3, "categories": [{"alias": "restaurants", "title": "Restaurants"}], "rating": 4.5, "coordinates": {"latitude": 37.7499619, "longitude": -122.4178772}, "transactions": [], "location": {"address1": "2943 Mission St", "address2": "", "address3": "", "city": "San Francisco", "zip_code": "94110", "country": "US", "state": "CA", "display_address": ["2943 Mission St", "San Francisco, CA 94110"]}, "phone": "+14156425577", "display_phone": "(415) 642-5577", "distance": 1624.206439184}, {"id": "azteca-produce-san-francisco", "name": "Azteca Produce", "image_url": "", "is_closed": false, "url": "https://www.yelp.com/biz/azteca-produce-san-francisco?adjust_creative=0T9f6kHMnzQCXJKBQD97qw&utm_campaign=yelp_api_v3&utm_medium=api_v3_business_search&utm_source=0T9f6kHMnzQCXJKBQD97qw", "review_count": 3, "categories": [{"alias": "grocery", "title": "Grocery"}], "rating": 3.5, "coordinates": {"latitude": 37.7444286, "longitude": -122.4208505}, "transactions": [], "price": "$", "location": {"address1": "3282 Mission St", "address2": null, "address3": "", "city": "San Francisco", "zip_code": "94110", "country": "US", "state": "CA", "display_address": ["3282 Mission St", "San Francisco, CA 94110"]}, "phone": "", "display_phone": "", "distance": 953.9912761478}], "total": 3, "region": {"center": {"latitude": 37.736304, "longitude": -122.424432}}}