{"businesses": [{"id": "herbert-damien-san-francisco", "name": "Herbert Damien", "image_url": "https://s3-media2.fl.yelpcdn.com/bphoto/GjfUOFSJZRWQ6rpcUrlsyA/o.jpg", "is_closed": false, "url": "https://www.yelp.com/biz/herbert-damien-san-francisco?adjust_creative=0T9f6kHMnzQCXJKBQD97qw&utm_campaign=yelp_api_v3&utm_medium=api_v3_business_search&utm_source=0T9f6kHMnzQCXJKBQD97qw", "review_count": 17, "categories": [{"alias": "videofilmproductions", "title": "Video/Film Production"}, {"alias": "eventphotography", "title": "Event Photography"}, {"alias": "sessionphotography", "title": "Session Photography"}], "rating": 5.0, "coordinates": {"latitude": 37.786224941301, "longitude": -122.389697687164}, "transactions": [], "location": {"address1": "500 Beale St", "address2": null, "address3": "", "city": "San Francisco", "zip_code": "94105", "country": "US", "state": "CA", "display_address": ["500 Beale St", "San Francisco, CA 94105"]}, "phone": "+14155833770", "display_phone": "(415) 583-3770", "distance": 4981.5861196119995}, {"id": "s-o-s-cleaning-inc-san-francisco-2", "name": "S.O.S. Cleaning, Inc.", "image_url": "https://s3-media4.fl.yelpcdn.com/bphoto/0SmLYSz7MKr0-FfgPEFHcA/o.jpg", "is_closed": false, "url": "https://www.yelp.com/biz/s-o-s-cleaning-inc-san-francisco-2?adjust_creative=0T9f6kHMnzQCXJKBQD97qw&utm_campaign=yelp_api_v3&utm_medium=api_v3_business_search&utm_source=0T9f6kHMnzQCXJKBQD97qw", "review_count": 65, "categories": [{"alias": "homecleaning", "title": "Home Cleaning"}], "rating": 4.5, "coordinates": {"latitude": 37.7119799, "longitude": -122.451499}, "transactions": [], "location": {"address1": "164 Farragut Ave", "address2": "", "address3": "", "city": "San Francisco", "zip_code": "94112", "country": "US", "state": "CA", "display_address": ["164 Farragut Ave", "San Francisco, CA 94112"]}, "phone": "+14153348037", "display_phone": "(415) 334-8037", "distance": 5598.353443628}, {"id": "rno1-redwood-city-4", "name": "RNO1", "image_url": "https://s3-media3.fl.yelpcdn.com/bphoto/5zsRILmi30xlWyqv7j3nqw/o.jpg", "is_closed": false, "url": "https://www.yelp.com/biz/rno1-redwood-city-4?adjust_creative=0T9f6kHMnzQCXJKBQD97qw&utm_campaign=yelp_api_v3&utm_medium=api_v3_business_search&utm_source=0T9f6kHMnzQCXJKBQD97qw", "review_count": 5, "categories": [{"alias": "marketing", "title": "Marketing"}, {"alias": "graphicdesign", "title": "Graphic Design"}, {"alias": "web_design", "title": "Web Design"}], "rating": 5.0, "coordinates": {"latitude": 37.5228348, "longitude": -122.2529373}, "transactions": [], "location": {"address1": "274 Redwood Shores Pkwy", "address2": null, "address3": "", "city": "Redwood City", "zip_code": "94065", "country": "US", "state": "CA", "display_address": ["274 Redwood Shores Pkwy", "Redwood City, CA 94065"]}, "phone": "+16502689783", "display_phone": "(650) 268-9783", "distance": 31004.16362628}], "total": 3, "region": {"center": {"latitude": 37.68278652466579, "longitude": -122.39551846210938}}}