{"businesses": [{"id": "all-good-pizza-san-francisco", "name": "All Good Pizza", "image_url": "https://s3-media4.fl.yelpcdn.com/bphoto/DDhR9iL2dFHe98CY_d28jQ/o.jpg", "is_closed": false, "url": "https://www.yelp.com/biz/all-good-pizza-san-francisco?adjust_creative=0T9f6kHMnzQCXJKBQD97qw&utm_campaign=yelp_api_v3&utm_medium=api_v3_business_search&utm_source=0T9f6kHMnzQCXJKBQD97qw", "review_count": 172, "categories": [{"alias": "pizza", "title": "Pizza"}, {"alias": "sandwiches", "title": "Sandwiches"}, {"alias": "salad", "title": "Salad"}], "rating": 4.5, "coordinates": {"latitude": 37.7390445, "longitude": -122.3897508}, "transactions": [], "price": "$$", "location": {"address1": "1605 Jerrold Ave", "address2": "", "address3": "", "city": "San Francisco", "zip_code": "94124", "country": "US", "state": "CA", "display_address": ["1605 Jerrold Ave", "San Francisco, CA 94124"]}, "phone": "+14159339384", "display_phone": "(415) 933-9384", "distance": 5.754158637982}, {"id": "long-bridge-pizza-san-francisco-3", "name": "Long Bridge Pizza", "image_url": "https://s3-media1.fl.yelpcdn.com/bphoto/X2c15xJB5g9_EyUEKIUBiw/o.jpg", "is_closed": false, "url": "https://www.yelp.com/biz/long-bridge-pizza-san-francisco-3?adjust_creative=0T9f6kHMnzQCXJKBQD97qw&utm_campaign=yelp_api_v3&utm_medium=api_v3_business_search&utm_source=0T9f6kHMnzQCXJKBQD97qw", "review_count": 287, "categories": [{"alias": "pizza", "title": "Pizza"}], "rating": 4.5, "coordinates": {"latitude": 37.7595199, "longitude": -122.3881765}, "transactions": [], "price": "$$", "location": {"address1": "2347 3rd St", "address2": "", "address3": "", "city": "San Francisco", "zip_code": "94107", "country": "US", "state": "CA", "display_address": ["2347 3rd St", "San Francisco, CA 94107"]}, "phone": "+14158298999", "display_phone": "(415) 829-8999", "distance": 2286.402373654}, {"id": "craftsman-and-wolves-the-den-san-francisco-2", "name": "Craftsman and Wolves - The Den", "image_url": "https://s3-media2.fl.yelpcdn.com/bphoto/T9_9HQRbT9moFhmST1ybqw/o.jpg", "is_closed": false, "url": "https://www.yelp.com/biz/craftsman-and-wolves-the-den-san-francisco-2?adjust_creative=0T9f6kHMnzQCXJKBQD97qw&utm_campaign=yelp_api_v3&utm_medium=api_v3_business_search&utm_source=0T9f6kHMnzQCXJKBQD97qw", "review_count": 44, "categories": [{"alias": "coffee", "title": "Coffee & Tea"}, {"alias": "bakeries", "title": "Bakeries"}, {"alias": "sandwiches", "title": "Sandwiches"}], "rating": 4.5, "coordinates": {"latitude": 37.7269073837324, "longitude": -122.391263064064}, "transactions": [], "price": "$", "location": {"address1": "1598 Yosemite Ave", "address2": "", "address3": "", "city": "San Francisco", "zip_code": "94124", "country": "US", "state": "CA", "display_address": ["1598 Yosemite Ave", "San Francisco, CA 94124"]}, "phone": "+14154233337", "display_phone": "(415) 423-3337", "distance": 1350.983154694}, {"id": "montella-pizzeria-san-francisco", "name": "Montella Pizzeria", "image_url": "https://s3-media3.fl.yelpcdn.com/bphoto/l0K6rv0mjmIgL11GYSc_GA/o.jpg", "is_closed": false, "url": "https://www.yelp.com/biz/montella-pizzeria-san-francisco?adjust_creative=0T9f6kHMnzQCXJKBQD97qw&utm_campaign=yelp_api_v3&utm_medium=api_v3_business_search&utm_source=0T9f6kHMnzQCXJKBQD97qw", "review_count": 63, "categories": [{"alias": "pizza", "title": "Pizza"}, {"alias": "beerbar", "title": "Beer Bar"}, {"alias": "salad", "title": "Salad"}], "rating": 4.5, "coordinates": {"latitude": 37.7523189131941, "longitude": -122.41552323103}, "transactions": [], "price": "$$", "location": {"address1": "3161 24th St", "address2": "", "address3": "", "city": "San Francisco", "zip_code": "94110", "country": "US", "state": "CA", "display_address": ["3161 24th St", "San Francisco, CA 94110"]}, "phone": "+14156421160", "display_phone": "(415) 642-1160", "distance": 2704.94809454}, {"id": "the-pizza-shop-san-francisco", "name": "The Pizza Shop", "image_url": "https://s3-media4.fl.yelpcdn.com/bphoto/qXseKHovSO0D7pU2qqlQnQ/o.jpg", "is_closed": false, "url": "https://www.yelp.com/biz/the-pizza-shop-san-francisco?adjust_creative=0T9f6kHMnzQCXJKBQD97qw&utm_campaign=yelp_api_v3&utm_medium=api_v3_business_search&utm_source=0T9f6kHMnzQCXJKBQD97qw", "review_count": 232, "categories": [{"alias": "pizza", "title": "Pizza"}], "rating": 4.5, "coordinates": {"latitude": 37.7525918579061, "longitude": -122.41455420986}, "transactions": [], "price": "$", "location": {"address1": "3104 24th St", "address2": "", "address3": "", "city": "San Francisco", "zip_code": "94110", "country": "US", "state": "CA", "display_address": ["3104 24th St", "San Francisco, CA 94110"]}, "phone": "+14158241840", "display_phone": "(415) 824-1840", "distance": 2651.1246838439997}, {"id": "pizza-zone-and-grill-san-francisco-4", "name": "Pizza Zone & Grill", "image_url": "https://s3-media2.fl.yelpcdn.com/bphoto/jisXi36pCKZ9IiYmaHfSFg/o.jpg", "is_closed": false, "url": "https://www.yelp.com/biz/pizza-zone-and-grill-san-francisco-4?adjust_creative=0T9f6kHMnzQCXJKBQD97qw&utm_campaign=yelp_api_v3&utm_medium=api_v3_business_search&utm_source=0T9f6kHMnzQCXJKBQD97qw", "review_count": 5, "categories": [{"alias": "pizza", "title": "Pizza"}], "rating": 4.0, "coordinates": {"latitude": 37.7378578348713, "longitude": -122.389786191257}, "transactions": ["delivery", "pickup"], "price": "$$", "location": {"address1": "4404 3rd St", "address2": "", "address3": null, "city": "San Francisco", "zip_code": "94124", "country": "US", "state": "CA", "display_address": ["4404 3rd St", "San Francisco, CA 94124"]}, "phone": "+14152826000", "display_phone": "(415) 282-6000", "distance": 117.68771895959999}, {"id": "copper-top-ovens-san-francisco", "name": "Copper Top Ovens", "image_url": "https://s3-media3.fl.yelpcdn.com/bphoto/hX0-Wg4E2ek77kL8yYf6Bw/o.jpg", "is_closed": false, "url": "https://www.yelp.com/biz/copper-top-ovens-san-francisco?adjust_creative=0T9f6kHMnzQCXJKBQD97qw&utm_campaign=yelp_api_v3&utm_medium=api_v3_business_search&utm_source=0T9f6kHMnzQCXJKBQD97qw", "review_count": 18, "categories": [{"alias": "pizza", "title": "Pizza"}, {"alias": "foodstands", "title": "Food Stands"}], "rating": 4.5, "coordinates": {"latitude": 37.7357358047222, "longitude": -122.4099233295}, "transactions": [], "price": "$", "location": {"address1": "100 Alemany Blvd", "address2": "", "address3": "", "city": "San Francisco", "zip_code": "94110", "country": "US", "state": "CA", "display_address": ["100 Alemany Blvd", "San Francisco, CA 94110"]}, "phone": "+15107085040", "display_phone": "(510) 708-5040", "distance": 1807.9127611180002}, {"id": "pizza-express-san-francisco-2", "name": "Pizza Express", "image_url": "https://s3-media4.fl.yelpcdn.com/bphoto/gR6Xohzv_osB2P9H7YVE7Q/o.jpg", "is_closed": false, "url": "https://www.yelp.com/biz/pizza-express-san-francisco-2?adjust_creative=0T9f6kHMnzQCXJKBQD97qw&utm_campaign=yelp_api_v3&utm_medium=api_v3_business_search&utm_source=0T9f6kHMnzQCXJKBQD97qw", "review_count": 125, "categories": [{"alias": "pizza", "title": "Pizza"}], "rating": 3.5, "coordinates": {"latitude": 37.7389434, "longitude": -122.4143777}, "transactions": ["delivery", "pickup"], "price": "$$", "location": {"address1": "813 Cortland Ave", "address2": null, "address3": "", "city": "San Francisco", "zip_code": "94110", "country": "US", "state": "CA", "display_address": ["813 Cortland Ave", "San Francisco, CA 94110"]}, "phone": "+14152822333", "display_phone": "(415) 282-2333", "distance": 2162.9273714939995}, {"id": "piccino-san-francisco", "name": "Piccino", "image_url": "https://s3-media3.fl.yelpcdn.com/bphoto/svIqqx3iNbmcUf4OxpaIhA/o.jpg", "is_closed": false, "url": "https://www.yelp.com/biz/piccino-san-francisco?adjust_creative=0T9f6kHMnzQCXJKBQD97qw&utm_campaign=yelp_api_v3&utm_medium=api_v3_business_search&utm_source=0T9f6kHMnzQCXJKBQD97qw", "review_count": 1165, "categories": [{"alias": "italian", "title": "Italian"}, {"alias": "coffee", "title": "Coffee & Tea"}], "rating": 4.0, "coordinates": {"latitude": 37.75762, "longitude": -122.38992}, "transactions": [], "price": "$$", "location": {"address1": "1001 Minnesota St", "address2": null, "address3": "", "city": "San Francisco", "zip_code": "94107", "country": "US", "state": "CA", "display_address": ["1001 Minnesota St", "San Francisco, CA 94107"]}, "phone": "+14158244224", "display_phone": "(415) 824-4224", "distance": 2064.92081857}, {"id": "all-nite-pizza-san-francisco", "name": "All Nite Pizza", "image_url": "", "is_closed": false, "url": "https://www.yelp.com/biz/all-nite-pizza-san-francisco?adjust_creative=0T9f6kHMnzQCXJKBQD97qw&utm_campaign=yelp_api_v3&utm_medium=api_v3_business_search&utm_source=0T9f6kHMnzQCXJKBQD97qw", "review_count": 1, "categories": [{"alias": "pizza", "title": "Pizza"}], "rating": 5.0, "coordinates": {"latitude": 37.7312965393066, "longitude": -122.391670227051}, "transactions": [], "location": {"address1": "5155 3rd St", "address2": "", "address3": "", "city": "San Francisco", "zip_code": "94124", "country": "US", "state": "CA", "display_address": ["5155 3rd St", "San Francisco, CA 94124"]}, "phone": "+14158223973", "display_phone": "(415) 822-3973", "distance": 862.2744584655999}, {"id": "vega-san-francisco-2", "name": "Vega", "image_url": "https://s3-media2.fl.yelpcdn.com/bphoto/V_El6HAM9f6rJIibx33Ivw/o.jpg", "is_closed": false, "url": "https://www.yelp.com/biz/vega-san-francisco-2?adjust_creative=0T9f6kHMnzQCXJKBQD97qw&utm_campaign=yelp_api_v3&utm_medium=api_v3_business_search&utm_source=0T9f6kHMnzQCXJKBQD97qw", "review_count": 446, "categories": [{"alias": "italian", "title": "Italian"}, {"alias": "pizza", "title": "Pizza"}], "rating": 4.0, "coordinates": {"latitude": 37.73934, "longitude": -122.41742}, "transactions": [], "price": "$$", "location": {"address1": "419 Cortland Ave", "address2": "", "address3": "", "city": "San Francisco", "zip_code": "94110", "country": "US", "state": "CA", "display_address": ["419 Cortland Ave", "San Francisco, CA 94110"]}, "phone": "+14152856000", "display_phone": "(415) 285-6000", "distance": 2432.191196782}, {"id": "round-table-pizza-san-francisco-2", "name": "Round Table Pizza", "image_url": "https://s3-media2.fl.yelpcdn.com/bphoto/2s2asBxfgWcwXdorbg4W1w/o.jpg", "is_closed": false, "url": "https://www.yelp.com/biz/round-table-pizza-san-francisco-2?adjust_creative=0T9f6kHMnzQCXJKBQD97qw&utm_campaign=yelp_api_v3&utm_medium=api_v3_business_search&utm_source=0T9f6kHMnzQCXJKBQD97qw", "review_count": 54, "categories": [{"alias": "pizza", "title": "Pizza"}], "rating": 2.0, "coordinates": {"latitude": 37.7279357910156, "longitude": -122.404098510742}, "transactions": ["delivery", "pickup"], "price": "$$", "location": {"address1": "2660 San Bruno Ave", "address2": "", "address3": "", "city": "San Francisco", "zip_code": "94134", "country": "US", "state": "CA", "display_address": ["2660 San Bruno Ave", "San Francisco, CA 94134"]}, "phone": "+14154687100", "display_phone": "(415) 468-7100", "distance": 1760.975394414}, {"id": "fox-and-lion-bread-san-francisco", "name": "Fox and Lion Bread", "image_url": "https://s3-media4.fl.yelpcdn.com/bphoto/8TL9eG1AfNn6iaGHp6E5Hg/o.jpg", "is_closed": false, "url": "https://www.yelp.com/biz/fox-and-lion-bread-san-francisco?adjust_creative=0T9f6kHMnzQCXJKBQD97qw&utm_campaign=yelp_api_v3&utm_medium=api_v3_business_search&utm_source=0T9f6kHMnzQCXJKBQD97qw", "review_count": 30, "categories": [{"alias": "coffee", "title": "Coffee & Tea"}, {"alias": "bakeries", "title": "Bakeries"}], "rating": 5.0, "coordinates": {"latitude": 37.729625031352, "longitude": -122.392356991768}, "transactions": ["pickup"], "price": "$", "location": {"address1": "5273 3rd St", "address2": null, "address3": "", "city": "San Francisco", "zip_code": "94124", "country": "US", "state": "CA", "display_address": ["5273 3rd St", "San Francisco, CA 94124"]}, "phone": "+14158729789", "display_phone": "(415) 872-9789", "distance": 1062.4771591356}, {"id": "chicks-and-love-pizza-patio-san-francisco-5", "name": "Chicks and Love Pizza Patio", "image_url": "https://s3-media2.fl.yelpcdn.com/bphoto/tPWboY7ofarmhf5_1O3dQQ/o.jpg", "is_closed": false, "url": "https://www.yelp.com/biz/chicks-and-love-pizza-patio-san-francisco-5?adjust_creative=0T9f6kHMnzQCXJKBQD97qw&utm_campaign=yelp_api_v3&utm_medium=api_v3_business_search&utm_source=0T9f6kHMnzQCXJKBQD97qw", "review_count": 34, "categories": [{"alias": "pizza", "title": "Pizza"}, {"alias": "breakfast_brunch", "title": "Breakfast & Brunch"}, {"alias": "coffee", "title": "Coffee & Tea"}], "rating": 5.0, "coordinates": {"latitude": 37.7693226761551, "longitude": -122.415308338623}, "transactions": ["pickup"], "price": "$$", "location": {"address1": "1701 Folsom St", "address2": "", "address3": "", "city": "San Francisco", "zip_code": "94103", "country": "US", "state": "CA", "display_address": ["1701 Folsom St", "San Francisco, CA 94103"]}, "phone": "+14159126648", "display_phone": "(415) 912-6648", "distance": 4050.3944758979997}, {"id": "dominos-pizza-san-francisco-4", "name": "Domino's Pizza", "image_url": "https://s3-media1.fl.yelpcdn.com/bphoto/qdO3Pgrz3X0HRai1YN0MsA/o.jpg", "is_closed": false, "url": "https://www.yelp.com/biz/dominos-pizza-san-francisco-4?adjust_creative=0T9f6kHMnzQCXJKBQD97qw&utm_campaign=yelp_api_v3&utm_medium=api_v3_business_search&utm_source=0T9f6kHMnzQCXJKBQD97qw", "review_count": 148, "categories": [{"alias": "pizza", "title": "Pizza"}, {"alias": "chicken_wings", "title": "Chicken Wings"}, {"alias": "sandwiches", "title": "Sandwiches"}], "rating": 1.5, "coordinates": {"latitude": 37.7427642, "longitude": -122.4056298}, "transactions": [], "price": "$", "location": {"address1": "320 Bay Shore Blvd", "address2": "", "address3": "", "city": "San Francisco", "zip_code": "94124", "country": "US", "state": "CA", "display_address": ["320 Bay Shore Blvd", "San Francisco, CA 94124"]}, "phone": "+14156478400", "display_phone": "(415) 647-8400", "distance": 1468.044615086}, {"id": "pizza-joint-san-francisco", "name": "Pizza Joint", "image_url": "https://s3-media3.fl.yelpcdn.com/bphoto/ojC3z0-UPq11IHSgZjMx7w/o.jpg", "is_closed": false, "url": "https://www.yelp.com/biz/pizza-joint-san-francisco?adjust_creative=0T9f6kHMnzQCXJKBQD97qw&utm_campaign=yelp_api_v3&utm_medium=api_v3_business_search&utm_source=0T9f6kHMnzQCXJKBQD97qw", "review_count": 236, "categories": [{"alias": "pizza", "title": "Pizza"}, {"alias": "burgers", "title": "Burgers"}, {"alias": "cheesesteaks", "title": "Cheesesteaks"}], "rating": 2.5, "coordinates": {"latitude": 37.732032864887, "longitude": -122.40556515909}, "transactions": ["delivery", "pickup"], "price": "$", "location": {"address1": "2414 San Bruno Ave", "address2": "", "address3": "", "city": "San Francisco", "zip_code": "94134", "country": "US", "state": "CA", "display_address": ["2414 San Bruno Ave", "San Francisco, CA 94134"]}, "phone": "+14154674100", "display_phone": "(415) 467-4100", "distance": 1589.586478038}, {"id": "pi-pizza-san-francisco", "name": "Pi Pizza", "image_url": "https://s3-media3.fl.yelpcdn.com/bphoto/eYTb0z73qWLXyCiXdnO9xw/o.jpg", "is_closed": false, "url": "https://www.yelp.com/biz/pi-pizza-san-francisco?adjust_creative=0T9f6kHMnzQCXJKBQD97qw&utm_campaign=yelp_api_v3&utm_medium=api_v3_business_search&utm_source=0T9f6kHMnzQCXJKBQD97qw", "review_count": 21, "categories": [{"alias": "fooddeliveryservices", "title": "Food Delivery Services"}], "rating": 3.5, "coordinates": {"latitude": 37.73053, "longitude": -122.38523}, "transactions": [], "price": "$$$$", "location": {"address1": "", "address2": "", "address3": "", "city": "San Francisco", "zip_code": "94124", "country": "US", "state": "CA", "display_address": ["San Francisco, CA 94124"]}, "phone": "", "display_phone": "", "distance": 1064.280360232}, {"id": "flour-water-san-francisco", "name": "Flour + Water", "image_url": "https://s3-media4.fl.yelpcdn.com/bphoto/xOxRLF8eMmUAtgUwGuAKTQ/o.jpg", "is_closed": false, "url": "https://www.yelp.com/biz/flour-water-san-francisco?adjust_creative=0T9f6kHMnzQCXJKBQD97qw&utm_campaign=yelp_api_v3&utm_medium=api_v3_business_search&utm_source=0T9f6kHMnzQCXJKBQD97qw", "review_count": 1997, "categories": [{"alias": "italian", "title": "Italian"}, {"alias": "pizza", "title": "Pizza"}], "rating": 3.5, "coordinates": {"latitude": 37.75892, "longitude": -122.41231}, "transactions": [], "price": "$$$", "location": {"address1": "2401 Harrison St", "address2": "", "address3": "", "city": "San Francisco", "zip_code": "94110", "country": "US", "state": "CA", "display_address": ["2401 Harrison St", "San Francisco, CA 94110"]}, "phone": "+14158267000", "display_phone": "(415) 826-7000", "distance": 2970.586237742}, {"id": "torino-grocery-market-and-pizzeria-san-francisco", "name": "Torino Grocery Market and Pizzeria", "image_url": "https://s3-media4.fl.yelpcdn.com/bphoto/O9vD76URhs6JrjZroGq8SQ/o.jpg", "is_closed": false, "url": "https://www.yelp.com/biz/torino-grocery-market-and-pizzeria-san-francisco?adjust_creative=0T9f6kHMnzQCXJKBQD97qw&utm_campaign=yelp_api_v3&utm_medium=api_v3_business_search&utm_source=0T9f6kHMnzQCXJKBQD97qw", "review_count": 5, "categories": [{"alias": "grocery", "title": "Grocery"}, {"alias": "pizza", "title": "Pizza"}], "rating": 2.5, "coordinates": {"latitude": 37.73446, "longitude": -122.39111}, "transactions": [], "price": "$", "location": {"address1": "4830 3rd St", "address2": "", "address3": "", "city": "San Francisco", "zip_code": "94124", "country": "US", "state": "CA", "display_address": ["4830 3rd St", "San Francisco, CA 94124"]}, "phone": "+14156481778", "display_phone": "(415) 648-1778", "distance": 521.8838080157999}, {"id": "butchertown-gourmet-san-francisco", "name": "Butchertown Gourmet", "image_url": "https://s3-media3.fl.yelpcdn.com/bphoto/eoEYNMU0frJKAtE4g4pKMg/o.jpg", "is_closed": false, "url": "https://www.yelp.com/biz/butchertown-gourmet-san-francisco?adjust_creative=0T9f6kHMnzQCXJKBQD97qw&utm_campaign=yelp_api_v3&utm_medium=api_v3_business_search&utm_source=0T9f6kHMnzQCXJKBQD97qw", "review_count": 11, "categories": [{"alias": "wine_bars", "title": "Wine Bars"}, {"alias": "coffee", "title": "Coffee & Tea"}, {"alias": "bakeries", "title": "Bakeries"}], "rating": 5.0, "coordinates": {"latitude": 37.729581214138, "longitude": -122.392328493297}, "transactions": [], "price": "$", "location": {"address1": "5273 3rd St", "address2": "", "address3": "", "city": "San Francisco", "zip_code": "94124", "country": "US", "state": "CA", "display_address": ["5273 3rd St", "San Francisco, CA 94124"]}, "phone": "+14158729789", "display_phone": "(415) 872-9789", "distance": 1070.9927564379998}], "total": 241, "region": {"center": {"latitude": 37.738998, "longitude": -122.389778}}}