{"businesses": [{"id": "century-san-francisco-centre-9-san-francisco", "name": "Century San Francisco Centre 9", "image_url": "https://s3-media3.fl.yelpcdn.com/bphoto/Vppr-huslMlp0Zyye7UZdQ/o.jpg", "is_closed": false, "url": "https://www.yelp.com/biz/century-san-francisco-centre-9-san-francisco?adjust_creative=0T9f6kHMnzQCXJKBQD97qw&utm_campaign=yelp_api_v3&utm_medium=api_v3_business_search&utm_source=0T9f6kHMnzQCXJKBQD97qw", "review_count": 595, "categories": [{"alias": "movietheaters", "title": "Cinema"}], "rating": 4.0, "coordinates": {"latitude": 37.783846, "longitude": -122.405845}, "transactions": [], "location": {"address1": "845 Market St", "address2": "Fl 5", "address3": "", "city": "San Francisco", "zip_code": "94103", "country": "US", "state": "CA", "display_address": ["845 Market St", "Fl 5", "San Francisco, CA 94103"]}, "phone": "+14155388422", "display_phone": "(415) 538-8422", "distance": 165.1043953958}, {"id": "amc-van-ness-14-san-francisco", "name": "AMC Van Ness 14", "image_url": "https://s3-media1.fl.yelpcdn.com/bphoto/iZHuDYYbHEeEbNofamenfQ/o.jpg", "is_closed": false, "url": "https://www.yelp.com/biz/amc-van-ness-14-san-francisco?adjust_creative=0T9f6kHMnzQCXJKBQD97qw&utm_campaign=yelp_api_v3&utm_medium=api_v3_business_search&utm_source=0T9f6kHMnzQCXJKBQD97qw", "review_count": 774, "categories": [{"alias": "movietheaters", "title": "Cinema"}], "rating": 3.0, "coordinates": {"latitude": 37.7850899, "longitude": -122.42067}, "transactions": [], "location": {"address1": "1000 Van Ness Ave", "address2": null, "address3": "", "city": "San Francisco", "zip_code": "94109", "country": "US", "state": "CA", "display_address": ["1000 Van Ness Ave", "San Francisco, CA 94109"]}, "phone": "+14156744630", "display_phone": "(415) 674-4630", "distance": 1428.8749371062}, {"id": "embarcadero-center-cinema-san-francisco", "name": "Embarcadero Center Cinema", "image_url": "https://s3-media2.fl.yelpcdn.com/bphoto/t35c3y8hiSd606YKWdNiTQ/o.jpg", "is_closed": false, "url": "https://www.yelp.com/biz/embarcadero-center-cinema-san-francisco?adjust_creative=0T9f6kHMnzQCXJKBQD97qw&utm_campaign=yelp_api_v3&utm_medium=api_v3_business_search&utm_source=0T9f6kHMnzQCXJKBQD97qw", "review_count": 493, "categories": [{"alias": "movietheaters", "title": "Cinema"}], "rating": 4.0, "coordinates": {"latitude": 37.794644, "longitude": -122.399644}, "transactions": [], "location": {"address1": "1 Embarcadero Ctr", "address2": "", "address3": "", "city": "San Francisco", "zip_code": "94111", "country": "US", "state": "CA", "display_address": ["1 Embarcadero Ctr", "San Francisco, CA 94111"]}, "phone": "+14153520835", "display_phone": "(415) 352-0835", "distance": 1211.8137079199998}, {"id": "amc-dine-in-kabuki-8-san-francisco-2", "name": "AMC Dine-In Kabuki 8", "image_url": "https://s3-media2.fl.yelpcdn.com/bphoto/3Scquqi0X0xHtDZ62DrteQ/o.jpg", "is_closed": false, "url": "https://www.yelp.com/biz/amc-dine-in-kabuki-8-san-francisco-2?adjust_creative=0T9f6kHMnzQCXJKBQD97qw&utm_campaign=yelp_api_v3&utm_medium=api_v3_business_search&utm_source=0T9f6kHMnzQCXJKBQD97qw", "review_count": 1871, "categories": [{"alias": "movietheaters", "title": "Cinema"}], "rating": 4.0, "coordinates": {"latitude": 37.78492, "longitude": -122.43229}, "transactions": [], "location": {"address1": "1881 Post St", "address2": "", "address3": "", "city": "San Francisco", "zip_code": "94115", "country": "US", "state": "CA", "display_address": ["1881 Post St", "San Francisco, CA 94115"]}, "phone": "+14153463243", "display_phone": "(415) 346-3243", "distance": 2509.2628112499997}, {"id": "roxie-theater-san-francisco", "name": "Roxie Theater", "image_url": "https://s3-media3.fl.yelpcdn.com/bphoto/YSvuPAoYXr3e0rFK2naGjg/o.jpg", "is_closed": false, "url": "https://www.yelp.com/biz/roxie-theater-san-francisco?adjust_creative=0T9f6kHMnzQCXJKBQD97qw&utm_campaign=yelp_api_v3&utm_medium=api_v3_business_search&utm_source=0T9f6kHMnzQCXJKBQD97qw", "review_count": 220, "categories": [{"alias": "movietheaters", "title": "Cinema"}], "rating": 4.0, "coordinates": {"latitude": 37.76474, "longitude": -122.42243}, "transactions": [], "location": {"address1": "3117 16th St", "address2": "", "address3": "", "city": "San Francisco", "zip_code": "94103", "country": "US", "state": "CA", "display_address": ["3117 16th St", "San Francisco, CA 94103"]}, "phone": "+14158631087", "display_phone": "(415) 863-1087", "distance": 2726.01355047}, {"id": "alamo-drafthouse-cinema-new-mission-san-francisco", "name": "Alamo Drafthouse Cinema - New Mission", "image_url": "https://s3-media2.fl.yelpcdn.com/bphoto/ff1mR_0lV7mBDrMhd4c35A/o.jpg", "is_closed": false, "url": "https://www.yelp.com/biz/alamo-drafthouse-cinema-new-mission-san-francisco?adjust_creative=0T9f6kHMnzQCXJKBQD97qw&utm_campaign=yelp_api_v3&utm_medium=api_v3_business_search&utm_source=0T9f6kHMnzQCXJKBQD97qw", "review_count": 472, "categories": [{"alias": "movietheaters", "title": "Cinema"}], "rating": 3.5, "coordinates": {"latitude": 37.7561899, "longitude": -122.41934}, "transactions": [], "location": {"address1": "2550 Mission St", "address2": "", "address3": "", "city": "San Francisco", "zip_code": "94110", "country": "US", "state": "CA", "display_address": ["2550 Mission St", "San Francisco, CA 94110"]}, "phone": "+14155495959", "display_phone": "(415) 549-5959", "distance": 3415.0877160160003}, {"id": "castro-theatre-san-francisco", "name": "Castro Theatre", "image_url": "https://s3-media2.fl.yelpcdn.com/bphoto/Q_og1LzuYs61mQfJo2s-EQ/o.jpg", "is_closed": false, "url": "https://www.yelp.com/biz/castro-theatre-san-francisco?adjust_creative=0T9f6kHMnzQCXJKBQD97qw&utm_campaign=yelp_api_v3&utm_medium=api_v3_business_search&utm_source=0T9f6kHMnzQCXJKBQD97qw", "review_count": 715, "categories": [{"alias": "movietheaters", "title": "Cinema"}], "rating": 4.5, "coordinates": {"latitude": 37.7620124816895, "longitude": -122.434692382812}, "transactions": [], "location": {"address1": "429 Castro St", "address2": "", "address3": "", "city": "San Francisco", "zip_code": "94114", "country": "US", "state": "CA", "display_address": ["429 Castro St", "San Francisco, CA 94114"]}, "phone": "+14156216120", "display_phone": "(415) 621-6120", "distance": 3672.7844100539996}, {"id": "presidio-theatre-san-francisco", "name": "Presidio Theatre", "image_url": "https://s3-media1.fl.yelpcdn.com/bphoto/rUYjDpCEb3ivAMeXnxY5pw/o.jpg", "is_closed": false, "url": "https://www.yelp.com/biz/presidio-theatre-san-francisco?adjust_creative=0T9f6kHMnzQCXJKBQD97qw&utm_campaign=yelp_api_v3&utm_medium=api_v3_business_search&utm_source=0T9f6kHMnzQCXJKBQD97qw", "review_count": 145, "categories": [{"alias": "movietheaters", "title": "Cinema"}], "rating": 3.0, "coordinates": {"latitude": 37.8003768920898, "longitude": -122.441970825195}, "transactions": [], "location": {"address1": "2340 Chestnut St", "address2": "", "address3": "", "city": "San Francisco", "zip_code": "94123", "country": "US", "state": "CA", "display_address": ["2340 Chestnut St", "San Francisco, CA 94123"]}, "phone": "+14157762388", "display_phone": "(415) 776-2388", "distance": 3757.434406582}, {"id": "cinearts-at-the-empire-san-francisco", "name": "CineArts at the Empire", "image_url": "https://s3-media2.fl.yelpcdn.com/bphoto/_t1aMCzazj26bgIMKWONQw/o.jpg", "is_closed": false, "url": "https://www.yelp.com/biz/cinearts-at-the-empire-san-francisco?adjust_creative=0T9f6kHMnzQCXJKBQD97qw&utm_campaign=yelp_api_v3&utm_medium=api_v3_business_search&utm_source=0T9f6kHMnzQCXJKBQD97qw", "review_count": 165, "categories": [{"alias": "movietheaters", "title": "Cinema"}], "rating": 4.0, "coordinates": {"latitude": 37.7398382, "longitude": -122.4666518}, "transactions": [], "location": {"address1": "85 W Portal Ave", "address2": "", "address3": "", "city": "San Francisco", "zip_code": "94127", "country": "US", "state": "CA", "display_address": ["85 W Portal Ave", "San Francisco, CA 94127"]}, "phone": "+14156612539", "display_phone": "(415) 661-2539", "distance": 7400.06155531}], "total": 9, "region": {"center": {"latitude": 37.780592968860944, "longitude": -122.42088767253003}}}