{"businesses": [{"id": "american-conservatory-theater-the-geary-theater-san-francisco-2", "name": "American Conservatory Theater: The Geary Theater", "image_url": "https://s3-media2.fl.yelpcdn.com/bphoto/LjQoqTumoV_asKN4TCdTtA/o.jpg", "is_closed": false, "url": "https://www.yelp.com/biz/american-conservatory-theater-the-geary-theater-san-francisco-2?adjust_creative=0T9f6kHMnzQCXJKBQD97qw&utm_campaign=yelp_api_v3&utm_medium=api_v3_business_search&utm_source=0T9f6kHMnzQCXJKBQD97qw", "review_count": 265, "categories": [{"alias": "theater", "title": "Performing Arts"}, {"alias": "artschools", "title": "Art Schools"}], "rating": 4.0, "coordinates": {"latitude": 37.786807, "longitude": -122.410209}, "transactions": [], "location": {"address1": "415 Geary St", "address2": "", "address3": "", "city": "San Francisco", "zip_code": "94102", "country": "US", "state": "CA", "display_address": ["415 Geary St", "San Francisco, CA 94102"]}, "phone": "+14157492228", "display_phone": "(415) 749-2228", "distance": 3690.269084484}, {"id": "asian-american-theater-company-san-francisco-2", "name": "Asian American Theater Company", "image_url": "https://s3-media2.fl.yelpcdn.com/bphoto/pnGkGdncwB3L-IA4Q4b5MQ/o.jpg", "is_closed": false, "url": "https://www.yelp.com/biz/asian-american-theater-company-san-francisco-2?adjust_creative=0T9f6kHMnzQCXJKBQD97qw&utm_campaign=yelp_api_v3&utm_medium=api_v3_business_search&utm_source=0T9f6kHMnzQCXJKBQD97qw", "review_count": 18, "categories": [{"alias": "theater", "title": "Performing Arts"}], "rating": 4.5, "coordinates": {"latitude": 37.7620315551758, "longitude": -122.399154663086}, "transactions": [], "location": {"address1": "1695 18th St", "address2": "Ste C-101", "address3": "", "city": "San Francisco", "zip_code": "94107", "country": "US", "state": "CA", "display_address": ["1695 18th St", "Ste C-101", "San Francisco, CA 94107"]}, "phone": "+14159137366", "display_phone": "(415) 913-7366", "distance": 3275.342769258}, {"id": "the-strand-theater-san-francisco", "name": "The Strand Theater", "image_url": "https://s3-media3.fl.yelpcdn.com/bphoto/QZz5i10s8FBz0jR8xYSisw/o.jpg", "is_closed": false, "url": "https://www.yelp.com/biz/the-strand-theater-san-francisco?adjust_creative=0T9f6kHMnzQCXJKBQD97qw&utm_campaign=yelp_api_v3&utm_medium=api_v3_business_search&utm_source=0T9f6kHMnzQCXJKBQD97qw", "review_count": 24, "categories": [{"alias": "theater", "title": "Performing Arts"}], "rating": 3.5, "coordinates": {"latitude": 37.7797699, "longitude": -122.413063}, "transactions": [], "location": {"address1": "1127 Market St", "address2": "", "address3": "", "city": "San Francisco", "zip_code": "94103", "country": "US", "state": "CA", "display_address": ["1127 Market St", "San Francisco, CA 94103"]}, "phone": "+14157492228", "display_phone": "(415) 749-2228", "distance": 2936.5147396679995}, {"id": "new-conservatory-theatre-center-classes-san-francisco-3", "name": "New Conservatory Theatre Center Classes", "image_url": "https://s3-media3.fl.yelpcdn.com/bphoto/5LteNqCkM7az4cbfyxXiCQ/o.jpg", "is_closed": false, "url": "https://www.yelp.com/biz/new-conservatory-theatre-center-classes-san-francisco-3?adjust_creative=0T9f6kHMnzQCXJKBQD97qw&utm_campaign=yelp_api_v3&utm_medium=api_v3_business_search&utm_source=0T9f6kHMnzQCXJKBQD97qw", "review_count": 12, "categories": [{"alias": "theater", "title": "Performing Arts"}, {"alias": "specialtyschools", "title": "Specialty Schools"}, {"alias": "daycamps", "title": "Day Camps"}], "rating": 5.0, "coordinates": {"latitude": 37.7756715242845, "longitude": -122.419930484131}, "transactions": [], "location": {"address1": "25 Van Ness Ave", "address2": "", "address3": "", "city": "San Francisco", "zip_code": "94102", "country": "US", "state": "CA", "display_address": ["25 Van Ness Ave", "San Francisco, CA 94102"]}, "phone": "+14156946148", "display_phone": "(415) 694-6148", "distance": 2192.4513575299998}, {"id": "beverly-hills-playhouse-san-francisco-3", "name": "Beverly Hills Playhouse", "image_url": "https://s3-media3.fl.yelpcdn.com/bphoto/OYqrOeTFieCX0wwsvgQd1w/o.jpg", "is_closed": false, "url": "https://www.yelp.com/biz/beverly-hills-playhouse-san-francisco-3?adjust_creative=0T9f6kHMnzQCXJKBQD97qw&utm_campaign=yelp_api_v3&utm_medium=api_v3_business_search&utm_source=0T9f6kHMnzQCXJKBQD97qw", "review_count": 35, "categories": [{"alias": "theater", "title": "Performing Arts"}, {"alias": "talentagencies", "title": "Talent Agencies"}], "rating": 4.5, "coordinates": {"latitude": 37.78756, "longitude": -122.40959}, "transactions": [], "location": {"address1": "414 Mason St", "address2": "Ste 502", "address3": "", "city": "San Francisco", "zip_code": "94102", "country": "US", "state": "CA", "display_address": ["414 Mason St", "Ste 502", "San Francisco, CA 94102"]}, "phone": "+14154491919", "display_phone": "(415) 449-1919", "distance": 3778.043614622}, {"id": "the-cutting-ball-theater-san-francisco", "name": "The Cutting Ball Theater", "image_url": "https://s3-media3.fl.yelpcdn.com/bphoto/o9G34JmjT7-KfI3qkQzKNA/o.jpg", "is_closed": false, "url": "https://www.yelp.com/biz/the-cutting-ball-theater-san-francisco?adjust_creative=0T9f6kHMnzQCXJKBQD97qw&utm_campaign=yelp_api_v3&utm_medium=api_v3_business_search&utm_source=0T9f6kHMnzQCXJKBQD97qw", "review_count": 24, "categories": [{"alias": "theater", "title": "Performing Arts"}], "rating": 5.0, "coordinates": {"latitude": 37.7847671, "longitude": -122.4112346}, "transactions": [], "location": {"address1": "277 Taylor St", "address2": "", "address3": "", "city": "San Francisco", "zip_code": "94102", "country": "US", "state": "CA", "display_address": ["277 Taylor St", "San Francisco, CA 94102"]}, "phone": "+14155251205", "display_phone": "(415) 525-1205", "distance": 3443.7787076679997}, {"id": "san-francisco-conservatory-of-music-san-francisco", "name": "San Francisco Conservatory of Music", "image_url": "https://s3-media1.fl.yelpcdn.com/bphoto/WGdaUw21NiJ2rk82eKKS-A/o.jpg", "is_closed": false, "url": "https://www.yelp.com/biz/san-francisco-conservatory-of-music-san-francisco?adjust_creative=0T9f6kHMnzQCXJKBQD97qw&utm_campaign=yelp_api_v3&utm_medium=api_v3_business_search&utm_source=0T9f6kHMnzQCXJKBQD97qw", "review_count": 56, "categories": [{"alias": "theater", "title": "Performing Arts"}, {"alias": "collegeuniv", "title": "Colleges & Universities"}], "rating": 4.5, "coordinates": {"latitude": 37.77544, "longitude": -122.42033}, "transactions": [], "location": {"address1": "50 Oak St", "address2": null, "address3": "", "city": "San Francisco", "zip_code": "94102", "country": "US", "state": "CA", "display_address": ["50 Oak St", "San Francisco, CA 94102"]}, "phone": "+14158647326", "display_phone": "(415) 864-7326", "distance": 2156.380737308}, {"id": "peter-maleitzke-voice-studio-san-francisco", "name": "Peter Maleitzke Voice Studio", "image_url": "https://s3-media2.fl.yelpcdn.com/bphoto/Alih04Chg9-ZjBiQAJ66CA/o.jpg", "is_closed": false, "url": "https://www.yelp.com/biz/peter-maleitzke-voice-studio-san-francisco?adjust_creative=0T9f6kHMnzQCXJKBQD97qw&utm_campaign=yelp_api_v3&utm_medium=api_v3_business_search&utm_source=0T9f6kHMnzQCXJKBQD97qw", "review_count": 4, "categories": [{"alias": "privatetutors", "title": "Private Tutors"}, {"alias": "theater", "title": "Performing Arts"}, {"alias": "musicalinstrumentsandteachers", "title": "Musical Instruments & Teachers"}], "rating": 5.0, "coordinates": {"latitude": 37.755405, "longitude": -122.428505}, "transactions": [], "location": {"address1": "329 Hill St", "address2": "", "address3": "", "city": "San Francisco", "zip_code": "94114", "country": "US", "state": "CA", "display_address": ["329 Hill St", "San Francisco, CA 94114"]}, "phone": "+14158143328", "display_phone": "(415) 814-3328", "distance": 925.3231854039999}, {"id": "acting-class-with-jennifer-welch-san-francisco", "name": "Acting Class with Jennifer Welch", "image_url": "https://s3-media2.fl.yelpcdn.com/bphoto/LTGUEj3GaVt4grXktLtQiw/o.jpg", "is_closed": false, "url": "https://www.yelp.com/biz/acting-class-with-jennifer-welch-san-francisco?adjust_creative=0T9f6kHMnzQCXJKBQD97qw&utm_campaign=yelp_api_v3&utm_medium=api_v3_business_search&utm_source=0T9f6kHMnzQCXJKBQD97qw", "review_count": 1, "categories": [{"alias": "theater", "title": "Performing Arts"}], "rating": 5.0, "coordinates": {"latitude": 37.76253, "longitude": -122.41248}, "transactions": [], "location": {"address1": "Royce Gallery", "address2": "", "address3": "2901 Mariposa", "city": "San Francisco", "zip_code": "94110", "country": "US", "state": "CA", "display_address": ["Royce Gallery", "2901 Mariposa", "San Francisco, CA 94110"]}, "phone": "+14153363522", "display_phone": "(415) 336-3522", "distance": 2112.351447984}, {"id": "new-conservatory-theatre-center-san-francisco-4", "name": "New Conservatory Theatre Center", "image_url": "https://s3-media1.fl.yelpcdn.com/bphoto/PSuPPTYHRwvFyY1UGhBSLQ/o.jpg", "is_closed": false, "url": "https://www.yelp.com/biz/new-conservatory-theatre-center-san-francisco-4?adjust_creative=0T9f6kHMnzQCXJKBQD97qw&utm_campaign=yelp_api_v3&utm_medium=api_v3_business_search&utm_source=0T9f6kHMnzQCXJKBQD97qw", "review_count": 64, "categories": [{"alias": "theater", "title": "Performing Arts"}], "rating": 4.0, "coordinates": {"latitude": 37.7756447, "longitude": -122.419517}, "transactions": [], "location": {"address1": "25 Van Ness Ave", "address2": null, "address3": "", "city": "San Francisco", "zip_code": "94102", "country": "US", "state": "CA", "display_address": ["25 Van Ness Ave", "San Francisco, CA 94102"]}, "phone": "+14158618972", "display_phone": "(415) 861-8972", "distance": 2191.628501988}, {"id": "improv-playhouse-of-san-francisco-san-francisco-3", "name": "Improv Playhouse of San Francisco", "image_url": "https://s3-media4.fl.yelpcdn.com/bphoto/ovt7H88it0t2MZAaDSCq0Q/o.jpg", "is_closed": false, "url": "https://www.yelp.com/biz/improv-playhouse-of-san-francisco-san-francisco-3?adjust_creative=0T9f6kHMnzQCXJKBQD97qw&utm_campaign=yelp_api_v3&utm_medium=api_v3_business_search&utm_source=0T9f6kHMnzQCXJKBQD97qw", "review_count": 5, "categories": [{"alias": "theater", "title": "Performing Arts"}], "rating": 5.0, "coordinates": {"latitude": 37.7754898071289, "longitude": -122.41291809082}, "transactions": [], "location": {"address1": "446 Valencia St", "address2": "", "address3": "@ Stage Werx Theatre", "city": "San Francisco", "zip_code": "94103", "country": "US", "state": "CA", "display_address": ["446 Valencia St", "@ Stage Werx Theatre", "San Francisco, CA 94103"]}, "phone": "+14154254250", "display_phone": "(415) 425-4250", "distance": 2628.643169648}, {"id": "magic-theatre-san-francisco", "name": "Magic Theatre", "image_url": "https://s3-media3.fl.yelpcdn.com/bphoto/l0NoyySjL2YlEfk1XdVULg/o.jpg", "is_closed": false, "url": "https://www.yelp.com/biz/magic-theatre-san-francisco?adjust_creative=0T9f6kHMnzQCXJKBQD97qw&utm_campaign=yelp_api_v3&utm_medium=api_v3_business_search&utm_source=0T9f6kHMnzQCXJKBQD97qw", "review_count": 53, "categories": [{"alias": "theater", "title": "Performing Arts"}], "rating": 4.5, "coordinates": {"latitude": 37.8068765178173, "longitude": -122.430782318115}, "transactions": [], "location": {"address1": "2 Marina Blvd", "address2": "Bldg D", "address3": "", "city": "San Francisco", "zip_code": "94123", "country": "US", "state": "CA", "display_address": ["2 Marina Blvd", "Bldg D", "San Francisco, CA 94123"]}, "phone": "+14154418822", "display_phone": "(415) 441-8822", "distance": 5136.788294268}, {"id": "boxcar-theatre-san-francisco", "name": "Boxcar Theatre", "image_url": "https://s3-media3.fl.yelpcdn.com/bphoto/9R-IWjmUUKrK56Q-89vkcw/o.jpg", "is_closed": false, "url": "https://www.yelp.com/biz/boxcar-theatre-san-francisco?adjust_creative=0T9f6kHMnzQCXJKBQD97qw&utm_campaign=yelp_api_v3&utm_medium=api_v3_business_search&utm_source=0T9f6kHMnzQCXJKBQD97qw", "review_count": 66, "categories": [{"alias": "theater", "title": "Performing Arts"}], "rating": 4.5, "coordinates": {"latitude": 37.7798829, "longitude": -122.4078037}, "transactions": [], "location": {"address1": "505 Natoma St", "address2": "", "address3": "", "city": "San Francisco", "zip_code": "94103", "country": "US", "state": "CA", "display_address": ["505 Natoma St", "San Francisco, CA 94103"]}, "phone": "+14159672227", "display_phone": "(415) 967-2227", "distance": 3279.1863559799995}, {"id": "presidio-performing-arts-center-san-francisco", "name": "Presidio Performing Arts Center", "image_url": "https://s3-media3.fl.yelpcdn.com/bphoto/EXEwFKUY4V3_rN6aBOhRHg/o.jpg", "is_closed": false, "url": "https://www.yelp.com/biz/presidio-performing-arts-center-san-francisco?adjust_creative=0T9f6kHMnzQCXJKBQD97qw&utm_campaign=yelp_api_v3&utm_medium=api_v3_business_search&utm_source=0T9f6kHMnzQCXJKBQD97qw", "review_count": 3, "categories": [{"alias": "theater", "title": "Performing Arts"}, {"alias": "venues", "title": "Venues & Event Spaces"}], "rating": 2.5, "coordinates": {"latitude": 37.7976548, "longitude": -122.4600213}, "transactions": [], "location": {"address1": "386 Moraga Ave", "address2": "", "address3": "", "city": "San Francisco", "zip_code": "94129", "country": "US", "state": "CA", "display_address": ["386 Moraga Ave", "San Francisco, CA 94129"]}, "phone": "+14155613958", "display_phone": "(415) 561-3958", "distance": 4582.10238729}, {"id": "rob-reich-san-francisco-bay-area-2", "name": "Rob Reich", "image_url": "https://s3-media2.fl.yelpcdn.com/bphoto/-wp-aENMU22cM7Fiyj8mBw/o.jpg", "is_closed": false, "url": "https://www.yelp.com/biz/rob-reich-san-francisco-bay-area-2?adjust_creative=0T9f6kHMnzQCXJKBQD97qw&utm_campaign=yelp_api_v3&utm_medium=api_v3_business_search&utm_source=0T9f6kHMnzQCXJKBQD97qw", "review_count": 12, "categories": [{"alias": "musicians", "title": "Musicians"}, {"alias": "theater", "title": "Performing Arts"}], "rating": 5.0, "coordinates": {"latitude": 37.51418, "longitude": -122.2951}, "transactions": [], "location": {"address1": "", "address2": null, "address3": "", "city": "San Francisco Bay Area", "zip_code": "", "country": "US", "state": "CA", "display_address": ["San Francisco Bay Area, CA"]}, "phone": "+15104593996", "display_phone": "(510) 459-3996", "distance": 2162.04207356}, {"id": "marines-memorial-theatre-san-francisco", "name": "Marines' Memorial Theatre", "image_url": "https://s3-media3.fl.yelpcdn.com/bphoto/H9OBAjvXReRek-Uii6-Nfw/o.jpg", "is_closed": false, "url": "https://www.yelp.com/biz/marines-memorial-theatre-san-francisco?adjust_creative=0T9f6kHMnzQCXJKBQD97qw&utm_campaign=yelp_api_v3&utm_medium=api_v3_business_search&utm_source=0T9f6kHMnzQCXJKBQD97qw", "review_count": 51, "categories": [{"alias": "theater", "title": "Performing Arts"}, {"alias": "venues", "title": "Venues & Event Spaces"}], "rating": 4.0, "coordinates": {"latitude": 37.7886772155762, "longitude": -122.410461425781}, "transactions": [], "location": {"address1": "609 Sutter St", "address2": "", "address3": "2nd Level", "city": "San Francisco", "zip_code": "94102", "country": "US", "state": "CA", "display_address": ["609 Sutter St", "2nd Level", "San Francisco, CA 94102"]}, "phone": "+14154470188", "display_phone": "(415) 447-0188", "distance": 3841.508098456}, {"id": "curran-san-francisco", "name": "Curran", "image_url": "https://s3-media1.fl.yelpcdn.com/bphoto/K-NQoIJyLnhjmgDQg_04TQ/o.jpg", "is_closed": false, "url": "https://www.yelp.com/biz/curran-san-francisco?adjust_creative=0T9f6kHMnzQCXJKBQD97qw&utm_campaign=yelp_api_v3&utm_medium=api_v3_business_search&utm_source=0T9f6kHMnzQCXJKBQD97qw", "review_count": 243, "categories": [{"alias": "theater", "title": "Performing Arts"}], "rating": 3.5, "coordinates": {"latitude": 37.7867736816406, "longitude": -122.410583496094}, "transactions": [], "location": {"address1": "445 Geary St", "address2": "", "address3": "", "city": "San Francisco", "zip_code": "94102", "country": "US", "state": "CA", "display_address": ["445 Geary St", "San Francisco, CA 94102"]}, "phone": "+14153581220", "display_phone": "(415) 358-1220", "distance": 3669.001173582}, {"id": "sfjazz-san-francisco", "name": "SFJAZZ", "image_url": "https://s3-media3.fl.yelpcdn.com/bphoto/OZ6yYqH_VfBQfbQWb3_cDA/o.jpg", "is_closed": false, "url": "https://www.yelp.com/biz/sfjazz-san-francisco?adjust_creative=0T9f6kHMnzQCXJKBQD97qw&utm_campaign=yelp_api_v3&utm_medium=api_v3_business_search&utm_source=0T9f6kHMnzQCXJKBQD97qw", "review_count": 148, "categories": [{"alias": "theater", "title": "Performing Arts"}, {"alias": "jazzandblues", "title": "Jazz & Blues"}, {"alias": "musicvenues", "title": "Music Venues"}], "rating": 4.0, "coordinates": {"latitude": 37.7762395, "longitude": -122.4213228}, "transactions": [], "price": "$$", "location": {"address1": "201 Franklin St", "address2": "", "address3": "", "city": "San Francisco", "zip_code": "94102", "country": "US", "state": "CA", "display_address": ["201 Franklin St", "San Francisco, CA 94102"]}, "phone": "+18669205299", "display_phone": "(866) 920-5299", "distance": 2161.56490425}], "total": 18, "region": {"center": {"latitude": 37.76089938976322, "longitude": -122.43644714355469}}}