{"businesses": [{"id": "aps-cafe-san-francisco", "name": "Ap's Cafe", "image_url": "", "is_closed": false, "url": "https://www.yelp.com/biz/aps-cafe-san-francisco?adjust_creative=0T9f6kHMnzQCXJKBQD97qw&utm_campaign=yelp_api_v3&utm_medium=api_v3_business_search&utm_source=0T9f6kHMnzQCXJKBQD97qw", "review_count": 1, "categories": [{"alias": "cafes", "title": "Cafes"}], "rating": 5.0, "coordinates": {"latitude": 37.75143, "longitude": -122.43438}, "transactions": [], "location": {"address1": "4108 24th St", "address2": "", "address3": "", "city": "San Francisco", "zip_code": "94114", "country": "US", "state": "CA", "display_address": ["4108 24th St", "San Francisco, CA 94114"]}, "phone": "+14156421316", "display_phone": "(415) 642-1316", "distance": 1069.4418354799998}, {"id": "bubble-pop-electric-salon-san-francisco-3", "name": "Bubble Pop Electric Salon", "image_url": "https://s3-media1.fl.yelpcdn.com/bphoto/Jb8tayDCfJccYDaE8o5a5A/o.jpg", "is_closed": false, "url": "https://www.yelp.com/biz/bubble-pop-electric-salon-san-francisco-3?adjust_creative=0T9f6kHMnzQCXJKBQD97qw&utm_campaign=yelp_api_v3&utm_medium=api_v3_business_search&utm_source=0T9f6kHMnzQCXJKBQD97qw", "review_count": 197, "categories": [{"alias": "hair", "title": "Hair Salons"}], "rating": 4.5, "coordinates": {"latitude": 37.78911, "longitude": -122.43459}, "transactions": [], "price": "$$$", "location": {"address1": "2434 California St", "address2": "", "address3": "", "city": "San Francisco", "zip_code": "94115", "country": "US", "state": "CA", "display_address": ["2434 California St", "San Francisco, CA 94115"]}, "phone": "+14153469864", "display_phone": "(415) 346-9864", "distance": 3133.660338074}, {"id": "shear-delight-san-francisco", "name": "Shear Delight", "image_url": "https://s3-media2.fl.yelpcdn.com/bphoto/jiq34ubr5SnC3I0KDaMOPg/o.jpg", "is_closed": false, "url": "https://www.yelp.com/biz/shear-delight-san-francisco?adjust_creative=0T9f6kHMnzQCXJKBQD97qw&utm_campaign=yelp_api_v3&utm_medium=api_v3_business_search&utm_source=0T9f6kHMnzQCXJKBQD97qw", "review_count": 35, "categories": [{"alias": "hair", "title": "Hair Salons"}], "rating": 4.5, "coordinates": {"latitude": 37.7552808, "longitude": -122.4235303}, "transactions": [], "price": "$", "location": {"address1": "3416 22nd St", "address2": "", "address3": "", "city": "San Francisco", "zip_code": "94110", "country": "US", "state": "CA", "display_address": ["3416 22nd St", "San Francisco, CA 94110"]}, "phone": "+14152069560", "display_phone": "(415) 206-9560", "distance": 1286.560630758}, {"id": "geary-salon-san-francisco", "name": "Geary Salon", "image_url": "https://s3-media2.fl.yelpcdn.com/bphoto/6tkimZc9g2rIzGKHlSCUFA/o.jpg", "is_closed": false, "url": "https://www.yelp.com/biz/geary-salon-san-francisco?adjust_creative=0T9f6kHMnzQCXJKBQD97qw&utm_campaign=yelp_api_v3&utm_medium=api_v3_business_search&utm_source=0T9f6kHMnzQCXJKBQD97qw", "review_count": 126, "categories": [{"alias": "hair", "title": "Hair Salons"}], "rating": 4.5, "coordinates": {"latitude": 37.78143, "longitude": -122.45295}, "transactions": [], "price": "$", "location": {"address1": "3151 Geary Blvd", "address2": "", "address3": "", "city": "San Francisco", "zip_code": "94118", "country": "US", "state": "CA", "display_address": ["3151 Geary Blvd", "San Francisco, CA 94118"]}, "phone": "+14153868809", "display_phone": "(415) 386-8809", "distance": 2707.59304483}, {"id": "appearance-care-center-san-francisco", "name": "Appearance Care Center", "image_url": "https://s3-media3.fl.yelpcdn.com/bphoto/tCPl4QceD6amm-14olj0Mw/o.jpg", "is_closed": false, "url": "https://www.yelp.com/biz/appearance-care-center-san-francisco?adjust_creative=0T9f6kHMnzQCXJKBQD97qw&utm_campaign=yelp_api_v3&utm_medium=api_v3_business_search&utm_source=0T9f6kHMnzQCXJKBQD97qw", "review_count": 44, "categories": [{"alias": "skincare", "title": "Skin Care"}, {"alias": "spas", "title": "Day Spas"}, {"alias": "laser_hair_removal", "title": "Laser Hair Removal"}], "rating": 4.5, "coordinates": {"latitude": 37.79102, "longitude": -122.43286}, "transactions": [], "price": "$$", "location": {"address1": "2408 Clay St", "address2": "", "address3": "", "city": "San Francisco", "zip_code": "94115", "country": "US", "state": "CA", "display_address": ["2408 Clay St", "San Francisco, CA 94115"]}, "phone": "+14155677000", "display_phone": "(415) 567-7000", "distance": 3365.2184537}, {"id": "national-holistic-institute-massage-clinic-san-francisco", "name": "National Holistic Institute - Massage Clinic", "image_url": "https://s3-media1.fl.yelpcdn.com/bphoto/1LYNkVH3pYgll5WttzwfuQ/o.jpg", "is_closed": false, "url": "https://www.yelp.com/biz/national-holistic-institute-massage-clinic-san-francisco?adjust_creative=0T9f6kHMnzQCXJKBQD97qw&utm_campaign=yelp_api_v3&utm_medium=api_v3_business_search&utm_source=0T9f6kHMnzQCXJKBQD97qw", "review_count": 47, "categories": [{"alias": "massage", "title": "Massage"}], "rating": 4.0, "coordinates": {"latitude": 37.772947, "longitude": -122.42182}, "transactions": [], "price": "$", "location": {"address1": "1665 Market Street", "address2": "", "address3": "", "city": "San Francisco", "zip_code": "94103", "country": "US", "state": "CA", "display_address": ["1665 Market Street", "San Francisco, CA 94103"]}, "phone": "+14158612245", "display_phone": "(415) 861-2245", "distance": 1856.643093516}, {"id": "madusalon-san-francisco-2", "name": "MaduSalon", "image_url": "https://s3-media2.fl.yelpcdn.com/bphoto/2EIgUonNO908o-b8fYMG0Q/o.jpg", "is_closed": false, "url": "https://www.yelp.com/biz/madusalon-san-francisco-2?adjust_creative=0T9f6kHMnzQCXJKBQD97qw&utm_campaign=yelp_api_v3&utm_medium=api_v3_business_search&utm_source=0T9f6kHMnzQCXJKBQD97qw", "review_count": 509, "categories": [{"alias": "hair", "title": "Hair Salons"}, {"alias": "hairremoval", "title": "Hair Removal"}], "rating": 4.0, "coordinates": {"latitude": 37.772357580045, "longitude": -122.437096729656}, "transactions": [], "price": "$$$", "location": {"address1": "300 Divisadero St", "address2": "", "address3": "", "city": "San Francisco", "zip_code": "94117", "country": "US", "state": "CA", "display_address": ["300 Divisadero St", "San Francisco, CA 94117"]}, "phone": "+14156264782", "display_phone": "(415) 626-4782", "distance": 1275.4946479839998}, {"id": "l-occitane-san-francisco-6", "name": "L'Occitane", "image_url": "https://s3-media2.fl.yelpcdn.com/bphoto/XZYbKNNOS5mlSQzck9nwWw/o.jpg", "is_closed": false, "url": "https://www.yelp.com/biz/l-occitane-san-francisco-6?adjust_creative=0T9f6kHMnzQCXJKBQD97qw&utm_campaign=yelp_api_v3&utm_medium=api_v3_business_search&utm_source=0T9f6kHMnzQCXJKBQD97qw", "review_count": 29, "categories": [{"alias": "cosmetics", "title": "Cosmetics & Beauty Supply"}], "rating": 4.0, "coordinates": {"latitude": 37.7947993576527, "longitude": -122.398768141866}, "transactions": [], "price": "$$$", "location": {"address1": "2 Embarcadero Ctr", "address2": "", "address3": "Street Level", "city": "San Francisco", "zip_code": "94111", "country": "US", "state": "CA", "display_address": ["2 Embarcadero Ctr", "Street Level", "San Francisco, CA 94111"]}, "phone": "+14156779931", "display_phone": "(415) 677-9931", "distance": 5038.553215064}, {"id": "cinta-aveda-institute-san-francisco", "name": "Cinta Aveda Institute", "image_url": "https://s3-media1.fl.yelpcdn.com/bphoto/QBckwzq848VeSIR4af_cYQ/o.jpg", "is_closed": false, "url": "https://www.yelp.com/biz/cinta-aveda-institute-san-francisco?adjust_creative=0T9f6kHMnzQCXJKBQD97qw&utm_campaign=yelp_api_v3&utm_medium=api_v3_business_search&utm_source=0T9f6kHMnzQCXJKBQD97qw", "review_count": 841, "categories": [{"alias": "skincare", "title": "Skin Care"}, {"alias": "hair", "title": "Hair Salons"}, {"alias": "cosmetology_schools", "title": "Cosmetology Schools"}], "rating": 4.0, "coordinates": {"latitude": 37.7908085365768, "longitude": -122.404199204281}, "transactions": [], "price": "$", "location": {"address1": "305 Kearny St", "address2": "", "address3": "", "city": "San Francisco", "zip_code": "94108", "country": "US", "state": "CA", "display_address": ["305 Kearny St", "San Francisco, CA 94108"]}, "phone": "+14159894400", "display_phone": "(415) 989-4400", "distance": 4369.871801328}, {"id": "kiehls-since-1851-san-francisco-5", "name": "Kiehl's Since 1851", "image_url": "https://s3-media4.fl.yelpcdn.com/bphoto/FPUWSP2irHx2cCYSV7iEfA/o.jpg", "is_closed": false, "url": "https://www.yelp.com/biz/kiehls-since-1851-san-francisco-5?adjust_creative=0T9f6kHMnzQCXJKBQD97qw&utm_campaign=yelp_api_v3&utm_medium=api_v3_business_search&utm_source=0T9f6kHMnzQCXJKBQD97qw", "review_count": 158, "categories": [{"alias": "skincare", "title": "Skin Care"}, {"alias": "cosmetics", "title": "Cosmetics & Beauty Supply"}], "rating": 4.0, "coordinates": {"latitude": 37.7877883911133, "longitude": -122.433876037598}, "transactions": [], "price": "$$$", "location": {"address1": "1971 Fillmore St", "address2": "", "address3": "", "city": "San Francisco", "zip_code": "94115", "country": "US", "state": "CA", "display_address": ["1971 Fillmore St", "San Francisco, CA 94115"]}, "phone": "+14153599260", "display_phone": "(415) 359-9260", "distance": 2998.53355338}, {"id": "new-age-nails-north-beach-san-francisco", "name": "New Age Nails North Beach", "image_url": "https://s3-media2.fl.yelpcdn.com/bphoto/ME-Zop8NXe9Va85iXwmwww/o.jpg", "is_closed": false, "url": "https://www.yelp.com/biz/new-age-nails-north-beach-san-francisco?adjust_creative=0T9f6kHMnzQCXJKBQD97qw&utm_campaign=yelp_api_v3&utm_medium=api_v3_business_search&utm_source=0T9f6kHMnzQCXJKBQD97qw", "review_count": 217, "categories": [{"alias": "othersalons", "title": "Nail Salons"}, {"alias": "waxing", "title": "Waxing"}], "rating": 4.5, "coordinates": {"latitude": 37.8011743344695, "longitude": -122.407753955394}, "transactions": [], "price": "$", "location": {"address1": "1543 Grant Ave", "address2": "", "address3": "", "city": "San Francisco", "zip_code": "94133", "country": "US", "state": "CA", "display_address": ["1543 Grant Ave", "San Francisco, CA 94133"]}, "phone": "+14159568807", "display_phone": "(415) 956-8807", "distance": 5145.89361812}], "total": 11, "region": {"center": {"latitude": 37.76089938976322, "longitude": -122.43644714355469}}}