{"businesses": [{"id": "archbishop-riordan-high-school-san-francisco", "name": "Archbishop Riordan High School", "image_url": "https://s3-media4.fl.yelpcdn.com/bphoto/Z7SV6YyiKAb5UinU0IiOsQ/o.jpg", "is_closed": false, "url": "https://www.yelp.com/biz/archbishop-riordan-high-school-san-francisco?adjust_creative=0T9f6kHMnzQCXJKBQD97qw&utm_campaign=yelp_api_v3&utm_medium=api_v3_business_search&utm_source=0T9f6kHMnzQCXJKBQD97qw", "review_count": 14, "categories": [{"alias": "highschools", "title": "Middle Schools & High Schools"}], "rating": 4.0, "coordinates": {"latitude": 37.7279080937077, "longitude": -122.453361458784}, "transactions": [], "location": {"address1": "175 Phelan Ave", "address2": "", "address3": "", "city": "San Francisco", "zip_code": "94112", "country": "US", "state": "CA", "display_address": ["175 Phelan Ave", "San Francisco, CA 94112"]}, "phone": "+14155868200", "display_phone": "(415) 586-8200", "distance": 102.0972055228}, {"id": "ingleside-branch-library-san-francisco", "name": "Ingleside Branch Library", "image_url": "https://s3-media4.fl.yelpcdn.com/bphoto/idaA1fNDPq2HXj7i_W2P9A/o.jpg", "is_closed": false, "url": "https://www.yelp.com/biz/ingleside-branch-library-san-francisco?adjust_creative=0T9f6kHMnzQCXJKBQD97qw&utm_campaign=yelp_api_v3&utm_medium=api_v3_business_search&utm_source=0T9f6kHMnzQCXJKBQD97qw", "review_count": 43, "categories": [{"alias": "libraries", "title": "Libraries"}, {"alias": "tutoring", "title": "Tutoring Centers"}, {"alias": "adultedu", "title": "Adult Education"}], "rating": 4.0, "coordinates": {"latitude": 37.72414, "longitude": -122.4562}, "transactions": [], "location": {"address1": "1298 Ocean Ave", "address2": null, "address3": "", "city": "San Francisco", "zip_code": "94112", "country": "US", "state": "CA", "display_address": ["1298 Ocean Ave", "San Francisco, CA 94112"]}, "phone": "+14153552898", "display_phone": "(415) 355-2898", "distance": 487.5664832568}, {"id": "bellarmine-college-preparatory-san-jose", "name": "Bellarmine College Preparatory", "image_url": "https://s3-media1.fl.yelpcdn.com/bphoto/SQLEoQFHpMZlPr0ieP3cjw/o.jpg", "is_closed": false, "url": "https://www.yelp.com/biz/bellarmine-college-preparatory-san-jose?adjust_creative=0T9f6kHMnzQCXJKBQD97qw&utm_campaign=yelp_api_v3&utm_medium=api_v3_business_search&utm_source=0T9f6kHMnzQCXJKBQD97qw", "review_count": 29, "categories": [{"alias": "highschools", "title": "Middle Schools & High Schools"}], "rating": 4.0, "coordinates": {"latitude": 37.34229, "longitude": -121.92018}, "transactions": [], "location": {"address1": "960 W Hedding St", "address2": "", "address3": "", "city": "San Jose", "zip_code": "95126", "country": "US", "state": "CA", "display_address": ["960 W Hedding St", "San Jose, CA 95126"]}, "phone": "+14082949224", "display_phone": "(408) 294-9224", "distance": 63662.165503560005}], "total": 3, "region": {"center": {"latitude": 37.55331153340015, "longitude": -122.19963617746997}}}