{"businesses": [{"id": "chloe-fine-arts-san-francisco", "name": "Chloe Fine Arts", "image_url": "https://s3-media2.fl.yelpcdn.com/bphoto/GA67yBK-PzqmZjRWpmEo5A/o.jpg", "is_closed": false, "url": "https://www.yelp.com/biz/chloe-fine-arts-san-francisco?adjust_creative=0T9f6kHMnzQCXJKBQD97qw&utm_campaign=yelp_api_v3&utm_medium=api_v3_business_search&utm_source=0T9f6kHMnzQCXJKBQD97qw", "review_count": 5, "categories": [{"alias": "galleries", "title": "Art Galleries"}], "rating": 5.0, "coordinates": {"latitude": 37.8066417, "longitude": -122.4195059}, "transactions": [], "price": "$$$$", "location": {"address1": "645 Beach St", "address2": "", "address3": "", "city": "San Francisco", "zip_code": "94109", "country": "US", "state": "CA", "display_address": ["645 Beach St", "San Francisco, CA 94109"]}, "phone": "+14157491000", "display_phone": "(415) 749-1000", "distance": 3561.6770248599996}, {"id": "hotel-nikko-san-francisco-san-francisco-2", "name": "Hotel Nikko San Francisco", "image_url": "https://s3-media2.fl.yelpcdn.com/bphoto/xRfoLpWSvX-UjMVRua860w/o.jpg", "is_closed": false, "url": "https://www.yelp.com/biz/hotel-nikko-san-francisco-san-francisco-2?adjust_creative=0T9f6kHMnzQCXJKBQD97qw&utm_campaign=yelp_api_v3&utm_medium=api_v3_business_search&utm_source=0T9f6kHMnzQCXJKBQD97qw", "review_count": 668, "categories": [{"alias": "hotels", "title": "Hotels"}], "rating": 4.0, "coordinates": {"latitude": 37.7859844832523, "longitude": -122.409244244422}, "transactions": [], "price": "$$$", "location": {"address1": "222 Mason St", "address2": "", "address3": "", "city": "San Francisco", "zip_code": "94102", "country": "US", "state": "CA", "display_address": ["222 Mason St", "San Francisco, CA 94102"]}, "phone": "+14153941111", "display_phone": "(415) 394-1111", "distance": 1264.819815297}, {"id": "le-colonial-san-francisco", "name": "Le Colonial", "image_url": "https://s3-media2.fl.yelpcdn.com/bphoto/cqHioshtb9u5rnxPikSX7g/o.jpg", "is_closed": false, "url": "https://www.yelp.com/biz/le-colonial-san-francisco?adjust_creative=0T9f6kHMnzQCXJKBQD97qw&utm_campaign=yelp_api_v3&utm_medium=api_v3_business_search&utm_source=0T9f6kHMnzQCXJKBQD97qw", "review_count": 1462, "categories": [{"alias": "vietnamese", "title": "Vietnamese"}, {"alias": "venues", "title": "Venues & Event Spaces"}, {"alias": "french", "title": "French"}], "rating": 3.5, "coordinates": {"latitude": 37.78839, "longitude": -122.41236}, "transactions": ["pickup"], "price": "$$$", "location": {"address1": "20 Cosmo Pl", "address2": "", "address3": "", "city": "San Francisco", "zip_code": "94109", "country": "US", "state": "CA", "display_address": ["20 Cosmo Pl", "San Francisco, CA 94109"]}, "phone": "+14159313600", "display_phone": "(415) 931-3600", "distance": 1468.0088233643999}, {"id": "escapesf-san-francisco", "name": "EscapeSF", "image_url": "https://s3-media1.fl.yelpcdn.com/bphoto/2wv1HgAAy1dv-nl5SK7Ciw/o.jpg", "is_closed": false, "url": "https://www.yelp.com/biz/escapesf-san-francisco?adjust_creative=0T9f6kHMnzQCXJKBQD97qw&utm_campaign=yelp_api_v3&utm_medium=api_v3_business_search&utm_source=0T9f6kHMnzQCXJKBQD97qw", "review_count": 183, "categories": [{"alias": "escapegames", "title": "Escape Games"}], "rating": 4.5, "coordinates": {"latitude": 37.79369, "longitude": -122.40445}, "transactions": [], "location": {"address1": "602 Kearny St", "address2": null, "address3": "", "city": "San Francisco", "zip_code": "94108", "country": "US", "state": "CA", "display_address": ["602 Kearny St", "San Francisco, CA 94108"]}, "phone": "+14152941718", "display_phone": "(415) 294-1718", "distance": 2200.437063544}, {"id": "planet-fitness-san-francisco-san-francisco", "name": "Planet Fitness - San Francisco", "image_url": "https://s3-media3.fl.yelpcdn.com/bphoto/W3-mFYDfqibA8X2hPKCZJw/o.jpg", "is_closed": false, "url": "https://www.yelp.com/biz/planet-fitness-san-francisco-san-francisco?adjust_creative=0T9f6kHMnzQCXJKBQD97qw&utm_campaign=yelp_api_v3&utm_medium=api_v3_business_search&utm_source=0T9f6kHMnzQCXJKBQD97qw", "review_count": 171, "categories": [{"alias": "gyms", "title": "Gyms"}, {"alias": "healthtrainers", "title": "Trainers"}], "rating": 3.5, "coordinates": {"latitude": 37.7937812805176, "longitude": -122.401000976562}, "transactions": [], "location": {"address1": "350 Sansome St", "address2": "", "address3": "", "city": "San Francisco", "zip_code": "94104", "country": "US", "state": "CA", "display_address": ["350 Sansome St", "San Francisco, CA 94104"]}, "phone": "+14154333033", "display_phone": "(415) 433-3033", "distance": 2321.3493526879997}, {"id": "international-spy-shop-san-francisco", "name": "International Spy Shop", "image_url": "https://s3-media1.fl.yelpcdn.com/bphoto/eqkA3KQ5K6-cj4FEDhoFRw/o.jpg", "is_closed": false, "url": "https://www.yelp.com/biz/international-spy-shop-san-francisco?adjust_creative=0T9f6kHMnzQCXJKBQD97qw&utm_campaign=yelp_api_v3&utm_medium=api_v3_business_search&utm_source=0T9f6kHMnzQCXJKBQD97qw", "review_count": 100, "categories": [{"alias": "securitysystems", "title": "Security Systems"}, {"alias": "firearmtraining", "title": "Firearm Training"}, {"alias": "airsoft", "title": "Airsoft"}], "rating": 3.5, "coordinates": {"latitude": 37.8068161010742, "longitude": -122.418014526367}, "transactions": [], "location": {"address1": "555 Beach St", "address2": "", "address3": "", "city": "San Francisco", "zip_code": "94133", "country": "US", "state": "CA", "display_address": ["555 Beach St", "San Francisco, CA 94133"]}, "phone": "+14157754779", "display_phone": "(415) 775-4779", "distance": 3565.433868156}, {"id": "cali-party-bus-oakland", "name": "Cali Party Bus", "image_url": "https://s3-media1.fl.yelpcdn.com/bphoto/EQKzTUQDf2K5stOlBKM36g/o.jpg", "is_closed": false, "url": "https://www.yelp.com/biz/cali-party-bus-oakland?adjust_creative=0T9f6kHMnzQCXJKBQD97qw&utm_campaign=yelp_api_v3&utm_medium=api_v3_business_search&utm_source=0T9f6kHMnzQCXJKBQD97qw", "review_count": 201, "categories": [{"alias": "partybusrentals", "title": "Party Bus Rentals"}], "rating": 4.5, "coordinates": {"latitude": 37.7641599, "longitude": -122.21625}, "transactions": [], "location": {"address1": "4911 Coliseum Way", "address2": "", "address3": "", "city": "Oakland", "zip_code": "94601", "country": "US", "state": "CA", "display_address": ["4911 Coliseum Way", "Oakland, CA 94601"]}, "phone": "+14156921465", "display_phone": "(415) 692-1465", "distance": 17342.28163614}, {"id": "sayang-holidays-castro-valley", "name": "Sayang Holidays", "image_url": "https://s3-media1.fl.yelpcdn.com/bphoto/OUy0watcDBl5WedyyeOfAQ/o.jpg", "is_closed": false, "url": "https://www.yelp.com/biz/sayang-holidays-castro-valley?adjust_creative=0T9f6kHMnzQCXJKBQD97qw&utm_campaign=yelp_api_v3&utm_medium=api_v3_business_search&utm_source=0T9f6kHMnzQCXJKBQD97qw", "review_count": 20, "categories": [{"alias": "travelservices", "title": "Travel Services"}, {"alias": "tours", "title": "Tours"}], "rating": 4.0, "coordinates": {"latitude": 37.6977335, "longitude": -122.0766961}, "transactions": [], "location": {"address1": "3545 Jamison Way", "address2": "", "address3": "", "city": "Castro Valley", "zip_code": "94546", "country": "US", "state": "CA", "display_address": ["3545 Jamison Way", "Castro Valley, CA 94546"]}, "phone": "+15105828800", "display_phone": "(510) 582-8800", "distance": 30804.618340999998}, {"id": "ifly-indoor-skydiving-sf-bay-union-city", "name": "iFLY Indoor Skydiving - SF Bay", "image_url": "https://s3-media4.fl.yelpcdn.com/bphoto/WT8L217LK2ZNdn1mNmHV3A/o.jpg", "is_closed": false, "url": "https://www.yelp.com/biz/ifly-indoor-skydiving-sf-bay-union-city?adjust_creative=0T9f6kHMnzQCXJKBQD97qw&utm_campaign=yelp_api_v3&utm_medium=api_v3_business_search&utm_source=0T9f6kHMnzQCXJKBQD97qw", "review_count": 711, "categories": [{"alias": "skydiving", "title": "Skydiving"}, {"alias": "eventplanning", "title": "Party & Event Planning"}], "rating": 4.5, "coordinates": {"latitude": 37.5983916, "longitude": -122.065536}, "transactions": [], "location": {"address1": "31310 Alvarado-Niles Rd", "address2": "", "address3": "", "city": "Union City", "zip_code": "94587", "country": "US", "state": "CA", "display_address": ["31310 Alvarado-Niles Rd", "Union City, CA 94587"]}, "phone": "+15104894359", "display_phone": "(510) 489-4359", "distance": 36346.94872802}], "total": 9, "region": {"center": {"latitude": 37.70512169650989, "longitude": -122.25377367746998}}}