{"businesses": [{"id": "at-and-t-park-san-francisco", "name": "AT&T Park", "image_url": "https://s3-media4.fl.yelpcdn.com/bphoto/qWSAhCGqwcxcFchKE4Lk2Q/o.jpg", "is_closed": false, "url": "https://www.yelp.com/biz/at-and-t-park-san-francisco?adjust_creative=0T9f6kHMnzQCXJKBQD97qw&utm_campaign=yelp_api_v3&utm_medium=api_v3_business_search&utm_source=0T9f6kHMnzQCXJKBQD97qw", "review_count": 2697, "categories": [{"alias": "stadiumsarenas", "title": "Stadiums & Arenas"}], "rating": 4.5, "coordinates": {"latitude": 37.7783555476443, "longitude": -122.38987326622}, "transactions": [], "location": {"address1": "24 Willie Mays Plz", "address2": null, "address3": "", "city": "San Francisco", "zip_code": "94107", "country": "US", "state": "CA", "display_address": ["24 Willie Mays Plz", "San Francisco, CA 94107"]}, "phone": "+14159722000", "display_phone": "(415) 972-2000", "distance": 4530.8550471319995}, {"id": "saison-san-francisco-2", "name": "Saison", "image_url": "https://s3-media3.fl.yelpcdn.com/bphoto/ty5h4AoiBXumLGEuWrj-BQ/o.jpg", "is_closed": false, "url": "https://www.yelp.com/biz/saison-san-francisco-2?adjust_creative=0T9f6kHMnzQCXJKBQD97qw&utm_campaign=yelp_api_v3&utm_medium=api_v3_business_search&utm_source=0T9f6kHMnzQCXJKBQD97qw", "review_count": 332, "categories": [{"alias": "newamerican", "title": "American (New)"}], "rating": 4.0, "coordinates": {"latitude": 37.77973, "longitude": -122.39251}, "transactions": [], "price": "$$$$", "location": {"address1": "178 Townsend St", "address2": "", "address3": "", "city": "San Francisco", "zip_code": "94107", "country": "US", "state": "CA", "display_address": ["178 Townsend St", "San Francisco, CA 94107"]}, "phone": "+14158287990", "display_phone": "(415) 828-7990", "distance": 4393.0186166799995}, {"id": "mason-pacific-san-francisco", "name": "Mason Pacific", "image_url": "https://s3-media4.fl.yelpcdn.com/bphoto/jMaFqtjM43zAZtAEpOlJfQ/o.jpg", "is_closed": false, "url": "https://www.yelp.com/biz/mason-pacific-san-francisco?adjust_creative=0T9f6kHMnzQCXJKBQD97qw&utm_campaign=yelp_api_v3&utm_medium=api_v3_business_search&utm_source=0T9f6kHMnzQCXJKBQD97qw", "review_count": 347, "categories": [{"alias": "newamerican", "title": "American (New)"}, {"alias": "seafood", "title": "Seafood"}], "rating": 4.0, "coordinates": {"latitude": 37.7961947180551, "longitude": -122.411513944775}, "transactions": [], "price": "$$$", "location": {"address1": "1358 Mason St", "address2": "", "address3": "", "city": "San Francisco", "zip_code": "94133", "country": "US", "state": "CA", "display_address": ["1358 Mason St", "San Francisco, CA 94133"]}, "phone": "+14153747185", "display_phone": "(415) 374-7185", "distance": 4495.15055176}, {"id": "prospect-san-francisco", "name": "Prospect", "image_url": "https://s3-media3.fl.yelpcdn.com/bphoto/OuBrSACvSN5dpEgg67fr3g/o.jpg", "is_closed": false, "url": "https://www.yelp.com/biz/prospect-san-francisco?adjust_creative=0T9f6kHMnzQCXJKBQD97qw&utm_campaign=yelp_api_v3&utm_medium=api_v3_business_search&utm_source=0T9f6kHMnzQCXJKBQD97qw", "review_count": 1357, "categories": [{"alias": "newamerican", "title": "American (New)"}], "rating": 4.0, "coordinates": {"latitude": 37.7897917872845, "longitude": -122.390961392642}, "transactions": [], "price": "$$$", "location": {"address1": "300 Spear St", "address2": "", "address3": "", "city": "San Francisco", "zip_code": "94105", "country": "US", "state": "CA", "display_address": ["300 Spear St", "San Francisco, CA 94105"]}, "phone": "+14152477770", "display_phone": "(415) 247-7770", "distance": 5128.74529575}, {"id": "mua-oakland-2", "name": "Mua", "image_url": "https://s3-media3.fl.yelpcdn.com/bphoto/0H4fzJuyTno0if2bAB_DSQ/o.jpg", "is_closed": false, "url": "https://www.yelp.com/biz/mua-oakland-2?adjust_creative=0T9f6kHMnzQCXJKBQD97qw&utm_campaign=yelp_api_v3&utm_medium=api_v3_business_search&utm_source=0T9f6kHMnzQCXJKBQD97qw", "review_count": 2332, "categories": [{"alias": "bars", "title": "Bars"}, {"alias": "newamerican", "title": "American (New)"}], "rating": 4.0, "coordinates": {"latitude": 37.8140830993652, "longitude": -122.264350891113}, "transactions": [], "price": "$$", "location": {"address1": "2442 Webster St", "address2": "Ste A", "address3": "", "city": "Oakland", "zip_code": "94612", "country": "US", "state": "CA", "display_address": ["2442 Webster St", "Ste A", "Oakland, CA 94612"]}, "phone": "+15102381100", "display_phone": "(510) 238-1100", "distance": 16237.67894034}, {"id": "french-laundry-yountville", "name": "The French Laundry", "image_url": "https://s3-media2.fl.yelpcdn.com/bphoto/HNdZFKGyCZD1-ryfWOHKeg/o.jpg", "is_closed": false, "url": "https://www.yelp.com/biz/french-laundry-yountville?adjust_creative=0T9f6kHMnzQCXJKBQD97qw&utm_campaign=yelp_api_v3&utm_medium=api_v3_business_search&utm_source=0T9f6kHMnzQCXJKBQD97qw", "review_count": 2120, "categories": [{"alias": "french", "title": "French"}], "rating": 4.5, "coordinates": {"latitude": 38.40442, "longitude": -122.36476}, "transactions": [], "price": "$$$$", "location": {"address1": "6640 Washington St", "address2": "", "address3": "", "city": "Yountville", "zip_code": "94599", "country": "US", "state": "CA", "display_address": ["6640 Washington St", "Yountville, CA 94599"]}, "phone": "+17079442380", "display_phone": "(707) 944-2380", "distance": 71829.4469124}, {"id": "the-melting-pot-san-mateo-3", "name": "The Melting Pot", "image_url": "https://s3-media1.fl.yelpcdn.com/bphoto/d39phngvc3x4V-1dJGSF2g/o.jpg", "is_closed": false, "url": "https://www.yelp.com/biz/the-melting-pot-san-mateo-3?adjust_creative=0T9f6kHMnzQCXJKBQD97qw&utm_campaign=yelp_api_v3&utm_medium=api_v3_business_search&utm_source=0T9f6kHMnzQCXJKBQD97qw", "review_count": 1446, "categories": [{"alias": "fondue", "title": "Fondue"}], "rating": 3.0, "coordinates": {"latitude": 37.5680259887447, "longitude": -122.324046747049}, "transactions": [], "price": "$$$", "location": {"address1": "1 Transit Center Way", "address2": "", "address3": "", "city": "San Mateo", "zip_code": "94401", "country": "US", "state": "CA", "display_address": ["1 Transit Center Way", "San Mateo, CA 94401"]}, "phone": "+16503426358", "display_phone": "(650) 342-6358", "distance": 23618.50324996}], "total": 7, "region": {"center": {"latitude": 37.98622454437235, "longitude": -122.40155626210938}}}