{"businesses": [{"id": "barneys-gourmet-hamburgers-san-francisco-2", "name": "Barney's Gourmet Hamburgers", "image_url": "https://s3-media2.fl.yelpcdn.com/bphoto/iSKVQbiz_BA9Euggg66pXQ/o.jpg", "is_closed": false, "url": "https://www.yelp.com/biz/barneys-gourmet-hamburgers-san-francisco-2?adjust_creative=0T9f6kHMnzQCXJKBQD97qw&utm_campaign=yelp_api_v3&utm_medium=api_v3_business_search&utm_source=0T9f6kHMnzQCXJKBQD97qw", "review_count": 699, "categories": [{"alias": "burgers", "title": "Burgers"}, {"alias": "salad", "title": "Salad"}, {"alias": "tradamerican", "title": "American (Traditional)"}], "rating": 3.5, "coordinates": {"latitude": 37.7515, "longitude": -122.43501}, "transactions": [], "price": "$$", "location": {"address1": "4138 24th St", "address2": "", "address3": "", "city": "San Francisco", "zip_code": "94114", "country": "US", "state": "CA", "display_address": ["4138 24th St", "San Francisco, CA 94114"]}, "phone": "+14152827770", "display_phone": "(415) 282-7770", "distance": 23.25631001758}, {"id": "barneys-new-york-san-francisco-san-francisco", "name": "Barneys New York, San Francisco", "image_url": "https://s3-media2.fl.yelpcdn.com/bphoto/BCeqkvyD3tyYdZi3VwIi9Q/o.jpg", "is_closed": false, "url": "https://www.yelp.com/biz/barneys-new-york-san-francisco-san-francisco?adjust_creative=0T9f6kHMnzQCXJKBQD97qw&utm_campaign=yelp_api_v3&utm_medium=api_v3_business_search&utm_source=0T9f6kHMnzQCXJKBQD97qw", "review_count": 401, "categories": [{"alias": "menscloth", "title": "Men's Clothing"}, {"alias": "womenscloth", "title": "Women's Clothing"}, {"alias": "shoes", "title": "Shoe Stores"}], "rating": 3.5, "coordinates": {"latitude": 37.7864596906508, "longitude": -122.406140705589}, "transactions": [], "price": "$$$$", "location": {"address1": "77 O'Farrell St", "address2": null, "address3": "", "city": "San Francisco", "zip_code": "94108", "country": "US", "state": "CA", "display_address": ["77 O'Farrell St", "San Francisco, CA 94108"]}, "phone": "+14152683500", "display_phone": "(415) 268-3500", "distance": 4663.05782198}, {"id": "barneys-gourmet-hamburgers-san-francisco", "name": "Barney's Gourmet Hamburgers", "image_url": "https://s3-media2.fl.yelpcdn.com/bphoto/siLW4v3YWIIzEJXCTf8a3Q/o.jpg", "is_closed": true, "url": "https://www.yelp.com/biz/barneys-gourmet-hamburgers-san-francisco?adjust_creative=0T9f6kHMnzQCXJKBQD97qw&utm_campaign=yelp_api_v3&utm_medium=api_v3_business_search&utm_source=0T9f6kHMnzQCXJKBQD97qw", "review_count": 615, "categories": [{"alias": "hotdog", "title": "Hot Dogs"}, {"alias": "burgers", "title": "Burgers"}], "rating": 3.5, "coordinates": {"latitude": 37.80031, "longitude": -122.43753}, "transactions": [], "price": "$$", "location": {"address1": "3344 Steiner St", "address2": "", "address3": "", "city": "San Francisco", "zip_code": "94123", "country": "US", "state": "CA", "display_address": ["3344 Steiner St", "San Francisco, CA 94123"]}, "phone": "+14155630307", "display_phone": "(415) 563-0307", "distance": 5457.244581219999}, {"id": "barneys-auto-center-san-francisco", "name": "Barney's Auto Center", "image_url": "", "is_closed": false, "url": "https://www.yelp.com/biz/barneys-auto-center-san-francisco?adjust_creative=0T9f6kHMnzQCXJKBQD97qw&utm_campaign=yelp_api_v3&utm_medium=api_v3_business_search&utm_source=0T9f6kHMnzQCXJKBQD97qw", "review_count": 9, "categories": [{"alias": "autorepair", "title": "Auto Repair"}], "rating": 4.0, "coordinates": {"latitude": 37.7574195861816, "longitude": -122.417053222656}, "transactions": [], "location": {"address1": "986 S Van Ness Ave", "address2": "", "address3": "", "city": "San Francisco", "zip_code": "94110", "country": "US", "state": "CA", "display_address": ["986 S Van Ness Ave", "San Francisco, CA 94110"]}, "phone": "+14158247805", "display_phone": "(415) 824-7805", "distance": 1718.9460319079997}, {"id": "matthew-barney-drawing-restraint-san-francisco", "name": "Matthew Barney - 'Drawing Restraint'", "image_url": "", "is_closed": false, "url": "https://www.yelp.com/biz/matthew-barney-drawing-restraint-san-francisco?adjust_creative=0T9f6kHMnzQCXJKBQD97qw&utm_campaign=yelp_api_v3&utm_medium=api_v3_business_search&utm_source=0T9f6kHMnzQCXJKBQD97qw", "review_count": 1, "categories": [{"alias": "galleries", "title": "Art Galleries"}], "rating": 2.0, "coordinates": {"latitude": 37.78592, "longitude": -122.40074}, "transactions": [], "location": {"address1": "151 Third St", "address2": "", "address3": "SFMOMA", "city": "San Francisco", "zip_code": "94104", "country": "US", "state": "CA", "display_address": ["151 Third St", "SFMOMA", "San Francisco, CA 94104"]}, "phone": "", "display_phone": "", "distance": 4885.433204499999}, {"id": "bistro-sf-grill-san-francisco-2", "name": "Bistro SF Grill", "image_url": "https://s3-media2.fl.yelpcdn.com/bphoto/IYAGW19T2T7Jv2vvuVW-JA/o.jpg", "is_closed": false, "url": "https://www.yelp.com/biz/bistro-sf-grill-san-francisco-2?adjust_creative=0T9f6kHMnzQCXJKBQD97qw&utm_campaign=yelp_api_v3&utm_medium=api_v3_business_search&utm_source=0T9f6kHMnzQCXJKBQD97qw", "review_count": 56, "categories": [{"alias": "gastropubs", "title": "Gastropubs"}, {"alias": "burgers", "title": "Burgers"}, {"alias": "seafood", "title": "Seafood"}], "rating": 4.0, "coordinates": {"latitude": 37.7510547, "longitude": -122.433895057918}, "transactions": ["pickup"], "price": "$$", "location": {"address1": "1305 Castro St", "address2": "", "address3": null, "city": "San Francisco", "zip_code": "94114", "country": "US", "state": "CA", "display_address": ["1305 Castro St", "San Francisco, CA 94114"]}, "phone": "+14154096410", "display_phone": "(415) 409-6410", "distance": 99.4688153414}, {"id": "christian-louboutin-san-francisco", "name": "Christian Louboutin", "image_url": "https://s3-media4.fl.yelpcdn.com/bphoto/37JbkSpdUEgCgnmFkpx_xQ/o.jpg", "is_closed": false, "url": "https://www.yelp.com/biz/christian-louboutin-san-francisco?adjust_creative=0T9f6kHMnzQCXJKBQD97qw&utm_campaign=yelp_api_v3&utm_medium=api_v3_business_search&utm_source=0T9f6kHMnzQCXJKBQD97qw", "review_count": 74, "categories": [{"alias": "shoes", "title": "Shoe Stores"}], "rating": 4.0, "coordinates": {"latitude": 37.78828561306, "longitude": -122.404079586267}, "transactions": [], "price": "$$$$", "location": {"address1": "29 Maiden Lane", "address2": "", "address3": "", "city": "San Francisco", "zip_code": "94108", "country": "US", "state": "CA", "display_address": ["29 Maiden Lane", "San Francisco, CA 94108"]}, "phone": "+14156589079", "display_phone": "(415) 658-9079", "distance": 4924.1861117}, {"id": "neiman-marcus-san-francisco", "name": "Neiman Marcus", "image_url": "https://s3-media2.fl.yelpcdn.com/bphoto/hXra8nC3qkBaf_yCV3kXgg/o.jpg", "is_closed": false, "url": "https://www.yelp.com/biz/neiman-marcus-san-francisco?adjust_creative=0T9f6kHMnzQCXJKBQD97qw&utm_campaign=yelp_api_v3&utm_medium=api_v3_business_search&utm_source=0T9f6kHMnzQCXJKBQD97qw", "review_count": 440, "categories": [{"alias": "menscloth", "title": "Men's Clothing"}, {"alias": "womenscloth", "title": "Women's Clothing"}, {"alias": "shoes", "title": "Shoe Stores"}], "rating": 3.5, "coordinates": {"latitude": 37.787434124218, "longitude": -122.406417000525}, "transactions": [], "price": "$$$$", "location": {"address1": "150 Stockton St", "address2": "", "address3": "", "city": "San Francisco", "zip_code": "94108", "country": "US", "state": "CA", "display_address": ["150 Stockton St", "San Francisco, CA 94108"]}, "phone": "+14153623900", "display_phone": "(415) 362-3900", "distance": 4741.357040999999}, {"id": "saks-fifth-avenue-san-francisco-7", "name": "Saks Fifth Avenue", "image_url": "https://s3-media2.fl.yelpcdn.com/bphoto/Od44LH8bAtQS5wTu6KpdqQ/o.jpg", "is_closed": false, "url": "https://www.yelp.com/biz/saks-fifth-avenue-san-francisco-7?adjust_creative=0T9f6kHMnzQCXJKBQD97qw&utm_campaign=yelp_api_v3&utm_medium=api_v3_business_search&utm_source=0T9f6kHMnzQCXJKBQD97qw", "review_count": 173, "categories": [{"alias": "accessories", "title": "Accessories"}, {"alias": "womenscloth", "title": "Women's Clothing"}, {"alias": "shoes", "title": "Shoe Stores"}], "rating": 3.5, "coordinates": {"latitude": 37.78862, "longitude": -122.40807}, "transactions": [], "price": "$$$$", "location": {"address1": "384 Post St", "address2": null, "address3": "", "city": "San Francisco", "zip_code": "94108", "country": "US", "state": "CA", "display_address": ["384 Post St", "San Francisco, CA 94108"]}, "phone": "+14159864300", "display_phone": "(415) 986-4300", "distance": 4911.95593237}, {"id": "beneduci-shoemakers-san-francisco", "name": "Beneduci Shoemakers", "image_url": "https://s3-media4.fl.yelpcdn.com/bphoto/JSeanRr5cesnvfS_IxRKZw/o.jpg", "is_closed": false, "url": "https://www.yelp.com/biz/beneduci-shoemakers-san-francisco?adjust_creative=0T9f6kHMnzQCXJKBQD97qw&utm_campaign=yelp_api_v3&utm_medium=api_v3_business_search&utm_source=0T9f6kHMnzQCXJKBQD97qw", "review_count": 13, "categories": [{"alias": "shoes", "title": "Shoe Stores"}], "rating": 5.0, "coordinates": {"latitude": 37.7423417, "longitude": -122.4230539}, "transactions": [], "price": "$$$$", "location": {"address1": "797 San Jose Ave", "address2": "", "address3": "", "city": "San Francisco", "zip_code": "94110", "country": "US", "state": "CA", "display_address": ["797 San Jose Ave", "San Francisco, CA 94110"]}, "phone": "+14157420005", "display_phone": "(415) 742-0005", "distance": 1442.307245136}, {"id": "big-mouth-burgers-san-francisco", "name": "Big Mouth Burgers", "image_url": "https://s3-media2.fl.yelpcdn.com/bphoto/tSIhKVD3nvKqybUpzSPQdQ/o.jpg", "is_closed": false, "url": "https://www.yelp.com/biz/big-mouth-burgers-san-francisco?adjust_creative=0T9f6kHMnzQCXJKBQD97qw&utm_campaign=yelp_api_v3&utm_medium=api_v3_business_search&utm_source=0T9f6kHMnzQCXJKBQD97qw", "review_count": 473, "categories": [{"alias": "burgers", "title": "Burgers"}], "rating": 3.5, "coordinates": {"latitude": 37.752250817471, "longitude": -122.42045135982}, "transactions": ["delivery", "pickup"], "price": "$", "location": {"address1": "3392 24th St", "address2": "", "address3": "", "city": "San Francisco", "zip_code": "94110", "country": "US", "state": "CA", "display_address": ["3392 24th St", "San Francisco, CA 94110"]}, "phone": "+14158214821", "display_phone": "(415) 821-4821", "distance": 1283.153014242}, {"id": "m-a-c-modern-appealing-clothing-san-francisco-2", "name": "M A C Modern Appealing Clothing", "image_url": "https://s3-media3.fl.yelpcdn.com/bphoto/OvtObEUi4Hue6tIOgE4rlQ/o.jpg", "is_closed": false, "url": "https://www.yelp.com/biz/m-a-c-modern-appealing-clothing-san-francisco-2?adjust_creative=0T9f6kHMnzQCXJKBQD97qw&utm_campaign=yelp_api_v3&utm_medium=api_v3_business_search&utm_source=0T9f6kHMnzQCXJKBQD97qw", "review_count": 76, "categories": [{"alias": "menscloth", "title": "Men's Clothing"}, {"alias": "womenscloth", "title": "Women's Clothing"}], "rating": 4.5, "coordinates": {"latitude": 37.7777, "longitude": -122.42294}, "transactions": [], "price": "$$$", "location": {"address1": "387 Grove St", "address2": null, "address3": "", "city": "San Francisco", "zip_code": "94102", "country": "US", "state": "CA", "display_address": ["387 Grove St", "San Francisco, CA 94102"]}, "phone": "+14158633011", "display_phone": "(415) 863-3011", "distance": 3136.7682954819998}, {"id": "goyard-san-francisco-4", "name": "Goyard", "image_url": "https://s3-media3.fl.yelpcdn.com/bphoto/UafSwlNJ1MtZnLQfKIjCag/o.jpg", "is_closed": false, "url": "https://www.yelp.com/biz/goyard-san-francisco-4?adjust_creative=0T9f6kHMnzQCXJKBQD97qw&utm_campaign=yelp_api_v3&utm_medium=api_v3_business_search&utm_source=0T9f6kHMnzQCXJKBQD97qw", "review_count": 126, "categories": [{"alias": "leather", "title": "Leather Goods"}, {"alias": "luggage", "title": "Luggage"}, {"alias": "accessories", "title": "Accessories"}], "rating": 3.5, "coordinates": {"latitude": 37.78806, "longitude": -122.40487}, "transactions": [], "price": "$$$$", "location": {"address1": "118 Grant Ave", "address2": "", "address3": null, "city": "San Francisco", "zip_code": "94108", "country": "US", "state": "CA", "display_address": ["118 Grant Ave", "San Francisco, CA 94108"]}, "phone": "+14155238200", "display_phone": "(415) 523-8200", "distance": 4875.886599619999}, {"id": "burger-joint-san-francisco-2", "name": "Burger Joint", "image_url": "https://s3-media2.fl.yelpcdn.com/bphoto/FsmYExC1QqzmOXE6xqDXfg/o.jpg", "is_closed": false, "url": "https://www.yelp.com/biz/burger-joint-san-francisco-2?adjust_creative=0T9f6kHMnzQCXJKBQD97qw&utm_campaign=yelp_api_v3&utm_medium=api_v3_business_search&utm_source=0T9f6kHMnzQCXJKBQD97qw", "review_count": 229, "categories": [{"alias": "hotdog", "title": "Hot Dogs"}, {"alias": "burgers", "title": "Burgers"}], "rating": 3.5, "coordinates": {"latitude": 37.7599165588617, "longitude": -122.421326860785}, "transactions": [], "price": "$$", "location": {"address1": "807 Valencia St", "address2": "", "address3": "", "city": "San Francisco", "zip_code": "94110", "country": "US", "state": "CA", "display_address": ["807 Valencia St", "San Francisco, CA 94110"]}, "phone": "+14158243494", "display_phone": "(415) 824-3494", "distance": 1541.882260824}, {"id": "gimme-shoes-san-francisco-5", "name": "Gimme Shoes", "image_url": "", "is_closed": false, "url": "https://www.yelp.com/biz/gimme-shoes-san-francisco-5?adjust_creative=0T9f6kHMnzQCXJKBQD97qw&utm_campaign=yelp_api_v3&utm_medium=api_v3_business_search&utm_source=0T9f6kHMnzQCXJKBQD97qw", "review_count": 8, "categories": [{"alias": "shoes", "title": "Shoe Stores"}], "rating": 4.0, "coordinates": {"latitude": 37.776661, "longitude": -122.422668}, "transactions": [], "price": "$$$", "location": {"address1": "381 Hayes St", "address2": "", "address3": "", "city": "San Francisco", "zip_code": "94102", "country": "US", "state": "CA", "display_address": ["381 Hayes St", "San Francisco, CA 94102"]}, "phone": "+14158008992", "display_phone": "(415) 800-8992", "distance": 3023.9334447319998}, {"id": "nordstrom-san-francisco-3", "name": "Nordstrom", "image_url": "https://s3-media1.fl.yelpcdn.com/bphoto/L1UJaVx6a-OMlCHb55xMLg/o.jpg", "is_closed": false, "url": "https://www.yelp.com/biz/nordstrom-san-francisco-3?adjust_creative=0T9f6kHMnzQCXJKBQD97qw&utm_campaign=yelp_api_v3&utm_medium=api_v3_business_search&utm_source=0T9f6kHMnzQCXJKBQD97qw", "review_count": 823, "categories": [{"alias": "deptstores", "title": "Department Stores"}], "rating": 4.0, "coordinates": {"latitude": 37.784198, "longitude": -122.407447}, "transactions": [], "price": "$$$", "location": {"address1": "865 Market St", "address2": "", "address3": "", "city": "San Francisco", "zip_code": "94103", "country": "US", "state": "CA", "display_address": ["865 Market St", "San Francisco, CA 94103"]}, "phone": "+14152438500", "display_phone": "(415) 243-8500", "distance": 4389.811202059999}, {"id": "super-duper-burgers-san-francisco-4", "name": "Super Duper Burgers", "image_url": "https://s3-media3.fl.yelpcdn.com/bphoto/wdOiH8wnWeg4j8uIc9m94w/o.jpg", "is_closed": false, "url": "https://www.yelp.com/biz/super-duper-burgers-san-francisco-4?adjust_creative=0T9f6kHMnzQCXJKBQD97qw&utm_campaign=yelp_api_v3&utm_medium=api_v3_business_search&utm_source=0T9f6kHMnzQCXJKBQD97qw", "review_count": 1068, "categories": [{"alias": "burgers", "title": "Burgers"}, {"alias": "newamerican", "title": "American (New)"}], "rating": 4.0, "coordinates": {"latitude": 37.7640087, "longitude": -122.433698}, "transactions": [], "price": "$", "location": {"address1": "2304 Market St", "address2": "", "address3": "", "city": "San Francisco", "zip_code": "94114", "country": "US", "state": "CA", "display_address": ["2304 Market St", "San Francisco, CA 94114"]}, "phone": "+14155588123", "display_phone": "(415) 558-8123", "distance": 1421.27011359}, {"id": "bloomingdales-san-francisco", "name": "Bloomingdale's", "image_url": "https://s3-media4.fl.yelpcdn.com/bphoto/PgTnBTEkpbdp6hZiFJVu6Q/o.jpg", "is_closed": false, "url": "https://www.yelp.com/biz/bloomingdales-san-francisco?adjust_creative=0T9f6kHMnzQCXJKBQD97qw&utm_campaign=yelp_api_v3&utm_medium=api_v3_business_search&utm_source=0T9f6kHMnzQCXJKBQD97qw", "review_count": 808, "categories": [{"alias": "deptstores", "title": "Department Stores"}], "rating": 3.5, "coordinates": {"latitude": 37.7839860047902, "longitude": -122.405837774277}, "transactions": [], "price": "$$$", "location": {"address1": "845 Market St", "address2": "", "address3": "Level 1", "city": "San Francisco", "zip_code": "94103", "country": "US", "state": "CA", "display_address": ["845 Market St", "Level 1", "San Francisco, CA 94103"]}, "phone": "+14158565300", "display_phone": "(415) 856-5300", "distance": 4449.967204722}, {"id": "savor-san-francisco", "name": "Savor", "image_url": "https://s3-media2.fl.yelpcdn.com/bphoto/Ir83_JLvRmaY6mmT8uEBXw/o.jpg", "is_closed": false, "url": "https://www.yelp.com/biz/savor-san-francisco?adjust_creative=0T9f6kHMnzQCXJKBQD97qw&utm_campaign=yelp_api_v3&utm_medium=api_v3_business_search&utm_source=0T9f6kHMnzQCXJKBQD97qw", "review_count": 803, "categories": [{"alias": "creperies", "title": "Creperies"}, {"alias": "breakfast_brunch", "title": "Breakfast & Brunch"}], "rating": 3.5, "coordinates": {"latitude": 37.7514162727294, "longitude": -122.430055439472}, "transactions": [], "price": "$$", "location": {"address1": "3913 24th St", "address2": "", "address3": "", "city": "San Francisco", "zip_code": "94114", "country": "US", "state": "CA", "display_address": ["3913 24th St", "San Francisco, CA 94114"]}, "phone": "+14152820344", "display_phone": "(415) 282-0344", "distance": 434.30244695799996}, {"id": "zo\u00eb-bikini-san-francisco-2", "name": "Zo\u00eb Bikini", "image_url": "https://s3-media1.fl.yelpcdn.com/bphoto/4PfrcsKeVdZlzn0K11DZ4w/o.jpg", "is_closed": false, "url": "https://www.yelp.com/biz/zo%C3%AB-bikini-san-francisco-2?adjust_creative=0T9f6kHMnzQCXJKBQD97qw&utm_campaign=yelp_api_v3&utm_medium=api_v3_business_search&utm_source=0T9f6kHMnzQCXJKBQD97qw", "review_count": 121, "categories": [{"alias": "womenscloth", "title": "Women's Clothing"}, {"alias": "swimwear", "title": "Swimwear"}], "rating": 4.5, "coordinates": {"latitude": 37.7619013935328, "longitude": -122.419012114406}, "transactions": [], "price": "$$$", "location": {"address1": "3386 18th St", "address2": "", "address3": "", "city": "San Francisco", "zip_code": "94110", "country": "US", "state": "CA", "display_address": ["3386 18th St", "San Francisco, CA 94110"]}, "phone": "+14158703372", "display_phone": "(415) 870-3372", "distance": 1852.142252338}], "total": 260, "region": {"center": {"latitude": 37.757377266907696, "longitude": -122.43235532746996}}}