{"businesses": [{"id": "bay-view-boat-club-san-francisco", "name": "Bay View Boat Club", "image_url": "https://s3-media1.fl.yelpcdn.com/bphoto/kG02AGVyG36gyHleb1vKLg/o.jpg", "is_closed": false, "url": "https://www.yelp.com/biz/bay-view-boat-club-san-francisco?adjust_creative=0T9f6kHMnzQCXJKBQD97qw&utm_campaign=yelp_api_v3&utm_medium=api_v3_business_search&utm_source=0T9f6kHMnzQCXJKBQD97qw", "review_count": 26, "categories": [{"alias": "boating", "title": "Boating"}], "rating": 4.5, "coordinates": {"latitude": 37.7711053937674, "longitude": -122.386498376727}, "transactions": [], "location": {"address1": "489 Terry Francois St", "address2": "", "address3": "", "city": "San Francisco", "zip_code": "94158", "country": "US", "state": "CA", "display_address": ["489 Terry Francois St", "San Francisco, CA 94158"]}, "phone": "+14154959500", "display_phone": "(415) 495-9500", "distance": 194.49929627039998}, {"id": "south-beach-yacht-club-san-francisco", "name": "South Beach Yacht Club", "image_url": "https://s3-media4.fl.yelpcdn.com/bphoto/0EKwUg7W72TnJ5zx08TlcQ/o.jpg", "is_closed": false, "url": "https://www.yelp.com/biz/south-beach-yacht-club-san-francisco?adjust_creative=0T9f6kHMnzQCXJKBQD97qw&utm_campaign=yelp_api_v3&utm_medium=api_v3_business_search&utm_source=0T9f6kHMnzQCXJKBQD97qw", "review_count": 15, "categories": [{"alias": "boating", "title": "Boating"}], "rating": 4.5, "coordinates": {"latitude": 37.780027173011, "longitude": -122.38792894344}, "transactions": [], "location": {"address1": "40 Pier", "address2": "", "address3": "", "city": "San Francisco", "zip_code": "94107", "country": "US", "state": "CA", "display_address": ["40 Pier", "San Francisco, CA 94107"]}, "phone": "+14154952295", "display_phone": "(415) 495-2295", "distance": 822.0494235939999}, {"id": "mariposa-hunters-point-yacht-club-san-francisco", "name": "Mariposa Hunters Point Yacht Club", "image_url": "https://s3-media1.fl.yelpcdn.com/bphoto/w6O7HX1FjkuCXgH8vA8OqA/o.jpg", "is_closed": false, "url": "https://www.yelp.com/biz/mariposa-hunters-point-yacht-club-san-francisco?adjust_creative=0T9f6kHMnzQCXJKBQD97qw&utm_campaign=yelp_api_v3&utm_medium=api_v3_business_search&utm_source=0T9f6kHMnzQCXJKBQD97qw", "review_count": 7, "categories": [{"alias": "boating", "title": "Boating"}], "rating": 3.5, "coordinates": {"latitude": 37.7731818, "longitude": -122.3871523}, "transactions": [], "location": {"address1": "405 Terry Francois St", "address2": "", "address3": "", "city": "San Francisco", "zip_code": "94158", "country": "US", "state": "CA", "display_address": ["405 Terry Francois St", "San Francisco, CA 94158"]}, "phone": "+14154959344", "display_phone": "(415) 495-9344", "distance": 14.19997769386}, {"id": "hornblower-cruises-and-events-san-francisco", "name": "Hornblower Cruises & Events", "image_url": "https://s3-media1.fl.yelpcdn.com/bphoto/Yz4HhdPWn4TQfsjnhr9pQQ/o.jpg", "is_closed": false, "url": "https://www.yelp.com/biz/hornblower-cruises-and-events-san-francisco?adjust_creative=0T9f6kHMnzQCXJKBQD97qw&utm_campaign=yelp_api_v3&utm_medium=api_v3_business_search&utm_source=0T9f6kHMnzQCXJKBQD97qw", "review_count": 517, "categories": [{"alias": "boatcharters", "title": "Boat Charters"}, {"alias": "eventplanning", "title": "Party & Event Planning"}, {"alias": "tours", "title": "Tours"}], "rating": 4.0, "coordinates": {"latitude": 37.7983245118328, "longitude": -122.394580073016}, "transactions": [], "location": {"address1": "Pier 3 Hornblower Lndg", "address2": "", "address3": "", "city": "San Francisco", "zip_code": "94111", "country": "US", "state": "CA", "display_address": ["Pier 3 Hornblower Lndg", "San Francisco, CA 94111"]}, "phone": "+14157122556", "display_phone": "(415) 712-2556", "distance": 2929.0401600379996}, {"id": "city-kayak-san-francisco", "name": "City Kayak", "image_url": "https://s3-media4.fl.yelpcdn.com/bphoto/dzZ8ylZlooc6w6P9MNntDA/o.jpg", "is_closed": false, "url": "https://www.yelp.com/biz/city-kayak-san-francisco?adjust_creative=0T9f6kHMnzQCXJKBQD97qw&utm_campaign=yelp_api_v3&utm_medium=api_v3_business_search&utm_source=0T9f6kHMnzQCXJKBQD97qw", "review_count": 127, "categories": [{"alias": "rafting", "title": "Rafting/Kayaking"}], "rating": 4.0, "coordinates": {"latitude": 37.7818301143034, "longitude": -122.385733954401}, "transactions": [], "location": {"address1": "South Beach Harbor", "address2": "", "address3": "Embarcadero at Townsend", "city": "San Francisco", "zip_code": "94107", "country": "US", "state": "CA", "display_address": ["South Beach Harbor", "Embarcadero at Townsend", "San Francisco, CA 94107"]}, "phone": "+14152941050", "display_phone": "(415) 294-1050", "distance": 1025.2239315079999}, {"id": "acsailingsf-san-francisco-2", "name": "ACsailingSF", "image_url": "https://s3-media1.fl.yelpcdn.com/bphoto/ANSOxQLd6xJwbx4S5AHsBw/o.jpg", "is_closed": false, "url": "https://www.yelp.com/biz/acsailingsf-san-francisco-2?adjust_creative=0T9f6kHMnzQCXJKBQD97qw&utm_campaign=yelp_api_v3&utm_medium=api_v3_business_search&utm_source=0T9f6kHMnzQCXJKBQD97qw", "review_count": 20, "categories": [{"alias": "boating", "title": "Boating"}, {"alias": "tours", "title": "Tours"}, {"alias": "eventservices", "title": "Event Planning & Services"}], "rating": 5.0, "coordinates": {"latitude": 37.808961198673, "longitude": -122.409198727509}, "transactions": [], "location": {"address1": "Pier 39", "address2": "Gate B", "address3": "", "city": "San Francisco", "zip_code": "94133", "country": "US", "state": "CA", "display_address": ["Pier 39", "Gate B", "San Francisco, CA 94133"]}, "phone": "+14159909992", "display_phone": "(415) 990-9992", "distance": 4480.95536829}, {"id": "the-san-francisco-sailing-company-san-francisco", "name": "The San Francisco Sailing Company", "image_url": "https://s3-media2.fl.yelpcdn.com/bphoto/e4V4QRzZRp-NfCpOFnTAkA/o.jpg", "is_closed": false, "url": "https://www.yelp.com/biz/the-san-francisco-sailing-company-san-francisco?adjust_creative=0T9f6kHMnzQCXJKBQD97qw&utm_campaign=yelp_api_v3&utm_medium=api_v3_business_search&utm_source=0T9f6kHMnzQCXJKBQD97qw", "review_count": 186, "categories": [{"alias": "boating", "title": "Boating"}, {"alias": "boatcharters", "title": "Boat Charters"}], "rating": 4.0, "coordinates": {"latitude": 37.8057776391506, "longitude": -122.412787377834}, "transactions": [], "location": {"address1": "350 Bay St", "address2": "", "address3": "Pier 39", "city": "San Francisco", "zip_code": "94133", "country": "US", "state": "CA", "display_address": ["350 Bay St", "Pier 39", "San Francisco, CA 94133"]}, "phone": "+14153784887", "display_phone": "(415) 378-4887", "distance": 4330.678739638}, {"id": "red-and-white-fleet-san-francisco", "name": "Red and White Fleet", "image_url": "https://s3-media2.fl.yelpcdn.com/bphoto/m23FccAsDy52-RD7CHJKRw/o.jpg", "is_closed": false, "url": "https://www.yelp.com/biz/red-and-white-fleet-san-francisco?adjust_creative=0T9f6kHMnzQCXJKBQD97qw&utm_campaign=yelp_api_v3&utm_medium=api_v3_business_search&utm_source=0T9f6kHMnzQCXJKBQD97qw", "review_count": 303, "categories": [{"alias": "boating", "title": "Boating"}, {"alias": "tours", "title": "Tours"}], "rating": 4.0, "coordinates": {"latitude": 37.8091990845752, "longitude": -122.415161132812}, "transactions": [], "location": {"address1": "Pier 43 1/2", "address2": null, "address3": "", "city": "San Francisco", "zip_code": "94133", "country": "US", "state": "CA", "display_address": ["Pier 43 1/2", "San Francisco, CA 94133"]}, "phone": "+14156732900", "display_phone": "(415) 673-2900", "distance": 4755.23196581}, {"id": "blue-and-gold-fleet-san-francisco", "name": "Blue & Gold Fleet", "image_url": "https://s3-media1.fl.yelpcdn.com/bphoto/oaNFBgsgPn5An5EQzU0vQA/o.jpg", "is_closed": false, "url": "https://www.yelp.com/biz/blue-and-gold-fleet-san-francisco?adjust_creative=0T9f6kHMnzQCXJKBQD97qw&utm_campaign=yelp_api_v3&utm_medium=api_v3_business_search&utm_source=0T9f6kHMnzQCXJKBQD97qw", "review_count": 373, "categories": [{"alias": "boating", "title": "Boating"}, {"alias": "boatcharters", "title": "Boat Charters"}], "rating": 3.5, "coordinates": {"latitude": 37.8090247585244, "longitude": -122.412185447113}, "transactions": [], "location": {"address1": "Pier 39", "address2": "", "address3": "", "city": "San Francisco", "zip_code": "94133", "country": "US", "state": "CA", "display_address": ["Pier 39", "San Francisco, CA 94133"]}, "phone": "+14157058200", "display_phone": "(415) 705-8200", "distance": 4607.59191888}, {"id": "alcatraz-cruises-san-francsico", "name": "Alcatraz Cruises", "image_url": "https://s3-media3.fl.yelpcdn.com/bphoto/JbdzV76I7KqpASY8spfwlA/o.jpg", "is_closed": false, "url": "https://www.yelp.com/biz/alcatraz-cruises-san-francsico?adjust_creative=0T9f6kHMnzQCXJKBQD97qw&utm_campaign=yelp_api_v3&utm_medium=api_v3_business_search&utm_source=0T9f6kHMnzQCXJKBQD97qw", "review_count": 790, "categories": [{"alias": "tours", "title": "Tours"}, {"alias": "boatcharters", "title": "Boat Charters"}, {"alias": "eventplanning", "title": "Party & Event Planning"}], "rating": 4.5, "coordinates": {"latitude": 37.8065290150772, "longitude": -122.404576285211}, "transactions": [], "location": {"address1": "Alcatraz Landing Pier 33", "address2": "", "address3": "", "city": "San Francsico", "zip_code": "94111", "country": "US", "state": "CA", "display_address": ["Alcatraz Landing Pier 33", "San Francsico, CA 94111"]}, "phone": "+14159817625", "display_phone": "(415) 981-7625", "distance": 4068.8925517259995}], "total": 10, "region": {"center": {"latitude": 37.772667, "longitude": -122.387032}}}