{"businesses": [{"id": "blush-san-francisco", "name": "Blush!", "image_url": "https://s3-media4.fl.yelpcdn.com/bphoto/-ufwgrI-OYepoQ1JuYf5cw/o.jpg", "is_closed": false, "url": "https://www.yelp.com/biz/blush-san-francisco?adjust_creative=0T9f6kHMnzQCXJKBQD97qw&utm_campaign=yelp_api_v3&utm_medium=api_v3_business_search&utm_source=0T9f6kHMnzQCXJKBQD97qw", "review_count": 248, "categories": [{"alias": "wine_bars", "title": "Wine Bars"}, {"alias": "french", "title": "French"}], "rating": 4.0, "coordinates": {"latitude": 37.7611215412617, "longitude": -122.435081228614}, "transactions": [], "price": "$$", "location": {"address1": "476 Castro St", "address2": "", "address3": "", "city": "San Francisco", "zip_code": "94114", "country": "US", "state": "CA", "display_address": ["476 Castro St", "San Francisco, CA 94114"]}, "phone": "+14155580893", "display_phone": "(415) 558-0893", "distance": 11.150224159101999}, {"id": "blush-school-of-makeup-san-francisco-2", "name": "Blush School Of Makeup", "image_url": "https://s3-media1.fl.yelpcdn.com/bphoto/W55NRX746PoXr8AS9t2A-Q/o.jpg", "is_closed": false, "url": "https://www.yelp.com/biz/blush-school-of-makeup-san-francisco-2?adjust_creative=0T9f6kHMnzQCXJKBQD97qw&utm_campaign=yelp_api_v3&utm_medium=api_v3_business_search&utm_source=0T9f6kHMnzQCXJKBQD97qw", "review_count": 29, "categories": [{"alias": "cosmetology_schools", "title": "Cosmetology Schools"}], "rating": 5.0, "coordinates": {"latitude": 37.7939879, "longitude": -122.3949541}, "transactions": [], "location": {"address1": "One Embarcadero Cntr", "address2": "Ste R-1206", "address3": "", "city": "San Francisco", "zip_code": "94111", "country": "US", "state": "CA", "display_address": ["One Embarcadero Cntr", "Ste R-1206", "San Francisco, CA 94111"]}, "phone": "+14153571117", "display_phone": "(415) 357-1117", "distance": 5072.932579879999}, {"id": "blush-bar-san-francisco", "name": "Blush Bar", "image_url": "https://s3-media3.fl.yelpcdn.com/bphoto/hxhOEIykKxGAhshNi2x5jA/o.jpg", "is_closed": true, "url": "https://www.yelp.com/biz/blush-bar-san-francisco?adjust_creative=0T9f6kHMnzQCXJKBQD97qw&utm_campaign=yelp_api_v3&utm_medium=api_v3_business_search&utm_source=0T9f6kHMnzQCXJKBQD97qw", "review_count": 9, "categories": [{"alias": "makeupartists", "title": "Makeup Artists"}], "rating": 5.0, "coordinates": {"latitude": 37.7731018066406, "longitude": -122.411277770996}, "transactions": [], "location": {"address1": "", "address2": "", "address3": "", "city": "San Francisco", "zip_code": "94103", "country": "US", "state": "CA", "display_address": ["San Francisco, CA 94103"]}, "phone": "+14158570714", "display_phone": "(415) 857-0714", "distance": 2552.7880552859997}, {"id": "blush-skin-care-san-francisco", "name": "Blush Skin Care", "image_url": "https://s3-media4.fl.yelpcdn.com/bphoto/zDb_jaABFF_a_WxF1I_7Zg/o.jpg", "is_closed": false, "url": "https://www.yelp.com/biz/blush-skin-care-san-francisco?adjust_creative=0T9f6kHMnzQCXJKBQD97qw&utm_campaign=yelp_api_v3&utm_medium=api_v3_business_search&utm_source=0T9f6kHMnzQCXJKBQD97qw", "review_count": 66, "categories": [{"alias": "skincare", "title": "Skin Care"}, {"alias": "waxing", "title": "Waxing"}], "rating": 4.5, "coordinates": {"latitude": 37.788357, "longitude": -122.424394}, "transactions": [], "price": "$$", "location": {"address1": "1640 Bush St", "address2": "", "address3": null, "city": "San Francisco", "zip_code": "94109", "country": "US", "state": "CA", "display_address": ["1640 Bush St", "San Francisco, CA 94109"]}, "phone": "+14158062631", "display_phone": "(415) 806-2631", "distance": 3162.047003532}, {"id": "poesia-san-francisco", "name": "Poesia", "image_url": "https://s3-media3.fl.yelpcdn.com/bphoto/fZTBJVDwc4q7EkJ7BXP9xw/o.jpg", "is_closed": false, "url": "https://www.yelp.com/biz/poesia-san-francisco?adjust_creative=0T9f6kHMnzQCXJKBQD97qw&utm_campaign=yelp_api_v3&utm_medium=api_v3_business_search&utm_source=0T9f6kHMnzQCXJKBQD97qw", "review_count": 670, "categories": [{"alias": "italian", "title": "Italian"}, {"alias": "bars", "title": "Bars"}], "rating": 4.0, "coordinates": {"latitude": 37.76115, "longitude": -122.43431}, "transactions": ["pickup"], "price": "$$$", "location": {"address1": "4072 18th St", "address2": "", "address3": "", "city": "San Francisco", "zip_code": "94114", "country": "US", "state": "CA", "display_address": ["4072 18th St", "San Francisco, CA 94114"]}, "phone": "+14152529325", "display_phone": "(415) 252-9325", "distance": 73.54696674719999}, {"id": "make-up-by-mark-san-francisco", "name": "Make-up By Mark", "image_url": "https://s3-media3.fl.yelpcdn.com/bphoto/meijeMSaFs0Ey2oUCkj1kA/o.jpg", "is_closed": false, "url": "https://www.yelp.com/biz/make-up-by-mark-san-francisco?adjust_creative=0T9f6kHMnzQCXJKBQD97qw&utm_campaign=yelp_api_v3&utm_medium=api_v3_business_search&utm_source=0T9f6kHMnzQCXJKBQD97qw", "review_count": 18, "categories": [{"alias": "makeupartists", "title": "Makeup Artists"}], "rating": 5.0, "coordinates": {"latitude": 37.76406660676, "longitude": -122.433472573757}, "transactions": [], "price": "$$", "location": {"address1": "2306 Market St", "address2": null, "address3": "", "city": "San Francisco", "zip_code": "94114", "country": "US", "state": "CA", "display_address": ["2306 Market St", "San Francisco, CA 94114"]}, "phone": "+15105514886", "display_phone": "(510) 551-4886", "distance": 365.81957429539995}, {"id": "storks-skin-therapy-san-francisco-3", "name": "Stork's Skin Therapy", "image_url": "https://s3-media2.fl.yelpcdn.com/bphoto/LdgVLkp_l8F-gD7ApFDY3g/o.jpg", "is_closed": false, "url": "https://www.yelp.com/biz/storks-skin-therapy-san-francisco-3?adjust_creative=0T9f6kHMnzQCXJKBQD97qw&utm_campaign=yelp_api_v3&utm_medium=api_v3_business_search&utm_source=0T9f6kHMnzQCXJKBQD97qw", "review_count": 105, "categories": [{"alias": "skincare", "title": "Skin Care"}, {"alias": "hairremoval", "title": "Hair Removal"}], "rating": 5.0, "coordinates": {"latitude": 37.758837, "longitude": -122.419665}, "transactions": [], "price": "$$", "location": {"address1": "3520 20th St", "address2": "Ste C", "address3": "", "city": "San Francisco", "zip_code": "94110", "country": "US", "state": "CA", "display_address": ["3520 20th St", "Ste C", "San Francisco, CA 94110"]}, "phone": "+14158640447", "display_phone": "(415) 864-0447", "distance": 1382.138689622}, {"id": "the-floral-loft-san-francisco", "name": "The Floral Loft", "image_url": "https://s3-media1.fl.yelpcdn.com/bphoto/GxFYluqXwXVK9S8htUEtYQ/o.jpg", "is_closed": false, "url": "https://www.yelp.com/biz/the-floral-loft-san-francisco?adjust_creative=0T9f6kHMnzQCXJKBQD97qw&utm_campaign=yelp_api_v3&utm_medium=api_v3_business_search&utm_source=0T9f6kHMnzQCXJKBQD97qw", "review_count": 76, "categories": [{"alias": "florists", "title": "Florists"}, {"alias": "bridal", "title": "Bridal"}], "rating": 5.0, "coordinates": {"latitude": 37.7737099, "longitude": -122.4472872}, "transactions": [], "price": "$$", "location": {"address1": "1871 Hayes St", "address2": null, "address3": "", "city": "San Francisco", "zip_code": "94117", "country": "US", "state": "CA", "display_address": ["1871 Hayes St", "San Francisco, CA 94117"]}, "phone": "+14157963435", "display_phone": "(415) 796-3435", "distance": 1755.163423938}, {"id": "fx-by-jess-san-francisco", "name": "FX By Jess", "image_url": "https://s3-media4.fl.yelpcdn.com/bphoto/bgb0GGXNMM5mIeXiL021zA/o.jpg", "is_closed": false, "url": "https://www.yelp.com/biz/fx-by-jess-san-francisco?adjust_creative=0T9f6kHMnzQCXJKBQD97qw&utm_campaign=yelp_api_v3&utm_medium=api_v3_business_search&utm_source=0T9f6kHMnzQCXJKBQD97qw", "review_count": 5, "categories": [{"alias": "makeupartists", "title": "Makeup Artists"}], "rating": 5.0, "coordinates": {"latitude": null, "longitude": null}, "transactions": [], "location": {"address1": null, "address2": null, "address3": "", "city": "San Francisco", "zip_code": "", "country": "US", "state": "CA", "display_address": ["San Francisco, CA"]}, "phone": "", "display_phone": "", "distance": 2056.0007297519996}, {"id": "arisbel-pineda-makeup-san-francisco", "name": "Arisbel Pineda Makeup", "image_url": "https://s3-media3.fl.yelpcdn.com/bphoto/W9aqXfPyV_AGuyjeM7i_4g/o.jpg", "is_closed": false, "url": "https://www.yelp.com/biz/arisbel-pineda-makeup-san-francisco?adjust_creative=0T9f6kHMnzQCXJKBQD97qw&utm_campaign=yelp_api_v3&utm_medium=api_v3_business_search&utm_source=0T9f6kHMnzQCXJKBQD97qw", "review_count": 5, "categories": [{"alias": "makeupartists", "title": "Makeup Artists"}, {"alias": "hairstylists", "title": "Hair Stylists"}], "rating": 5.0, "coordinates": {"latitude": 37.777286058681, "longitude": -122.414499117187}, "transactions": [], "price": "$$", "location": {"address1": "", "address2": null, "address3": "", "city": "San Francisco", "zip_code": "94105", "country": "US", "state": "CA", "display_address": ["San Francisco, CA 94105"]}, "phone": "+15104693415", "display_phone": "(510) 469-3415", "distance": 2544.59748029}, {"id": "the-armory-club-san-francisco-2", "name": "The Armory Club", "image_url": "https://s3-media1.fl.yelpcdn.com/bphoto/7g6vaMJ86efgMaKWX9Ar4w/o.jpg", "is_closed": false, "url": "https://www.yelp.com/biz/the-armory-club-san-francisco-2?adjust_creative=0T9f6kHMnzQCXJKBQD97qw&utm_campaign=yelp_api_v3&utm_medium=api_v3_business_search&utm_source=0T9f6kHMnzQCXJKBQD97qw", "review_count": 233, "categories": [{"alias": "bars", "title": "Bars"}], "rating": 4.0, "coordinates": {"latitude": 37.7683950148148, "longitude": -122.41984505086}, "transactions": [], "price": "$$", "location": {"address1": "1799 Mission St", "address2": "", "address3": "", "city": "San Francisco", "zip_code": "94103", "country": "US", "state": "CA", "display_address": ["1799 Mission St", "San Francisco, CA 94103"]}, "phone": "+14154315300", "display_phone": "(415) 431-5300", "distance": 1560.737288264}, {"id": "starbelly-san-francisco", "name": "Starbelly", "image_url": "https://s3-media1.fl.yelpcdn.com/bphoto/aDxnEOjtXlgPM6m2oLw8pA/o.jpg", "is_closed": false, "url": "https://www.yelp.com/biz/starbelly-san-francisco?adjust_creative=0T9f6kHMnzQCXJKBQD97qw&utm_campaign=yelp_api_v3&utm_medium=api_v3_business_search&utm_source=0T9f6kHMnzQCXJKBQD97qw", "review_count": 1465, "categories": [{"alias": "newamerican", "title": "American (New)"}, {"alias": "comfortfood", "title": "Comfort Food"}, {"alias": "breakfast_brunch", "title": "Breakfast & Brunch"}], "rating": 3.5, "coordinates": {"latitude": 37.764196421676, "longitude": -122.43258136227}, "transactions": [], "price": "$$", "location": {"address1": "3583 16th St", "address2": "", "address3": "", "city": "San Francisco", "zip_code": "94114", "country": "US", "state": "CA", "display_address": ["3583 16th St", "San Francisco, CA 94114"]}, "phone": "+14152527500", "display_phone": "(415) 252-7500", "distance": 399.46683425199996}, {"id": "makeup-by-stacy-mcclure-san-francisco", "name": "Makeup by Stacy McClure", "image_url": "https://s3-media3.fl.yelpcdn.com/bphoto/m-WVTMzFmFW9gdrQW7iTBg/o.jpg", "is_closed": false, "url": "https://www.yelp.com/biz/makeup-by-stacy-mcclure-san-francisco?adjust_creative=0T9f6kHMnzQCXJKBQD97qw&utm_campaign=yelp_api_v3&utm_medium=api_v3_business_search&utm_source=0T9f6kHMnzQCXJKBQD97qw", "review_count": 95, "categories": [{"alias": "makeupartists", "title": "Makeup Artists"}], "rating": 5.0, "coordinates": {"latitude": 37.7497024536133, "longitude": -122.415405273438}, "transactions": [], "price": "$$$", "location": {"address1": "", "address2": "", "address3": "", "city": "San Francisco", "zip_code": "94110", "country": "US", "state": "CA", "display_address": ["San Francisco, CA 94110"]}, "phone": "+14153770855", "display_phone": "(415) 377-0855", "distance": 2030.532602384}, {"id": "me-and-tasty-san-francisco", "name": "Me & Tasty", "image_url": "https://s3-media4.fl.yelpcdn.com/bphoto/gzfyAHmvKIgJoo0bKpk80w/o.jpg", "is_closed": false, "url": "https://www.yelp.com/biz/me-and-tasty-san-francisco?adjust_creative=0T9f6kHMnzQCXJKBQD97qw&utm_campaign=yelp_api_v3&utm_medium=api_v3_business_search&utm_source=0T9f6kHMnzQCXJKBQD97qw", "review_count": 65, "categories": [{"alias": "thai", "title": "Thai"}, {"alias": "newamerican", "title": "American (New)"}, {"alias": "asianfusion", "title": "Asian Fusion"}], "rating": 4.0, "coordinates": {"latitude": 37.762743, "longitude": -122.434371}, "transactions": ["pickup"], "price": "$$", "location": {"address1": "3970 17th St", "address2": "", "address3": null, "city": "San Francisco", "zip_code": "94114", "country": "US", "state": "CA", "display_address": ["3970 17th St", "San Francisco, CA 94114"]}, "phone": "+14159238498", "display_phone": "(415) 923-8498", "distance": 182.4300831272}, {"id": "hair-and-makeup-by-jenn-hom-san-francisco", "name": "Hair & Makeup By Jenn Hom", "image_url": "https://s3-media4.fl.yelpcdn.com/bphoto/BgxTKNKtvipVrpYxNzb1uQ/o.jpg", "is_closed": false, "url": "https://www.yelp.com/biz/hair-and-makeup-by-jenn-hom-san-francisco?adjust_creative=0T9f6kHMnzQCXJKBQD97qw&utm_campaign=yelp_api_v3&utm_medium=api_v3_business_search&utm_source=0T9f6kHMnzQCXJKBQD97qw", "review_count": 32, "categories": [{"alias": "makeupartists", "title": "Makeup Artists"}, {"alias": "hairstylists", "title": "Hair Stylists"}], "rating": 5.0, "coordinates": {"latitude": 37.7771186828613, "longitude": -122.419639587402}, "transactions": [], "price": "$$", "location": {"address1": "", "address2": "", "address3": "", "city": "San Francisco", "zip_code": "", "country": "US", "state": "CA", "display_address": ["San Francisco, CA"]}, "phone": "+14158231337", "display_phone": "(415) 823-1337", "distance": 2056.0007297519996}, {"id": "rita-nguyen-san-francisco", "name": "Rita Nguyen", "image_url": "https://s3-media2.fl.yelpcdn.com/bphoto/kMQTr-3eCWpfwU9qC8UTRg/o.jpg", "is_closed": false, "url": "https://www.yelp.com/biz/rita-nguyen-san-francisco?adjust_creative=0T9f6kHMnzQCXJKBQD97qw&utm_campaign=yelp_api_v3&utm_medium=api_v3_business_search&utm_source=0T9f6kHMnzQCXJKBQD97qw", "review_count": 22, "categories": [{"alias": "makeupartists", "title": "Makeup Artists"}], "rating": 5.0, "coordinates": {"latitude": null, "longitude": null}, "transactions": [], "price": "$$", "location": {"address1": "", "address2": "", "address3": "", "city": "San Francisco", "zip_code": "", "country": "US", "state": "CA", "display_address": ["San Francisco, CA"]}, "phone": "+16198073931", "display_phone": "(619) 807-3931", "distance": 2056.0007297519996}, {"id": "freelance-makeup-artist-san-francisco", "name": "Emily Rose - Freelance Makeup Artist", "image_url": "https://s3-media3.fl.yelpcdn.com/bphoto/3fUrkw4rOXII5IRBaDplwg/o.jpg", "is_closed": false, "url": "https://www.yelp.com/biz/freelance-makeup-artist-san-francisco?adjust_creative=0T9f6kHMnzQCXJKBQD97qw&utm_campaign=yelp_api_v3&utm_medium=api_v3_business_search&utm_source=0T9f6kHMnzQCXJKBQD97qw", "review_count": 1, "categories": [{"alias": "makeupartists", "title": "Makeup Artists"}], "rating": 5.0, "coordinates": {"latitude": 37.7726402, "longitude": -122.4099154}, "transactions": [], "location": {"address1": "", "address2": null, "address3": "", "city": "San Francisco", "zip_code": "94103", "country": "US", "state": "CA", "display_address": ["San Francisco, CA 94103"]}, "phone": "+15304140314", "display_phone": "(530) 414-0314", "distance": 2552.7880552859997}, {"id": "swirl-on-castro-san-francisco", "name": "Swirl on Castro", "image_url": "https://s3-media3.fl.yelpcdn.com/bphoto/wuk3N4qb9XyS6f7WRuxEtw/o.jpg", "is_closed": false, "url": "https://www.yelp.com/biz/swirl-on-castro-san-francisco?adjust_creative=0T9f6kHMnzQCXJKBQD97qw&utm_campaign=yelp_api_v3&utm_medium=api_v3_business_search&utm_source=0T9f6kHMnzQCXJKBQD97qw", "review_count": 101, "categories": [{"alias": "beer_and_wine", "title": "Beer, Wine & Spirits"}, {"alias": "wine_bars", "title": "Wine Bars"}], "rating": 4.5, "coordinates": {"latitude": 37.75972, "longitude": -122.43525}, "transactions": [], "price": "$$", "location": {"address1": "572 Castro St", "address2": "", "address3": "", "city": "San Francisco", "zip_code": "94114", "country": "US", "state": "CA", "display_address": ["572 Castro St", "San Francisco, CA 94114"]}, "phone": "+14158642262", "display_phone": "(415) 864-2262", "distance": 162.52665114419997}, {"id": "bobbi-brown-makeup-counter-san-francisco", "name": "Bobbi Brown Makeup Counter", "image_url": "", "is_closed": false, "url": "https://www.yelp.com/biz/bobbi-brown-makeup-counter-san-francisco?adjust_creative=0T9f6kHMnzQCXJKBQD97qw&utm_campaign=yelp_api_v3&utm_medium=api_v3_business_search&utm_source=0T9f6kHMnzQCXJKBQD97qw", "review_count": 4, "categories": [{"alias": "cosmetics", "title": "Cosmetics & Beauty Supply"}], "rating": 4.5, "coordinates": {"latitude": 37.78394, "longitude": -122.40715}, "transactions": [], "price": "$$$", "location": {"address1": "865 Market St", "address2": "", "address3": "Bloomingdales, Westfield Shopping Ctr", "city": "San Francisco", "zip_code": "94114", "country": "US", "state": "CA", "display_address": ["865 Market St", "Bloomingdales, Westfield Shopping Ctr", "San Francisco, CA 94114"]}, "phone": "", "display_phone": "", "distance": 605.07723919}, {"id": "dianes-nail-care-san-francisco-3", "name": "Diane's Nail Care", "image_url": "https://s3-media1.fl.yelpcdn.com/bphoto/_WlOnAg7m1T5cQUuYrdC2A/o.jpg", "is_closed": false, "url": "https://www.yelp.com/biz/dianes-nail-care-san-francisco-3?adjust_creative=0T9f6kHMnzQCXJKBQD97qw&utm_campaign=yelp_api_v3&utm_medium=api_v3_business_search&utm_source=0T9f6kHMnzQCXJKBQD97qw", "review_count": 101, "categories": [{"alias": "othersalons", "title": "Nail Salons"}, {"alias": "hairremoval", "title": "Hair Removal"}], "rating": 4.0, "coordinates": {"latitude": 37.77162, "longitude": -122.43339}, "transactions": [], "price": "$", "location": {"address1": "681 Haight St", "address2": "", "address3": "", "city": "San Francisco", "zip_code": "94117", "country": "US", "state": "CA", "display_address": ["681 Haight St", "San Francisco, CA 94117"]}, "phone": "+14156211220", "display_phone": "(415) 621-1220", "distance": 1162.669453274}], "total": 447, "region": {"center": {"latitude": 37.761209, "longitude": -122.42948622746998}}}