{"businesses": [{"id": "bottom-of-the-hill-san-francisco", "name": "Bottom of the Hill", "image_url": "https://s3-media3.fl.yelpcdn.com/bphoto/iFC0kml8LH94rhRlJdJzsA/o.jpg", "is_closed": false, "url": "https://www.yelp.com/biz/bottom-of-the-hill-san-francisco?adjust_creative=0T9f6kHMnzQCXJKBQD97qw&utm_campaign=yelp_api_v3&utm_medium=api_v3_business_search&utm_source=0T9f6kHMnzQCXJKBQD97qw", "review_count": 537, "categories": [{"alias": "musicvenues", "title": "Music Venues"}], "rating": 4.5, "coordinates": {"latitude": 37.7649199, "longitude": -122.39641}, "transactions": [], "price": "$", "location": {"address1": "1233 17th St", "address2": "", "address3": "", "city": "San Francisco", "zip_code": "94107", "country": "US", "state": "CA", "display_address": ["1233 17th St", "San Francisco, CA 94107"]}, "phone": "+14156264455", "display_phone": "(415) 626-4455", "distance": 29.004314056599995}, {"id": "thee-parkside-san-francisco", "name": "Thee Parkside", "image_url": "https://s3-media3.fl.yelpcdn.com/bphoto/gnFhUOaztrqyWeg3H3xoQg/o.jpg", "is_closed": false, "url": "https://www.yelp.com/biz/thee-parkside-san-francisco?adjust_creative=0T9f6kHMnzQCXJKBQD97qw&utm_campaign=yelp_api_v3&utm_medium=api_v3_business_search&utm_source=0T9f6kHMnzQCXJKBQD97qw", "review_count": 332, "categories": [{"alias": "bars", "title": "Bars"}, {"alias": "musicvenues", "title": "Music Venues"}], "rating": 4.0, "coordinates": {"latitude": 37.76516, "longitude": -122.39988}, "transactions": [], "price": "$", "location": {"address1": "1600 17th St", "address2": "", "address3": "", "city": "San Francisco", "zip_code": "94107", "country": "US", "state": "CA", "display_address": ["1600 17th St", "San Francisco, CA 94107"]}, "phone": "+14152521330", "display_phone": "(415) 252-1330", "distance": 332.03783788839996}, {"id": "connecticut-yankee-san-francisco", "name": "Connecticut Yankee", "image_url": "https://s3-media4.fl.yelpcdn.com/bphoto/d6G2M0pkxy5R3Xz77DIZ4A/o.jpg", "is_closed": false, "url": "https://www.yelp.com/biz/connecticut-yankee-san-francisco?adjust_creative=0T9f6kHMnzQCXJKBQD97qw&utm_campaign=yelp_api_v3&utm_medium=api_v3_business_search&utm_source=0T9f6kHMnzQCXJKBQD97qw", "review_count": 415, "categories": [{"alias": "sportsbars", "title": "Sports Bars"}, {"alias": "newamerican", "title": "American (New)"}], "rating": 3.5, "coordinates": {"latitude": 37.7648964, "longitude": -122.3978982}, "transactions": [], "price": "$$", "location": {"address1": "100 Connecticut St", "address2": "", "address3": "", "city": "San Francisco", "zip_code": "94107", "country": "US", "state": "CA", "display_address": ["100 Connecticut St", "San Francisco, CA 94107"]}, "phone": "+14155524440", "display_phone": "(415) 552-4440", "distance": 171.31739730639998}, {"id": "chez-maman-san-francisco-9", "name": "Chez Maman", "image_url": "https://s3-media4.fl.yelpcdn.com/bphoto/gccHe5ofFMpNyh8vmS0VSw/o.jpg", "is_closed": false, "url": "https://www.yelp.com/biz/chez-maman-san-francisco-9?adjust_creative=0T9f6kHMnzQCXJKBQD97qw&utm_campaign=yelp_api_v3&utm_medium=api_v3_business_search&utm_source=0T9f6kHMnzQCXJKBQD97qw", "review_count": 1717, "categories": [{"alias": "french", "title": "French"}, {"alias": "burgers", "title": "Burgers"}, {"alias": "creperies", "title": "Creperies"}], "rating": 4.5, "coordinates": {"latitude": 37.7624388911845, "longitude": -122.396692272318}, "transactions": [], "price": "$$", "location": {"address1": "1401 18th St", "address2": "", "address3": "", "city": "San Francisco", "zip_code": "94107", "country": "US", "state": "CA", "display_address": ["1401 18th St", "San Francisco, CA 94107"]}, "phone": "+14156559542", "display_phone": "(415) 655-9542", "distance": 301.76837337759997}, {"id": "rickshaw-stop-san-francisco", "name": "Rickshaw Stop", "image_url": "https://s3-media1.fl.yelpcdn.com/bphoto/xbNKUFn9XoZBjrsu9Iue1A/o.jpg", "is_closed": false, "url": "https://www.yelp.com/biz/rickshaw-stop-san-francisco?adjust_creative=0T9f6kHMnzQCXJKBQD97qw&utm_campaign=yelp_api_v3&utm_medium=api_v3_business_search&utm_source=0T9f6kHMnzQCXJKBQD97qw", "review_count": 501, "categories": [{"alias": "danceclubs", "title": "Dance Clubs"}, {"alias": "musicvenues", "title": "Music Venues"}], "rating": 3.5, "coordinates": {"latitude": 37.776087, "longitude": -122.420457}, "transactions": [], "price": "$$", "location": {"address1": "155 Fell St", "address2": "", "address3": "", "city": "San Francisco", "zip_code": "94102", "country": "US", "state": "CA", "display_address": ["155 Fell St", "San Francisco, CA 94102"]}, "phone": "+14158612011", "display_phone": "(415) 861-2011", "distance": 2461.429685902}, {"id": "slims-san-francisco-2", "name": "Slim's", "image_url": "https://s3-media4.fl.yelpcdn.com/bphoto/9UTYff2W-AaiUpiNnIiubw/o.jpg", "is_closed": false, "url": "https://www.yelp.com/biz/slims-san-francisco-2?adjust_creative=0T9f6kHMnzQCXJKBQD97qw&utm_campaign=yelp_api_v3&utm_medium=api_v3_business_search&utm_source=0T9f6kHMnzQCXJKBQD97qw", "review_count": 627, "categories": [{"alias": "musicvenues", "title": "Music Venues"}, {"alias": "newamerican", "title": "American (New)"}], "rating": 3.5, "coordinates": {"latitude": 37.77149, "longitude": -122.41324}, "transactions": [], "price": "$$", "location": {"address1": "333 11th St", "address2": "", "address3": "", "city": "San Francisco", "zip_code": "94103", "country": "US", "state": "CA", "display_address": ["333 11th St", "San Francisco, CA 94103"]}, "phone": "+14152550333", "display_phone": "(415) 255-0333", "distance": 1668.152686564}, {"id": "blooms-saloon-san-francisco", "name": "Blooms Saloon", "image_url": "https://s3-media4.fl.yelpcdn.com/bphoto/dNq4RoGijuf4bmZLttxXeg/o.jpg", "is_closed": false, "url": "https://www.yelp.com/biz/blooms-saloon-san-francisco?adjust_creative=0T9f6kHMnzQCXJKBQD97qw&utm_campaign=yelp_api_v3&utm_medium=api_v3_business_search&utm_source=0T9f6kHMnzQCXJKBQD97qw", "review_count": 120, "categories": [{"alias": "bars", "title": "Bars"}], "rating": 3.5, "coordinates": {"latitude": 37.7628173828125, "longitude": -122.396018981934}, "transactions": [], "price": "$", "location": {"address1": "1318 18th St", "address2": "", "address3": "", "city": "San Francisco", "zip_code": "94107", "country": "US", "state": "CA", "display_address": ["1318 18th St", "San Francisco, CA 94107"]}, "phone": "+14155526707", "display_phone": "(415) 552-6707", "distance": 256.307592217}, {"id": "ganims-market-san-francisco-3", "name": "Ganim's Market", "image_url": "https://s3-media1.fl.yelpcdn.com/bphoto/_aorfL1Hn3p7ZO8qZdY8gw/o.jpg", "is_closed": false, "url": "https://www.yelp.com/biz/ganims-market-san-francisco-3?adjust_creative=0T9f6kHMnzQCXJKBQD97qw&utm_campaign=yelp_api_v3&utm_medium=api_v3_business_search&utm_source=0T9f6kHMnzQCXJKBQD97qw", "review_count": 209, "categories": [{"alias": "burgers", "title": "Burgers"}, {"alias": "delis", "title": "Delis"}, {"alias": "mideastern", "title": "Middle Eastern"}], "rating": 4.0, "coordinates": {"latitude": 37.7625944, "longitude": -122.3940239}, "transactions": ["pickup"], "price": "$", "location": {"address1": "1135 18th St", "address2": "", "address3": "", "city": "San Francisco", "zip_code": "94107", "country": "US", "state": "CA", "display_address": ["1135 18th St", "San Francisco, CA 94107"]}, "phone": "+14152829289", "display_phone": "(415) 282-9289", "distance": 321.929315854}, {"id": "great-american-music-hall-san-francisco", "name": "Great American Music Hall", "image_url": "https://s3-media2.fl.yelpcdn.com/bphoto/kyrpS8xCkzAgxoSOPhhLjA/o.jpg", "is_closed": false, "url": "https://www.yelp.com/biz/great-american-music-hall-san-francisco?adjust_creative=0T9f6kHMnzQCXJKBQD97qw&utm_campaign=yelp_api_v3&utm_medium=api_v3_business_search&utm_source=0T9f6kHMnzQCXJKBQD97qw", "review_count": 761, "categories": [{"alias": "musicvenues", "title": "Music Venues"}, {"alias": "venues", "title": "Venues & Event Spaces"}], "rating": 4.5, "coordinates": {"latitude": 37.7848254488586, "longitude": -122.418830394745}, "transactions": [], "price": "$$", "location": {"address1": "859 O'Farrell St", "address2": "", "address3": "", "city": "San Francisco", "zip_code": "94109", "country": "US", "state": "CA", "display_address": ["859 O'Farrell St", "San Francisco, CA 94109"]}, "phone": "+14158850750", "display_phone": "(415) 885-0750", "distance": 2963.3348735699997}, {"id": "the-warfield-san-francisco-2", "name": "The Warfield", "image_url": "https://s3-media4.fl.yelpcdn.com/bphoto/TsagaZeTejwHtv4VhwbU7w/o.jpg", "is_closed": false, "url": "https://www.yelp.com/biz/the-warfield-san-francisco-2?adjust_creative=0T9f6kHMnzQCXJKBQD97qw&utm_campaign=yelp_api_v3&utm_medium=api_v3_business_search&utm_source=0T9f6kHMnzQCXJKBQD97qw", "review_count": 765, "categories": [{"alias": "musicvenues", "title": "Music Venues"}], "rating": 3.5, "coordinates": {"latitude": 37.7827320198563, "longitude": -122.410151891996}, "transactions": [], "price": "$$", "location": {"address1": "982 Market St", "address2": "", "address3": "", "city": "San Francisco", "zip_code": "94102", "country": "US", "state": "CA", "display_address": ["982 Market St", "San Francisco, CA 94102"]}, "phone": "+14153450900", "display_phone": "(415) 345-0900", "distance": 2313.966344504}, {"id": "brick-and-mortar-music-hall-san-francisco-2", "name": "Brick & Mortar Music Hall", "image_url": "https://s3-media2.fl.yelpcdn.com/bphoto/dM8ZkpWAGj-7YUYsUhyv-g/o.jpg", "is_closed": false, "url": "https://www.yelp.com/biz/brick-and-mortar-music-hall-san-francisco-2?adjust_creative=0T9f6kHMnzQCXJKBQD97qw&utm_campaign=yelp_api_v3&utm_medium=api_v3_business_search&utm_source=0T9f6kHMnzQCXJKBQD97qw", "review_count": 127, "categories": [{"alias": "musicvenues", "title": "Music Venues"}], "rating": 3.0, "coordinates": {"latitude": 37.76971, "longitude": -122.42038}, "transactions": [], "price": "$$", "location": {"address1": "1710 Mission St", "address2": "", "address3": "", "city": "San Francisco", "zip_code": "94103", "country": "US", "state": "CA", "display_address": ["1710 Mission St", "San Francisco, CA 94103"]}, "phone": "+14158008782", "display_phone": "(415) 800-8782", "distance": 2192.623074108}, {"id": "sallys-restaurant-san-francisco", "name": "Sally's Restaurant", "image_url": "https://s3-media3.fl.yelpcdn.com/bphoto/KFMH8E1MJk-oFgzXFL1fzg/o.jpg", "is_closed": false, "url": "https://www.yelp.com/biz/sallys-restaurant-san-francisco?adjust_creative=0T9f6kHMnzQCXJKBQD97qw&utm_campaign=yelp_api_v3&utm_medium=api_v3_business_search&utm_source=0T9f6kHMnzQCXJKBQD97qw", "review_count": 465, "categories": [{"alias": "breakfast_brunch", "title": "Breakfast & Brunch"}, {"alias": "delis", "title": "Delis"}, {"alias": "tradamerican", "title": "American (Traditional)"}], "rating": 3.5, "coordinates": {"latitude": 37.765728, "longitude": -122.401816}, "transactions": ["pickup"], "price": "$$", "location": {"address1": "300 De Haro St", "address2": "Ste 332", "address3": "", "city": "San Francisco", "zip_code": "94103", "country": "US", "state": "CA", "display_address": ["300 De Haro St", "Ste 332", "San Francisco, CA 94103"]}, "phone": "+14156266006", "display_phone": "(415) 626-6006", "distance": 504.21587803999995}, {"id": "hotel-utah-saloon-san-francisco", "name": "Hotel Utah Saloon", "image_url": "https://s3-media2.fl.yelpcdn.com/bphoto/3qYZb_0x9NaUSHafh6FRuw/o.jpg", "is_closed": false, "url": "https://www.yelp.com/biz/hotel-utah-saloon-san-francisco?adjust_creative=0T9f6kHMnzQCXJKBQD97qw&utm_campaign=yelp_api_v3&utm_medium=api_v3_business_search&utm_source=0T9f6kHMnzQCXJKBQD97qw", "review_count": 540, "categories": [{"alias": "musicvenues", "title": "Music Venues"}, {"alias": "bars", "title": "Bars"}, {"alias": "tradamerican", "title": "American (Traditional)"}], "rating": 3.5, "coordinates": {"latitude": 37.7792883337397, "longitude": -122.398155927658}, "transactions": [], "price": "$$", "location": {"address1": "500 4th St", "address2": "", "address3": "", "city": "San Francisco", "zip_code": "94107", "country": "US", "state": "CA", "display_address": ["500 4th St", "San Francisco, CA 94107"]}, "phone": "+14155466300", "display_phone": "(415) 546-6300", "distance": 1585.796482338}, {"id": "just-for-you-cafe-san-francisco", "name": "Just For You Cafe", "image_url": "https://s3-media2.fl.yelpcdn.com/bphoto/Uv4IYsP08ALQlEv9h9o9ZA/o.jpg", "is_closed": false, "url": "https://www.yelp.com/biz/just-for-you-cafe-san-francisco?adjust_creative=0T9f6kHMnzQCXJKBQD97qw&utm_campaign=yelp_api_v3&utm_medium=api_v3_business_search&utm_source=0T9f6kHMnzQCXJKBQD97qw", "review_count": 1237, "categories": [{"alias": "tradamerican", "title": "American (Traditional)"}, {"alias": "breakfast_brunch", "title": "Breakfast & Brunch"}, {"alias": "sandwiches", "title": "Sandwiches"}], "rating": 4.0, "coordinates": {"latitude": 37.7579585099187, "longitude": -122.388854026794}, "transactions": [], "price": "$$", "location": {"address1": "732 22nd St", "address2": "", "address3": "", "city": "San Francisco", "zip_code": "94107", "country": "US", "state": "CA", "display_address": ["732 22nd St", "San Francisco, CA 94107"]}, "phone": "+14156473033", "display_phone": "(415) 647-3033", "distance": 1021.406657495}, {"id": "the-chapel-san-francisco", "name": "The Chapel", "image_url": "https://s3-media4.fl.yelpcdn.com/bphoto/mOkNOUQGNefSVTqcLB4s-w/o.jpg", "is_closed": false, "url": "https://www.yelp.com/biz/the-chapel-san-francisco?adjust_creative=0T9f6kHMnzQCXJKBQD97qw&utm_campaign=yelp_api_v3&utm_medium=api_v3_business_search&utm_source=0T9f6kHMnzQCXJKBQD97qw", "review_count": 224, "categories": [{"alias": "musicvenues", "title": "Music Venues"}, {"alias": "bars", "title": "Bars"}, {"alias": "venues", "title": "Venues & Event Spaces"}], "rating": 3.5, "coordinates": {"latitude": 37.7605209350586, "longitude": -122.421188354492}, "transactions": [], "price": "$$", "location": {"address1": "777 Valencia St", "address2": "", "address3": "", "city": "San Francisco", "zip_code": "94110", "country": "US", "state": "CA", "display_address": ["777 Valencia St", "San Francisco, CA 94110"]}, "phone": "+14155515157", "display_phone": "(415) 551-5157", "distance": 2260.9941137339997}, {"id": "il-pirata-san-francisco", "name": "Il Pirata", "image_url": "https://s3-media4.fl.yelpcdn.com/bphoto/JIRHiiWSiylMjVfi8dO4cQ/o.jpg", "is_closed": false, "url": "https://www.yelp.com/biz/il-pirata-san-francisco?adjust_creative=0T9f6kHMnzQCXJKBQD97qw&utm_campaign=yelp_api_v3&utm_medium=api_v3_business_search&utm_source=0T9f6kHMnzQCXJKBQD97qw", "review_count": 130, "categories": [{"alias": "divebars", "title": "Dive Bars"}, {"alias": "danceclubs", "title": "Dance Clubs"}], "rating": 3.5, "coordinates": {"latitude": 37.76563, "longitude": -122.40684}, "transactions": [], "price": "$$", "location": {"address1": "2007 16th St", "address2": "", "address3": "", "city": "San Francisco", "zip_code": "94103", "country": "US", "state": "CA", "display_address": ["2007 16th St", "San Francisco, CA 94103"]}, "phone": "+14156262626", "display_phone": "(415) 626-2626", "distance": 940.185762172}, {"id": "john-bensons-big-white-bus-san-francisco", "name": "John Benson's Big White Bus", "image_url": "", "is_closed": false, "url": "https://www.yelp.com/biz/john-bensons-big-white-bus-san-francisco?adjust_creative=0T9f6kHMnzQCXJKBQD97qw&utm_campaign=yelp_api_v3&utm_medium=api_v3_business_search&utm_source=0T9f6kHMnzQCXJKBQD97qw", "review_count": 2, "categories": [{"alias": "localflavor", "title": "Local Flavor"}, {"alias": "musicvenues", "title": "Music Venues"}], "rating": 5.0, "coordinates": {"latitude": 37.56863, "longitude": -122.04042}, "transactions": [], "location": {"address1": "Mobile", "address2": "", "address3": "", "city": "San Francisco", "zip_code": "", "country": "US", "state": "CA", "display_address": ["Mobile", "San Francisco, CA"]}, "phone": "", "display_phone": "", "distance": 2319.2850522699996}, {"id": "the-regency-ballroom-san-francisco", "name": "The Regency Ballroom", "image_url": "https://s3-media1.fl.yelpcdn.com/bphoto/BKSShYAtym14qWEuK7iafw/o.jpg", "is_closed": false, "url": "https://www.yelp.com/biz/the-regency-ballroom-san-francisco?adjust_creative=0T9f6kHMnzQCXJKBQD97qw&utm_campaign=yelp_api_v3&utm_medium=api_v3_business_search&utm_source=0T9f6kHMnzQCXJKBQD97qw", "review_count": 434, "categories": [{"alias": "musicvenues", "title": "Music Venues"}], "rating": 3.0, "coordinates": {"latitude": 37.78785, "longitude": -122.42138}, "transactions": [], "price": "$$", "location": {"address1": "1300 Van Ness Ave", "address2": "", "address3": "", "city": "San Francisco", "zip_code": "94109", "country": "US", "state": "CA", "display_address": ["1300 Van Ness Ave", "San Francisco, CA 94109"]}, "phone": "+14156735716", "display_phone": "(415) 673-5716", "distance": 3368.24723158}, {"id": "terra-gallery-and-event-venue-san-francisco", "name": "Terra Gallery & Event Venue", "image_url": "https://s3-media2.fl.yelpcdn.com/bphoto/WURreV32mPtw_vLgp_PLvg/o.jpg", "is_closed": false, "url": "https://www.yelp.com/biz/terra-gallery-and-event-venue-san-francisco?adjust_creative=0T9f6kHMnzQCXJKBQD97qw&utm_campaign=yelp_api_v3&utm_medium=api_v3_business_search&utm_source=0T9f6kHMnzQCXJKBQD97qw", "review_count": 112, "categories": [{"alias": "galleries", "title": "Art Galleries"}, {"alias": "venues", "title": "Venues & Event Spaces"}, {"alias": "musicvenues", "title": "Music Venues"}], "rating": 4.0, "coordinates": {"latitude": 37.7854995727539, "longitude": -122.393005371094}, "transactions": [], "price": "$$$", "location": {"address1": "511 Harrison St", "address2": "", "address3": "", "city": "San Francisco", "zip_code": "94105", "country": "US", "state": "CA", "display_address": ["511 Harrison St", "San Francisco, CA 94105"]}, "phone": "+14158961234", "display_phone": "(415) 896-1234", "distance": 2282.978824672}, {"id": "rite-spot-cafe-san-francisco", "name": "Rite Spot Cafe", "image_url": "https://s3-media1.fl.yelpcdn.com/bphoto/0kqFHgSQ4aWHeg4akRmrdg/o.jpg", "is_closed": false, "url": "https://www.yelp.com/biz/rite-spot-cafe-san-francisco?adjust_creative=0T9f6kHMnzQCXJKBQD97qw&utm_campaign=yelp_api_v3&utm_medium=api_v3_business_search&utm_source=0T9f6kHMnzQCXJKBQD97qw", "review_count": 122, "categories": [{"alias": "bars", "title": "Bars"}, {"alias": "burgers", "title": "Burgers"}, {"alias": "musicvenues", "title": "Music Venues"}], "rating": 3.5, "coordinates": {"latitude": 37.7638299018145, "longitude": -122.415105476975}, "transactions": [], "price": "$", "location": {"address1": "2099 Folsom St", "address2": "", "address3": "", "city": "San Francisco", "zip_code": "94110", "country": "US", "state": "CA", "display_address": ["2099 Folsom St", "San Francisco, CA 94110"]}, "phone": "+14155526066", "display_phone": "(415) 552-6066", "distance": 1674.0560675519998}], "total": 38, "region": {"center": {"latitude": 37.765117, "longitude": -122.396135}}}