{"businesses": [{"id": "fifty-fifty-coffee-and-tea-san-francisco", "name": "Fifty / Fifty Coffee and Tea", "image_url": "https://s3-media4.fl.yelpcdn.com/bphoto/Fb_jTjFcUra0rmVlC6i7Xw/o.jpg", "is_closed": false, "url": "https://www.yelp.com/biz/fifty-fifty-coffee-and-tea-san-francisco?adjust_creative=0T9f6kHMnzQCXJKBQD97qw&utm_campaign=yelp_api_v3&utm_medium=api_v3_business_search&utm_source=0T9f6kHMnzQCXJKBQD97qw", "review_count": 338, "categories": [{"alias": "coffee", "title": "Coffee & Tea"}], "rating": 4.0, "coordinates": {"latitude": 37.7814293, "longitude": -122.4529495}, "transactions": [], "price": "$", "location": {"address1": "3157 Geary Blvd", "address2": "", "address3": "", "city": "San Francisco", "zip_code": "94118", "country": "US", "state": "CA", "display_address": ["3157 Geary Blvd", "San Francisco, CA 94118"]}, "phone": "+14156848886", "display_phone": "(415) 684-8886", "distance": 2709.7490776279997}, {"id": "one-fifty-parker-avenue-school-san-francisco", "name": "One Fifty Parker Avenue School", "image_url": "https://s3-media2.fl.yelpcdn.com/bphoto/e-3MyT8m9seQxLflEhiIgA/o.jpg", "is_closed": false, "url": "https://www.yelp.com/biz/one-fifty-parker-avenue-school-san-francisco?adjust_creative=0T9f6kHMnzQCXJKBQD97qw&utm_campaign=yelp_api_v3&utm_medium=api_v3_business_search&utm_source=0T9f6kHMnzQCXJKBQD97qw", "review_count": 3, "categories": [{"alias": "preschools", "title": "Preschools"}], "rating": 5.0, "coordinates": {"latitude": 37.7828178405762, "longitude": -122.4541015625}, "transactions": [], "location": {"address1": "150 Parker Ave", "address2": "", "address3": "", "city": "San Francisco", "zip_code": "94118", "country": "US", "state": "CA", "display_address": ["150 Parker Ave", "San Francisco, CA 94118"]}, "phone": "+14152210294", "display_phone": "(415) 221-0294", "distance": 2889.346593608}, {"id": "50-thirteenth-street-san-francisco-2", "name": "50 Thirteenth Street", "image_url": "https://s3-media4.fl.yelpcdn.com/bphoto/HAQBDMT_AA2DF_Kw0CTwmw/o.jpg", "is_closed": false, "url": "https://www.yelp.com/biz/50-thirteenth-street-san-francisco-2?adjust_creative=0T9f6kHMnzQCXJKBQD97qw&utm_campaign=yelp_api_v3&utm_medium=api_v3_business_search&utm_source=0T9f6kHMnzQCXJKBQD97qw", "review_count": 6, "categories": [{"alias": "artsupplies", "title": "Art Supplies"}], "rating": 4.5, "coordinates": {"latitude": 37.7697007826633, "longitude": -122.414473646842}, "transactions": [], "price": "$", "location": {"address1": "50 13th St", "address2": "", "address3": "", "city": "San Francisco", "zip_code": "94103", "country": "US", "state": "CA", "display_address": ["50 13th St", "San Francisco, CA 94103"]}, "phone": "+14158610106", "display_phone": "(415) 861-0106", "distance": 2165.2010470459995}, {"id": "six-fifty-smoke-shop-daly-city-2", "name": "Six Fifty Smoke Shop", "image_url": "https://s3-media1.fl.yelpcdn.com/bphoto/29h9PeI3NDVampp1ekIVsg/o.jpg", "is_closed": false, "url": "https://www.yelp.com/biz/six-fifty-smoke-shop-daly-city-2?adjust_creative=0T9f6kHMnzQCXJKBQD97qw&utm_campaign=yelp_api_v3&utm_medium=api_v3_business_search&utm_source=0T9f6kHMnzQCXJKBQD97qw", "review_count": 14, "categories": [{"alias": "tobaccoshops", "title": "Tobacco Shops"}], "rating": 4.5, "coordinates": {"latitude": 37.6933648, "longitude": -122.4710568}, "transactions": [], "price": "$", "location": {"address1": "2394 Junipero Serra Blvd", "address2": null, "address3": "", "city": "Daly City", "zip_code": "94015", "country": "US", "state": "CA", "display_address": ["2394 Junipero Serra Blvd", "Daly City, CA 94015"]}, "phone": "+16507552650", "display_phone": "(650) 755-2650", "distance": 8102.924545976}, {"id": "50-fremont-plaza-farmers-market-san-francisco", "name": "50 Fremont Plaza Farmers Market", "image_url": "https://s3-media4.fl.yelpcdn.com/bphoto/UybI19JnaLg0gZggiItDkg/o.jpg", "is_closed": false, "url": "https://www.yelp.com/biz/50-fremont-plaza-farmers-market-san-francisco?adjust_creative=0T9f6kHMnzQCXJKBQD97qw&utm_campaign=yelp_api_v3&utm_medium=api_v3_business_search&utm_source=0T9f6kHMnzQCXJKBQD97qw", "review_count": 17, "categories": [{"alias": "farmersmarket", "title": "Farmers Market"}], "rating": 3.5, "coordinates": {"latitude": 37.790539, "longitude": -122.397568}, "transactions": [], "price": "$", "location": {"address1": "50 Fremont St", "address2": "", "address3": "", "city": "San Francisco", "zip_code": "94105", "country": "US", "state": "CA", "display_address": ["50 Fremont St", "San Francisco, CA 94105"]}, "phone": "+15102178298", "display_phone": "(510) 217-8298", "distance": 4780.2988847159995}, {"id": "50-california-street-building-san-francisco", "name": "50 California Street Building", "image_url": "https://s3-media2.fl.yelpcdn.com/bphoto/c8qvg7gIblEgQ79SsZbBNw/o.jpg", "is_closed": false, "url": "https://www.yelp.com/biz/50-california-street-building-san-francisco?adjust_creative=0T9f6kHMnzQCXJKBQD97qw&utm_campaign=yelp_api_v3&utm_medium=api_v3_business_search&utm_source=0T9f6kHMnzQCXJKBQD97qw", "review_count": 3, "categories": [{"alias": "propertymgmt", "title": "Property Management"}], "rating": 4.5, "coordinates": {"latitude": 37.7940521240234, "longitude": -122.397346496582}, "transactions": [], "location": {"address1": "50 California St", "address2": "", "address3": "", "city": "San Francisco", "zip_code": "94111", "country": "US", "state": "CA", "display_address": ["50 California St", "San Francisco, CA 94111"]}, "phone": "+14159565550", "display_phone": "(415) 956-5550", "distance": 5045.410934672}, {"id": "50-fremont-st-plaza-san-francisco", "name": "50 Fremont St Plaza", "image_url": "https://s3-media4.fl.yelpcdn.com/bphoto/viySxPBuBG1f8d_BeE37oQ/o.jpg", "is_closed": false, "url": "https://www.yelp.com/biz/50-fremont-st-plaza-san-francisco?adjust_creative=0T9f6kHMnzQCXJKBQD97qw&utm_campaign=yelp_api_v3&utm_medium=api_v3_business_search&utm_source=0T9f6kHMnzQCXJKBQD97qw", "review_count": 1, "categories": [{"alias": "parks", "title": "Parks"}], "rating": 4.0, "coordinates": {"latitude": 37.7913641, "longitude": -122.3978935}, "transactions": [], "location": {"address1": "14 Fremont St", "address2": "", "address3": "", "city": "San Francisco", "zip_code": "94105", "country": "US", "state": "CA", "display_address": ["14 Fremont St", "San Francisco, CA 94105"]}, "phone": "", "display_phone": "", "distance": 4791.154365818}, {"id": "50-on-eight-restaurant-and-lounge-san-francisco", "name": "50 on Eight Restaurant & Lounge", "image_url": "", "is_closed": false, "url": "https://www.yelp.com/biz/50-on-eight-restaurant-and-lounge-san-francisco?adjust_creative=0T9f6kHMnzQCXJKBQD97qw&utm_campaign=yelp_api_v3&utm_medium=api_v3_business_search&utm_source=0T9f6kHMnzQCXJKBQD97qw", "review_count": 2, "categories": [{"alias": "breakfast_brunch", "title": "Breakfast & Brunch"}, {"alias": "lounges", "title": "Lounges"}, {"alias": "tradamerican", "title": "American (Traditional)"}], "rating": 4.5, "coordinates": {"latitude": 37.77757, "longitude": -122.41427}, "transactions": [], "location": {"address1": "50 8th St", "address2": "", "address3": null, "city": "San Francisco", "zip_code": "94103", "country": "US", "state": "CA", "display_address": ["50 8th St", "San Francisco, CA 94103"]}, "phone": "+14156266103", "display_phone": "(415) 626-6103", "distance": 2724.3474007679997}, {"id": "50-on-eight-restaurant-san-francisco", "name": "50 on Eight Restaurant", "image_url": "https://s3-media2.fl.yelpcdn.com/bphoto/lqNJkzE6rmKnWEUm-tfdrQ/o.jpg", "is_closed": false, "url": "https://www.yelp.com/biz/50-on-eight-restaurant-san-francisco?adjust_creative=0T9f6kHMnzQCXJKBQD97qw&utm_campaign=yelp_api_v3&utm_medium=api_v3_business_search&utm_source=0T9f6kHMnzQCXJKBQD97qw", "review_count": 6, "categories": [{"alias": "tradamerican", "title": "American (Traditional)"}], "rating": 1.5, "coordinates": {"latitude": 37.7775688171387, "longitude": -122.414260864258}, "transactions": [], "price": "$$$", "location": {"address1": "50 8th St", "address2": "", "address3": "", "city": "San Francisco", "zip_code": "94103", "country": "US", "state": "CA", "display_address": ["50 8th St", "San Francisco, CA 94103"]}, "phone": "+14156266103", "display_phone": "(415) 626-6103", "distance": 2720.423347046}, {"id": "50-fremont-street-building-san-francisco", "name": "50 Fremont Street Building", "image_url": "https://s3-media1.fl.yelpcdn.com/bphoto/utaijaOIFyP1gGZpEY0mkQ/o.jpg", "is_closed": false, "url": "https://www.yelp.com/biz/50-fremont-street-building-san-francisco?adjust_creative=0T9f6kHMnzQCXJKBQD97qw&utm_campaign=yelp_api_v3&utm_medium=api_v3_business_search&utm_source=0T9f6kHMnzQCXJKBQD97qw", "review_count": 2, "categories": [{"alias": "commercialrealestate", "title": "Commercial Real Estate"}], "rating": 2.5, "coordinates": {"latitude": 37.79052, "longitude": -122.39719}, "transactions": [], "location": {"address1": "50 Fremont St", "address2": "", "address3": "", "city": "San Francisco", "zip_code": "94105", "country": "US", "state": "CA", "display_address": ["50 Fremont St", "San Francisco, CA 94105"]}, "phone": "+14155435556", "display_phone": "(415) 543-5556", "distance": 4771.631945079999}, {"id": "fifty-24sf-gallery-san-francisco", "name": "Fifty 24SF Gallery", "image_url": "", "is_closed": false, "url": "https://www.yelp.com/biz/fifty-24sf-gallery-san-francisco?adjust_creative=0T9f6kHMnzQCXJKBQD97qw&utm_campaign=yelp_api_v3&utm_medium=api_v3_business_search&utm_source=0T9f6kHMnzQCXJKBQD97qw", "review_count": 3, "categories": [{"alias": "galleries", "title": "Art Galleries"}], "rating": 2.5, "coordinates": {"latitude": 37.7714, "longitude": -122.43012}, "transactions": [], "location": {"address1": "218 Fillmore St", "address2": "", "address3": "", "city": "San Francisco", "zip_code": "94102", "country": "US", "state": "CA", "display_address": ["218 Fillmore St", "San Francisco, CA 94102"]}, "phone": "+14152520144", "display_phone": "(415) 252-0144", "distance": 2387.141424964}, {"id": "50-third-street-sculpture-corridor-san-francisco", "name": "50 Third Street Sculpture Corridor", "image_url": "https://s3-media2.fl.yelpcdn.com/bphoto/pJ9asOfzD-R3CB4V6-Hsvw/o.jpg", "is_closed": false, "url": "https://www.yelp.com/biz/50-third-street-sculpture-corridor-san-francisco?adjust_creative=0T9f6kHMnzQCXJKBQD97qw&utm_campaign=yelp_api_v3&utm_medium=api_v3_business_search&utm_source=0T9f6kHMnzQCXJKBQD97qw", "review_count": 1, "categories": [{"alias": "parks", "title": "Parks"}], "rating": 3.0, "coordinates": {"latitude": 37.7865181, "longitude": -122.4030991}, "transactions": [], "location": {"address1": "50 Third St", "address2": "", "address3": "", "city": "San Francisco", "zip_code": "94105", "country": "US", "state": "CA", "display_address": ["50 Third St", "San Francisco, CA 94105"]}, "phone": "", "display_phone": "", "distance": 4093.3527494519994}, {"id": "50-golden-gate-avenue-apartments-san-francisco", "name": "50 Golden Gate Avenue Apartments", "image_url": "https://s3-media2.fl.yelpcdn.com/bphoto/vq6MuLBcOB3kDZIFyh1LHg/o.jpg", "is_closed": false, "url": "https://www.yelp.com/biz/50-golden-gate-avenue-apartments-san-francisco?adjust_creative=0T9f6kHMnzQCXJKBQD97qw&utm_campaign=yelp_api_v3&utm_medium=api_v3_business_search&utm_source=0T9f6kHMnzQCXJKBQD97qw", "review_count": 10, "categories": [{"alias": "apartments", "title": "Apartments"}], "rating": 2.0, "coordinates": {"latitude": 37.7822699, "longitude": -122.41148}, "transactions": [], "location": {"address1": "50 Golden Gate Ave", "address2": null, "address3": "", "city": "San Francisco", "zip_code": "94102", "country": "US", "state": "CA", "display_address": ["50 Golden Gate Ave", "San Francisco, CA 94102"]}, "phone": "", "display_phone": "", "distance": 3233.359433876}, {"id": "50-tea-oakland", "name": "50 Tea", "image_url": "https://s3-media1.fl.yelpcdn.com/bphoto/jIbuzKfsMsFKdETFoHcnFg/o.jpg", "is_closed": false, "url": "https://www.yelp.com/biz/50-tea-oakland?adjust_creative=0T9f6kHMnzQCXJKBQD97qw&utm_campaign=yelp_api_v3&utm_medium=api_v3_business_search&utm_source=0T9f6kHMnzQCXJKBQD97qw", "review_count": 29, "categories": [{"alias": "desserts", "title": "Desserts"}, {"alias": "coffee", "title": "Coffee & Tea"}, {"alias": "icecream", "title": "Ice Cream & Frozen Yogurt"}], "rating": 3.5, "coordinates": {"latitude": 37.8007358, "longitude": -122.270182}, "transactions": [], "price": "$", "location": {"address1": "1004 Webster St", "address2": "", "address3": "", "city": "Oakland", "zip_code": "94607", "country": "US", "state": "CA", "display_address": ["1004 Webster St", "Oakland, CA 94607"]}, "phone": "+15106631188", "display_phone": "(510) 663-1188", "distance": 15268.894884499998}, {"id": "fifty-fifty-cocktail-san-francisco-2", "name": "Fifty Fifty Cocktail", "image_url": "https://s3-media3.fl.yelpcdn.com/bphoto/tBKDnM7S3Tlawb29vH-WZQ/o.jpg", "is_closed": false, "url": "https://www.yelp.com/biz/fifty-fifty-cocktail-san-francisco-2?adjust_creative=0T9f6kHMnzQCXJKBQD97qw&utm_campaign=yelp_api_v3&utm_medium=api_v3_business_search&utm_source=0T9f6kHMnzQCXJKBQD97qw", "review_count": 1, "categories": [{"alias": "cocktailbars", "title": "Cocktail Bars"}], "rating": 5.0, "coordinates": {"latitude": 37.777258471481, "longitude": -122.389015558452}, "transactions": [], "location": {"address1": null, "address2": null, "address3": "", "city": "San Francisco", "zip_code": "", "country": "US", "state": "CA", "display_address": ["San Francisco, CA"]}, "phone": "+17076373974", "display_phone": "(707) 637-3974", "distance": 4548.8197876839995}, {"id": "tsa-checkpoint-gates-50-59-san-francisco", "name": "TSA Checkpoint Gates 50-59", "image_url": "https://s3-media4.fl.yelpcdn.com/bphoto/aaNBP-ZAJmiMyF6H37Os9Q/o.jpg", "is_closed": false, "url": "https://www.yelp.com/biz/tsa-checkpoint-gates-50-59-san-francisco?adjust_creative=0T9f6kHMnzQCXJKBQD97qw&utm_campaign=yelp_api_v3&utm_medium=api_v3_business_search&utm_source=0T9f6kHMnzQCXJKBQD97qw", "review_count": 9, "categories": [{"alias": "publicservicesgovt", "title": "Public Services & Government"}], "rating": 1.5, "coordinates": {"latitude": 37.6167291792555, "longitude": -122.384024012485}, "transactions": [], "location": {"address1": "Domestic Terminals Departures Level", "address2": "", "address3": "", "city": "San Francisco", "zip_code": "94128", "country": "US", "state": "CA", "display_address": ["Domestic Terminals Departures Level", "San Francisco, CA 94128"]}, "phone": "", "display_phone": "", "distance": 16681.27098058}, {"id": "little-sweet-san-francisco-10", "name": "Little Sweet", "image_url": "https://s3-media4.fl.yelpcdn.com/bphoto/CnOt1khh1P2hjMzJr2UU7g/o.jpg", "is_closed": false, "url": "https://www.yelp.com/biz/little-sweet-san-francisco-10?adjust_creative=0T9f6kHMnzQCXJKBQD97qw&utm_campaign=yelp_api_v3&utm_medium=api_v3_business_search&utm_source=0T9f6kHMnzQCXJKBQD97qw", "review_count": 334, "categories": [{"alias": "bubbletea", "title": "Bubble Tea"}, {"alias": "coffee", "title": "Coffee & Tea"}, {"alias": "juicebars", "title": "Juice Bars & Smoothies"}], "rating": 4.0, "coordinates": {"latitude": 37.781425, "longitude": -122.4608022}, "transactions": ["pickup"], "price": "$", "location": {"address1": "3836 Geary Blvd", "address2": "", "address3": "", "city": "San Francisco", "zip_code": "94118", "country": "US", "state": "CA", "display_address": ["3836 Geary Blvd", "San Francisco, CA 94118"]}, "phone": "+14157026763", "display_phone": "(415) 702-6763", "distance": 3129.1458175059997}, {"id": "gary-danko-san-francisco", "name": "Gary Danko", "image_url": "https://s3-media3.fl.yelpcdn.com/bphoto/MWMKouFOmJk3DX6pIuWUwQ/o.jpg", "is_closed": false, "url": "https://www.yelp.com/biz/gary-danko-san-francisco?adjust_creative=0T9f6kHMnzQCXJKBQD97qw&utm_campaign=yelp_api_v3&utm_medium=api_v3_business_search&utm_source=0T9f6kHMnzQCXJKBQD97qw", "review_count": 4498, "categories": [{"alias": "newamerican", "title": "American (New)"}, {"alias": "french", "title": "French"}, {"alias": "bars", "title": "Bars"}], "rating": 4.5, "coordinates": {"latitude": 37.80587, "longitude": -122.42058}, "transactions": [], "price": "$$$$", "location": {"address1": "800 N Point St", "address2": "", "address3": "", "city": "San Francisco", "zip_code": "94109", "country": "US", "state": "CA", "display_address": ["800 N Point St", "San Francisco, CA 94109"]}, "phone": "+14157492060", "display_phone": "(415) 749-2060", "distance": 5192.464216238}, {"id": "house-of-prime-rib-san-francisco", "name": "House of Prime Rib", "image_url": "https://s3-media4.fl.yelpcdn.com/bphoto/HLrjaMoAgYSac0vx71YpCA/o.jpg", "is_closed": false, "url": "https://www.yelp.com/biz/house-of-prime-rib-san-francisco?adjust_creative=0T9f6kHMnzQCXJKBQD97qw&utm_campaign=yelp_api_v3&utm_medium=api_v3_business_search&utm_source=0T9f6kHMnzQCXJKBQD97qw", "review_count": 5738, "categories": [{"alias": "tradamerican", "title": "American (Traditional)"}, {"alias": "steak", "title": "Steakhouses"}], "rating": 4.0, "coordinates": {"latitude": 37.79338, "longitude": -122.4225}, "transactions": [], "price": "$$$", "location": {"address1": "1906 Van Ness Ave", "address2": "", "address3": "", "city": "San Francisco", "zip_code": "94109", "country": "US", "state": "CA", "display_address": ["1906 Van Ness Ave", "San Francisco, CA 94109"]}, "phone": "+14158854605", "display_phone": "(415) 885-4605", "distance": 3820.5103957399997}, {"id": "boba-guys-san-francisco-6", "name": "Boba Guys", "image_url": "https://s3-media1.fl.yelpcdn.com/bphoto/LFs0QD_LJgPHEw8Y1fTGdg/o.jpg", "is_closed": false, "url": "https://www.yelp.com/biz/boba-guys-san-francisco-6?adjust_creative=0T9f6kHMnzQCXJKBQD97qw&utm_campaign=yelp_api_v3&utm_medium=api_v3_business_search&utm_source=0T9f6kHMnzQCXJKBQD97qw", "review_count": 1128, "categories": [{"alias": "coffee", "title": "Coffee & Tea"}, {"alias": "bubbletea", "title": "Bubble Tea"}, {"alias": "desserts", "title": "Desserts"}], "rating": 4.0, "coordinates": {"latitude": 37.7899434017563, "longitude": -122.407306303981}, "transactions": [], "price": "$", "location": {"address1": "429 Stockton St", "address2": "", "address3": "", "city": "San Francisco", "zip_code": "94108", "country": "US", "state": "CA", "display_address": ["429 Stockton St", "San Francisco, CA 94108"]}, "phone": "+14159672622", "display_phone": "(415) 967-2622", "distance": 4122.138370296}], "total": 6234, "region": {"center": {"latitude": 37.72952751429354, "longitude": -122.40446966210938}}}